id,nombre,partido,municipio,cp,latitud,longitud
10614,ACHALCO,EL ALTO,,4234,-28.3718653,-65.1614785
16815,ACHERAL,LA PAZ,,5260,,
10352,ACOSTILLA,ANCASTI,,4701,,
10561,ADOLFO E CARRANZA,CAPAYAN,CAPAYAN,5263,-29.0263962,-66.0033266
29295,AGUA AMARILLA,ANDALGALA,ANDALGALA,4740,-27.4384657,-66.4162931
10888,AGUA AMARILLA LA HOYADA,SANTA MARIA,SAN JOSE,4139,-26.7701251,-66.4816340
10889,AGUA AMARILLA PTA DE BALASTO,SANTA MARIA,,4139,,
29220,AGUA COLORADA,FRAY MAMERTO ESQUIU,FRAY MAMERTO ESQUIU,4707,-28.3609879,-65.7209937
11056,AGUA COLORADA,VALLE VIEJO,,4724,-28.5617131,-65.7801743
10487,AGUA COLORADA,BELEN,,4750,-27.5011958,-66.8089181
10488,AGUA DE DIONISIO,BELEN,,4751,,
10441,AGUA DE LAS PALOMAS,ANDALGALA,ACONQUIJA,4741,-27.6204111,-66.1233205
16774,AGUA DEL CAMPO,BELEN,,4750,,
10353,AGUA DEL SIMBOL,ANCASTI,,5261,,
29136,AGUA DELGADA,ANTOFAGASTA DE LA SIERRA,ANTOFAGASTA DE LA SIERRA,4705,-26.5735165,-67.1660208
16816,AGUA ESCONDIDA,LA PAZ,,5260,,
16877,AGUA GRANDE,TINOGASTA,,5340,,
10354,AGUA LOS MATOS,ANCASTI,,5265,,
16762,AGUA SALADA,ANDALGALA,,4740,-27.6412121,-66.5982294
29152,AGUA SALADA,TINOGASTA,FIAMBALA,5345,-27.1158040,-67.6842988
16604,AGUA VERDE,AMBATO,,4715,,
10442,AGUA VERDE,ANDALGALA,,4740,-27.5006536,-66.3218931
16878,AGUADA,TINOGASTA,,5340,,
29170,AGUADA DE LA TOMA,BELEN,POZO DE PIEDRA,4751,-27.6094813,-67.1309834
29211,AGUADA GRANDE,POMAN,SAUJIL,5321,-28.1293682,-66.4296986
16765,AGUADITA,ANTOFAGASTA DE LA SIERRA,,4705,,
29321,AGUADITA,CAPAYAN,HUILLAPIMA,4728,-28.5988777,-66.0253529
10489,AGUAS CALIENTES,BELEN,,4751,-26.3576726,-66.6436172
10615,ALBIGASTA,EL ALTO,,4231,-28.5840070,-65.2242263
10684,ALBIGASTA,LA PAZ,,4235,,
16763,ALGARROBAL,ANDALGALA,,4740,-27.6353839,-66.6708594
10934,ALIJILAN,SANTA ROSA,LOS ALTOS,4723,-28.1771813,-65.4915924
29279,ALMAFUGALLA,EL ALTO,EL ALTO,4235,-28.4595613,-65.4400949
10935,ALMIGAUCHO,SANTA ROSA,,4723,,
10936,ALTA GRACIA,SANTA ROSA,,4723,-28.0449801,-65.2783792
29260,ALTAMIRANDA,SANTA ROSA,SANTA ROSA,4723,-27.9485099,-65.2301224
10685,ALTO BELLO,LA PAZ,,5261,,
29558,ALTO DE LAS JUNTAS,ANDALGALA,ACONQUIJA,4743,,
10355,ALTO DEL ROSARIO,ANCASTI,,5261,,
10490,ALTO EL BOLSON,BELEN,,4751,-26.9441320,-66.7343355
10816,AMADORES,PACLIN,,4716,-28.2634973,-65.6369539
29350,AMAGLIA,LA PAZ,ICAÑO,5265,-28.7320920,-65.1885449
10356,AMANA,ANCASTI,,4701,-28.9271046,-65.5207422
10445,AMANAO,ANDALGALA,ANDALGALA,4741,-27.5378863,-66.5028581
10937,AMANCALA,SANTA ROSA,,4723,,
10305,AMBATO,AMBATO,,4711,,
10890,AMPAJANGO,SANTA MARIA,,4139,-26.9057599,-66.0832271
10938,AMPOLLA,SANTA ROSA,,4723,-28.1672305,-65.3158458
10491,AMPUJACO,BELEN,,4750,-27.4488215,-66.7390871
30262,ANCASTI,ANCASTI,ANCASTI,4701,-28.8119540,-65.5008080
10686,ANCASTILLO,LA PAZ,,4231,-28.7473344,-65.3038860
16879,ANCHOCA,TINOGASTA,,5340,,
10446,ANDALGALA,ANDALGALA,ANDALGALA,4740,-27.5809994,-66.3176880
10891,ANDALHUALA,SANTA MARIA,SAN JOSE,4139,-26.8855676,-66.0477737
10981,ANDALUCIA,TINOGASTA,,5331,,
10687,ANGELINA,LA PAZ,,5264,,
16775,ANGOSTURA,BELEN,,4750,-27.0149915,-66.7517341
10982,ANILLACO,TINOGASTA,,5341,-27.9074917,-67.6253545
10688,ANJULI,LA PAZ,ICAÑO,4231,-28.6763780,-65.2741754
10358,ANQUINCILA,ANCASTI,,4701,-28.7469161,-65.5470829
11057,ANTAPOCA,VALLE VIEJO,,4705,-28.5137437,-65.7636336
29240,ANTENA,AMBATO,LOS VARELA,4711,-27.9309355,-65.8878424
27617,ANTINACO,TINOGASTA,,5341,-27.2163844,-67.6106456
10486,ANTOFAGASTA,ANTOFAGASTA DE LA SIERRA,ANTOFAGASTA DE LA SIERRA,4705,-26.0593726,-67.4052776
29128,ANTOFALLA,ANTOFAGASTA DE LA SIERRA,ANTOFAGASTA DE LA SIERRA,4705,-25.5166555,-67.6178185
29125,ANTOFALLITA,ANTOFAGASTA DE LA SIERRA,ANTOFAGASTA DE LA SIERRA,4705,-25.2474351,-67.5205847
16880,APOCANGO,TINOGASTA,,5340,,
10861,APOYACO,POMAN,,5317,-28.3070978,-66.1407101
16764,ARIMA,ANDALGALA,,4740,,
10492,ASAMPAY,BELEN,,4751,-27.3483956,-67.0605790
10447,ASERRADERO EL PILCIO,ANDALGALA,,4740,,
10616,AYAPASO,EL ALTO,TAPSO,4234,-28.3343344,-65.2071195
10817,BALCOSNA,PACLIN,PACLIN,4719,-27.8817939,-65.7258898
10818,BALCOSNA DE AFUERA,PACLIN,,4719,-27.8721525,-65.7551127
16840,BALDE,LA PAZ,,5260,,
29213,BALDE DE LA PAMPA,POMAN,POMAN,5315,-28.3395970,-66.5504432
10562,BALDE LA PUNTA,CAPAYAN,CAPAYAN,5263,-29.5367076,-65.5859512
10563,BALDE NUEVO,CAPAYAN,,5263,,
16766,BALSA,ANTOFAGASTA DE LA SIERRA,,4705,,
16881,BALUNGASTA,TINOGASTA,,5340,,
10939,BAÑADO DE OVANTA,SANTA ROSA,SANTA ROSA,4723,-28.1056156,-65.3187256
10892,BANDA,SANTA MARIA,,4139,,
10983,BANDA DE LUCERO,TINOGASTA,,5333,-28.1746024,-67.4721369
10597,BANDA VARELA,CAPITAL,,4700,-28.4334530,-65.7335203
10493,BARRANCA LARGA,BELEN,VILLA VIL,4751,-26.9841633,-66.7388807
10617,BARRANQUITAS,EL ALTO,,4235,,
29349,BARREAL DE LA PUNTA,CAPAYAN,CAPAYAN,4728,-29.6193342,-65.5398909
29209,BARREALITO,POMAN,SAUJIL,5321,-28.1877096,-66.3917765
29245,BARRIO 10 VIVIENDAS (COLPES),AMBATO,LA PUERTA,4711,-28.0740376,-65.8116404
29308,BARRIO 25 VIVIENDAS,ANDALGALA,ACONQUIJA,4740,-27.4498305,-66.0029045
29238,BARRIO EL PERO,PACLIN,PACLIN,4718,-27.8956309,-65.7210647
16850,BARRO NEGRO,PACLIN,,4718,-27.8497039,-65.7193978
10690,BAVIANO,LA PAZ,,5265,-28.7875276,-65.2997248
10618,BEBIDA,EL ALTO,,4235,,
10494,BELEN,BELEN,BELEN,4750,-27.6538143,-67.0249786
10619,BELLA VISTA,EL ALTO,,4235,-28.6231172,-65.4915495
27620,BELLA VISTA,AMBATO,,4715,-28.1784447,-65.8819858
16605,BISCOTAL,AMBATO,,4715,,
29341,BREA,CAPAYAN,CAPAYAN,4728,-28.9862532,-65.7626843
10359,BREA,ANCASTI,,5265,,
10620,BREA CHIMPANA,EL ALTO,,4230,,
16817,BUEN RETIRO,LA PAZ,,5260,,
10448,BUENA VISTA,ANDALGALA,,4743,-27.5037814,-66.0271735
10564,BUENA VISTA,CAPAYAN,,5263,,
16855,BUEY MUERTO,SANTA MARIA,,4139,,
16841,BUEY MUERTO,LA PAZ,,5260,,
10691,CABALLA,LA PAZ,,5261,-28.9960930,-65.3475401
10360,CABRERA,ANCASTI,,4701,,
10940,CACHI,SANTA ROSA,,4723,,
10495,CACHIJAN,BELEN,,4751,,
16800,CACHUAN,BELEN,,4750,,
10361,CALACIO,ANCASTI,,4701,,
10362,CALERA,ANCASTI,,4701,,
10862,CALERA LA NORMA,POMAN,,5315,,
10893,CAMPITOS,SANTA MARIA,,4139,,
29259,CAMPO ALEGRE,SANTA ROSA,SANTA ROSA,4723,-27.9501071,-65.2545871
16818,CAMPO BELLO,LA PAZ,,5260,,
16819,CAMPO BLANCO,LA PAZ,,5260,,
29164,CAMPO DE LAS CALIVAS,BELEN,PUERTA DE CORRAL QUEMADO,4751,-27.1821385,-66.9385679
10692,CAÑADA,LA PAZ,,5264,,
10363,CAÑADA DE IPIZCA,ANCASTI,,4701,-28.7883571,-65.5214326
10364,CAÑADA DE PAEZ,ANCASTI,,4701,-28.7005459,-65.4995627
10365,CAÑADA LARGA,ANCASTI,,5265,,
27875,CANDELARIA,LA PAZ,,4231,,
10366,CANDELARIA,ANCASTI,,4701,-28.6995924,-65.4232968
16882,CANTERA ROTA,TINOGASTA,,5340,,
10565,CAPAYAN,CAPAYAN,CAPAYAN,4726,-28.7638085,-66.0499029
29134,CARACHI PAMPA,ANTOFAGASTA DE LA SIERRA,ANTOFAGASTA DE LA SIERRA,4705,-26.4323508,-67.4763440
10449,CARAPUNCO,ANDALGALA,,4741,,
16871,CARIDAD,SANTA ROSA,,4723,-28.0238381,-65.1779413
10985,CARRIZAL,TINOGASTA,,5333,,
10497,CARRIZAL DE ABAJO,BELEN,,4751,,
10498,CARRIZAL DE LA COSTA,BELEN,,4751,,
10367,CASA ARMADA,ANCASTI,,4701,-28.6643571,-65.5200763
16883,CASA DE ALTO,TINOGASTA,,5340,-27.2292183,-67.6427828
10368,CASA DE LA CUMBRE,ANCASTI,,5261,,
10895,CASA DE PIEDRA,SANTA MARIA,SAN JOSE,4139,-26.8247522,-66.0845720
10450,CASA DE PIEDRA,ANDALGALA,,4741,,
29371,CASA DE PIEDRA,LA PAZ,RECREO,5260,-29.6037886,-65.5203501
29199,CASA DEL CAMPO,SANTA MARIA,SAN JOSE,4139,-27.0107706,-66.3777644
16776,CASA GRANDE,BELEN,,4750,,
16884,CASA GRANDE,TINOGASTA,,5340,,
10369,CASA VIEJA,ANCASTI,,4701,,
10894,CASPINCHANGO,SANTA MARIA,,4139,-26.7324296,-65.9526013
16885,CASTAÑAR,TINOGASTA,,5340,,
29161,CATATAGUA,BELEN,VILLA VIL,4755,-27.0376340,-66.7720583
16820,CATITA,LA PAZ,,5260,,
29147,CAZADERA GRANDE,TINOGASTA,FIAMBALA,5345,-27.4224120,-68.1300026
29799,CEBILA,POMAN,POMAN,5315,-28.7166562,-66.3666348
16886,CERDAS,TINOGASTA,,5340,,
10694,CERRILLADA,LA PAZ,,5264,-28.9369789,-64.9206946
10896,CERRILLOS,SANTA MARIA,,4139,-27.1367991,-66.1490541
10566,CERRILLOS,CAPAYAN,,4139,,
29154,CERRITO DEL CAMPO,TINOGASTA,FIAMBALA,5345,-27.1415320,-67.6842776
16856,CERRO COLORADO,SANTA MARIA,,4139,,
16842,CERRO COLORADO,LA PAZ,,5260,,
10986,CERRO NEGRO,TINOGASTA,,5331,-28.2595429,-67.1367436
10819,CERVIÑO,PACLIN,,4716,,
10599,CHACABUCO,CAPITAL,,4700,,
10370,CHACRITAS,ANCASTI,,5265,,
10897,CHAFIÑAN,SANTA MARIA,,4139,,
10308,CHAMORRO,AMBATO,,4715,-27.9669995,-65.9423789
10621,CHAÑAR LAGUNA,EL ALTO,,4234,-28.5088697,-65.1512520
10898,CHAÑAR PUNCO,SANTA MARIA,,4139,-26.7535360,-66.0784481
16931,CHAÑARCITO,VALLE VIEJO,,4707,,
10695,CHAÑARITOS,LA PAZ,,5264,-28.8834163,-65.2124017
10451,CHAÑARYACO,ANDALGALA,,4751,,
16887,CHANERO,TINOGASTA,,5340,,
10452,CHAQUIAGO,ANDALGALA,ANDALGALA,4741,-27.5453606,-66.3262177
29524,CHARQUIADERO,ANDALGALA,ACONQUIJA,4740,-27.4214336,-65.9921383
29177,CHAUPIYACU,BELEN,BELEN,4750,-27.4652542,-66.7917677
10309,CHAVARRIA,AMBATO,,4715,,
16888,CHAVERO,TINOGASTA,,5340,,
10696,CHICHAGASTA,LA PAZ,,5266,,
16852,CHIFLON,PACLIN,,4718,,
10453,CHILCA,ANDALGALA,,4740,-27.6342950,-66.1963582
29194,CHIÑOCAN,SANTA MARIA,SAN JOSE,4139,-26.8082096,-66.5015254
16777,CHIQUERITO,BELEN,,4750,,
29172,CHISTIN,BELEN,PUERTA DE SAN JOSE,4751,-27.3623168,-67.0757665
10454,CHOYA,ANDALGALA,ANDALGALA,4741,-27.5259608,-66.3818815
29287,CHOYA VIEJO,EL ALTO,TAPSO,4235,-28.4681218,-65.1461204
10310,CHUCHUCARUANA,AMBATO,LOS VARELA,4711,-27.9217256,-65.8397502
16778,CHUCOLAY,BELEN,,4750,,
10568,CHUMBICHA,CAPAYAN,CAPAYAN,4728,-28.8557854,-66.2354050
29153,CHUQUISACA,TINOGASTA,FIAMBALA,5345,-27.1216537,-67.7035499
16857,CIENAGA,SANTA MARIA,,4139,,
16862,CIENAGA,LA PAZ,,5260,,
29155,CIENAGA DE LOS MACHOS,TINOGASTA,FIAMBALA,5345,-27.0899376,-67.3326422
29162,CIENAGA DE VICUÑA PAMPA,BELEN,CORRAL QUEMADO,4751,-26.8789948,-66.9210220
10987,CIENAGUITA,TINOGASTA,,5333,-28.1748073,-67.6927035
10672,COLLAGASTA,FRAY MAMERTO ESQUIU,FRAY MAMERTO ESQUIU,4711,-28.3514027,-65.7150531
10569,COLONIA DEL VALLE,CAPAYAN,HUILLAPIMA,4726,-28.6496540,-65.8783340
10570,COLONIA NUEVA CONETA,CAPAYAN,HUILLAPIMA,4724,-28.5747760,-65.8439670
10311,COLPES,AMBATO,LA PUERTA,4711,-28.0647516,-65.8135696
10863,COLPES,POMAN,,5319,-28.0566308,-66.2023472
29269,COMEDERO,ANCASTI,ANCASTI,4701,-28.9188622,-65.6016596
10984,COMPLEJO TERMAL LA AGUADITA,TINOGASTA,TINOGASTA,5345,-28.0309594,-67.6664525
10371,CONCEPCION,ANCASTI,,4701,-28.6702108,-65.3759178
10571,CONCEPCION,CAPAYAN,CAPAYAN,4726,-28.6891365,-66.0628808
10455,CONDOR HUASI,ANDALGALA,,4711,-27.5972337,-65.9791517
10499,CONDOR HUASI,BELEN,POZO DE PIEDRA,4751,-27.4940857,-67.1001746
10572,CONETA,CAPAYAN,HUILLAPIMA,4724,-28.5787264,-65.8843619
10988,COPACABANA,TINOGASTA,TINOGASTA,5333,-28.1714134,-67.4831161
29185,CORDOBA,BELEN,LONDRES,4753,-27.7780458,-67.2356480
10989,CORDOBITA,TINOGASTA,,5331,-28.3010335,-67.2146668
29156,CORRAL BLANCO,BELEN,VILLA VIL,4755,-26.4962967,-66.9200154
10372,CORRAL DE PIEDRA,ANCASTI,,4701,,
10990,CORRAL DE PIEDRA,TINOGASTA,,5341,-27.3610179,-67.3283703
10500,CORRAL QUEMADO,BELEN,CORRAL QUEMADO,4751,-27.1505512,-66.9450111
16939,CORRAL VIEJO,SANTA MARIA,,4139,-26.9673921,-66.2651079
10373,CORRAL VIEJO,ANCASTI,,4701,,
16606,CORRALITA,AMBATO,,4715,,
10501,CORRALITO,BELEN,,4753,,
10374,CORRALITO,ANCASTI,,5265,-28.6255312,-65.3149169
10697,CORRALITOS,LA PAZ,,4230,,
16779,CORTADERA,BELEN,,4750,-27.4389692,-66.7779261
16938,CORTADERA,TINOGASTA,,5340,-27.5597599,-68.1486268
10941,CORTADERAS,SANTA ROSA,,4237,-28.2721205,-65.1698046
10698,CORTADERAS,LA PAZ,,5261,,
10991,COSTA DE REYES,TINOGASTA,,5341,-28.2961293,-67.6934443
10502,COTAGUA,BELEN,,4751,,
29251,CUCHINOQUE,SANTA ROSA,LOS ALTOS,4722,-27.8762471,-65.3943844
10527,CUESTA DE VICUÑA PAMPA,BELEN,CORRAL QUEMADO,4751,-26.9802864,-66.9096394
16780,CUEVA BLANCA,BELEN,,4750,,
10503,CULAMPAJA,BELEN,,4751,-26.9995671,-66.9656700
16767,CUMBRE DEL LAUDO,ANTOFAGASTA DE LA SIERRA,,4705,,
29380,CURUTO,ANTOFAGASTA DE LA SIERRA,ANTOFAGASTA DE LA SIERRA,4705,-25.9114947,-67.3525369
29174,DE LA PAMPA,BELEN,PUERTA DE SAN JOSE,4751,-27.3732970,-66.8252147
10510,DEL MEDIO,BELEN,BELEN,4750,-27.5646300,-66.6844185
16863,DERRUMBE,SANTA MARIA,SAN JOSE,4139,-26.8995365,-66.3184376
10456,DISTRITO ESPINILLO,ANDALGALA,,4740,,
10699,DIVISADERO,LA PAZ,,5260,-29.2038617,-65.4571788
29345,DON DIEGO,CAPAYAN,CAPAYAN,4728,-29.3134103,-65.6253297
10942,DOS POCITOS,SANTA ROSA,,4723,-28.0708262,-65.2650955
16805,DURAZNILLO,BELEN,,4750,,
10504,DURAZNO,BELEN,,4753,,
29257,EL ABRA,SANTA ROSA,LOS ALTOS,4722,-28.0823434,-65.4289989
10700,EL ABRA,LA PAZ,,5261,,
10457,EL ALAMITO,ANDALGALA,ACONQUIJA,4743,-27.4897661,-66.0207844
10622,EL ALTO,EL ALTO,EL ALTO,4235,-28.3115749,-65.3619003
10992,EL ALTO,TINOGASTA,,5333,,
10312,EL ARBOL SOLO,AMBATO,,4711,,
10375,EL ARBOLITO,ANCASTI,,4701,,
10458,EL ARBOLITO,ANDALGALA,,4743,-27.5556100,-66.0068633
29246,EL ARENAL,AMBATO,LA PUERTA,4711,-28.0782153,-65.8098169
10376,EL ARENAL,ANCASTI,,5261,,
10899,EL ARROYO,SANTA MARIA,,4139,,
10313,EL ATOYAL,AMBATO,,4715,-28.1515343,-65.8903714
10701,EL AYBAL,LA PAZ,RECREO,5261,-29.1082792,-65.3621866
10900,EL BALDE,SANTA MARIA,,4139,,
11058,EL BAÑADO,VALLE VIEJO,VALLE VIEJO,4707,-28.4661355,-65.6951982
10573,EL BAÑADO,CAPAYAN,,4724,-28.6237093,-65.8556932
10702,EL BAÑADO,LA PAZ,,5261,-29.1955638,-65.4374852
10377,EL BARREAL,ANCASTI,,4701,,
10703,EL BARREAL,LA PAZ,,5260,-29.3347760,-65.1655020
10705,EL BARRIALITO,LA PAZ,,4231,-29.1826939,-65.4510234
10993,EL BARRIALITO,TINOGASTA,,5345,,
10820,EL BASTIDOR,PACLIN,,4718,-28.1935690,-65.6600113
10706,EL BELLO,LA PAZ,,5260,,
10315,EL BOLSON,AMBATO,LOS VARELA,4711,-27.9003645,-65.8754749
29160,EL BOLSON,BELEN,VILLA VIL,4755,-27.0081088,-66.7425812
29369,EL BOSQUECILLO,LA PAZ,RECREO,5260,-29.5737840,-65.3186484
10994,EL CACHIYUYO,TINOGASTA,TINOGASTA,5341,-28.0081302,-67.5477439
10707,EL CACHO,LA PAZ,,5261,,
10901,EL CAJON,SANTA MARIA,SANTA MARIA,4139,-26.3955477,-66.2641930
10505,EL CAJON,BELEN,,4751,-27.0534771,-66.9040656
10902,EL CALCHAQUI,SANTA MARIA,,4139,,
10506,EL CAMPILLO,BELEN,,4751,,
29384,EL CAMPITO,SANTA MARIA,SAN JOSE,4139,-27.1069400,-66.1961849
10944,EL CARMEN,SANTA ROSA,,4723,,
10574,EL CARRIZAL,CAPAYAN,,4726,-28.6708813,-66.1226578
10459,EL CARRIZAL,ANDALGALA,,4741,,
10507,EL CARRIZAL,BELEN,,4751,-27.3380221,-67.0256357
10708,EL CENTENARIO,LA PAZ,,4231,,
10378,EL CERCADO,ANCASTI,,4701,,
10709,EL CERCADO,LA PAZ,,5260,-29.3523209,-65.4808219
10903,EL CERRITO,SANTA MARIA,,4139,-26.6971834,-66.0677466
10710,EL CERRITO,LA PAZ,,5261,-29.4066718,-65.4102444
10821,EL CEVIL,PACLIN,,4716,,
10379,EL CEVILARCITO,ANCASTI,,4701,,
10822,EL CHAMICO,PACLIN,,4719,,
10380,EL CHAÑARAL,ANCASTI,,4701,,
29187,EL CHAÑARAL,BELEN,LONDRES,4753,-27.7229564,-67.0443898
10711,EL CHAÑARAL,LA PAZ,,5261,,
10381,EL CHORRO,ANCASTI,ANCASTI,4701,-28.9476859,-65.5771416
10316,EL CHORRO,AMBATO,,4711,-27.8382963,-65.8814416
10712,EL CIENAGO,LA PAZ,,5261,,
10823,EL CIFLON,PACLIN,,4719,,
29370,EL CLERIGO,LA PAZ,RECREO,5260,-29.5950487,-65.3640618
10460,EL COLEGIO,ANDALGALA,,4740,-27.5587025,-66.3234558
10824,EL CONTADOR,PACLIN,,4719,,
10904,EL DESMONTE,SANTA MARIA,SAN JOSE,4139,-26.8815639,-66.1003924
29274,EL DESMONTE,EL ALTO,EL ALTO,4235,-28.2745709,-65.4484102
10673,EL DESMONTE,FRAY MAMERTO ESQUIU,,4707,-28.3372686,-65.7092620
10945,EL DESMONTE,SANTA ROSA,,4723,,
29357,EL DUMEAL,LA PAZ,ICAÑO,5265,-28.8501863,-64.9152492
10825,EL DURAZNILLO,PACLIN,,4722,,
29310,EL DURAZNO,ANDALGALA,ACONQUIJA,4740,-27.5144465,-65.9967190
10508,EL DURAZNO,BELEN,,4751,-27.2506819,-67.0360547
29137,EL DURAZNO,TINOGASTA,TINOGASTA,5340,-27.7492010,-67.3641777
10509,EL EJE,BELEN,SAN FERNANDO,4751,-27.2784290,-66.8755646
10461,EL ESPINILLO,ANDALGALA,,4743,-27.5754465,-66.1488385
10713,EL GACHO,LA PAZ,,5261,,
10826,EL GARABATO,PACLIN,,4716,,
10418,EL HUAYCO,ANCASTI,ANCASTI,4701,-28.7475476,-65.6383572
11059,EL HUECO,FRAY MAMERTO ESQUIU,FRAY MAMERTO ESQUIU,4707,-28.4127885,-65.7175370
29331,EL INFIERNILLO,CAPAYAN,HUILLAPIMA,4728,-28.8720342,-65.7502684
16821,EL JUMEAL,LA PAZ,RECREO,5260,-29.4145652,-65.5023934
10462,EL LINDERO,ANDALGALA,ACONQUIJA,4740,-27.4690102,-66.0121069
10714,EL LINDERO,LA PAZ,,5260,,
29334,EL MANANTIAL,CAPAYAN,CAPAYAN,4728,-28.7293950,-66.1438129
10905,EL MEDANITO,SANTA MARIA,,4139,,
29346,EL MEDANO,CAPAYAN,CAPAYAN,4728,-29.3349890,-65.7152210
29204,EL MEDIO,SANTA MARIA,SAN JOSE,4139,-27.2088284,-66.2042419
10575,EL MILAGRO,CAPAYAN,,4726,-28.8473156,-65.9055673
10715,EL MILAGRO,LA PAZ,,5261,-29.3492967,-65.3384781
10716,EL MISTOLITO,LA PAZ,,5261,-29.3400645,-65.4946489
10382,EL MOJON,ANCASTI,,4701,-28.6258957,-65.3513502
10511,EL MOLINO,BELEN,,4750,,
10383,EL MOLLAR,ANCASTI,,4701,,
10463,EL MOLLE,ANDALGALA,ANDALGALA,4740,-27.6803017,-66.0938597
29314,EL MOLLECITO,ANDALGALA,ACONQUIJA,4740,-27.6588991,-66.0195539
10717,EL MORENO,LA PAZ,,5261,-29.2569069,-65.3936201
10546,EL MORTERITO,BELEN,VILLA VIL,4711,-26.9404561,-66.6400967
10864,EL PAJONAL,POMAN,,5315,-28.3717085,-66.2908639
29522,EL PANTANILLO,CAPITAL,SAN F DEL VALLE DE CATAMARCA,4700,-28.5404494,-65.7954185
29311,EL PANTANITO,ANDALGALA,ACONQUIJA,4740,-27.5413863,-65.9803148
10318,EL PARQUE,AMBATO,,4711,,
10995,EL PEÑON,ANTOFAGASTA DE LA SIERRA,,5345,-26.4800269,-67.2633182
29253,EL PENSAMIENTO,SANTA ROSA,LOS ALTOS,4722,-27.9102331,-65.3796665
10319,EL PIE DE LA CUESTA,AMBATO,,4711,,
10320,EL POLEAR,AMBATO,,4711,,
10718,EL POLEAR,LA PAZ,,5261,,
11066,EL PORTEZUELO,VALLE VIEJO,VALLE VIEJO,4716,-28.4682515,-65.6416069
10512,EL PORTEZUELO,BELEN,,4750,,
10719,EL PORTEZUELO,LA PAZ,,5261,,
10321,EL POTRERILLO,AMBATO,,4711,,
29335,EL POTRERILLO,CAPAYAN,CAPAYAN,4728,-28.7391098,-66.1893470
10946,EL POTRERO,SANTA ROSA,,4723,,
29340,EL POTRERO,CAPAYAN,CAPAYAN,4728,-28.8245946,-66.3639796
10481,EL POTRERO,ANDALGALA,,4743,-27.5044039,-66.3212741
10720,EL POTRERO,LA PAZ,,5261,,
10865,EL POTRERO,POMAN,,5321,-28.1838366,-66.1483300
10384,EL POTRERO DE LOS CORDOBA,ANCASTI,,4701,-28.8928911,-65.4709620
10385,EL POZO,ANCASTI,,4701,,
29181,EL POZO,BELEN,BELEN,4750,-27.8269051,-66.7793090
10464,EL PUCARA,ANDALGALA,,4711,-27.7030814,-66.0094069
10996,EL PUEBLITO,TINOGASTA,TINOGASTA,5331,-28.2778111,-67.1527557
29339,EL PUENTE NEGRO,CAPAYAN,CAPAYAN,4728,-28.9046161,-66.1706963
29231,EL PUESTITO,PACLIN,PACLIN,4718,-27.8541335,-65.7703267
10721,EL PUESTITO,LA PAZ,,5261,,
29189,EL PUESTO,SANTA MARIA,SANTA MARIA,4139,-26.6529271,-66.0588200
10722,EL PUESTO,LA PAZ,,5261,,
10997,EL PUESTO,TINOGASTA,,5341,-27.9582873,-67.6372873
10386,EL QUEBRACHAL,ANCASTI,,5261,-29.2113562,-65.5562450
10947,EL QUEBRACHITO,SANTA ROSA,,4235,-28.1557424,-65.2264695
10723,EL QUIMILO,LA PAZ,,5263,-29.9001979,-65.3980216
16755,EL REALITO,AMBATO,,4715,,
16864,EL RECREO,SANTA MARIA,SANTA MARIA,4139,-26.7249772,-66.0554697
16843,EL RECREO,LA PAZ,,5260,,
10827,EL RETIRO,PACLIN,,4716,,
10724,EL RETIRO,LA PAZ,,5264,,
29157,EL RIO,BELEN,VILLA VIL,4755,-26.5339959,-66.7484689
10623,EL RODEITO,EL ALTO,,4235,,
16872,EL RODEITO,SANTA ROSA,,4723,,
10322,EL RODEO,AMBATO,EL RODEO,4715,-28.2102146,-65.8768234
29166,EL RODEO,BELEN,PUERTA DE CORRAL QUEMADO,4751,-27.3300904,-67.1465400
10323,EL RODEO GRANDE,AMBATO,,4711,-27.9908379,-65.8419924
10624,EL ROSARIO,EL ALTO,,4235,,
10828,EL ROSARIO,PACLIN,,4719,-27.9877427,-65.6885324
10725,EL ROSARIO,LA PAZ,,5264,-29.4943352,-65.3256073
10670,EL SALADILLO,LA PAZ,,5261,,
10387,EL SALTITO,ANCASTI,,5261,,
16811,EL SALTO,LA PAZ,,5260,,
29236,EL SALTON,PACLIN,PACLIN,4718,-28.0149972,-65.6876867
29278,EL SAUCE,EL ALTO,EL ALTO,4235,-28.4336752,-65.3503338
10388,EL SAUCE,ANCASTI,ANCASTI,4701,-28.9968508,-65.5697563
29230,EL SAUCE,PACLIN,PACLIN,4718,-27.8335682,-65.7836163
10389,EL SAUCE IPIZCA,ANCASTI,,4701,,
16873,EL SAUCECITO,SANTA ROSA,,4723,,
10625,EL SIMBOL,EL ALTO,,4234,,
10465,EL SUNCHO,ANDALGALA,,4743,,
10726,EL SUNCHO,LA PAZ,,5261,-29.3989171,-65.2625024
10324,EL TABIQUE,AMBATO,,4711,-27.7867929,-65.8725986
10665,EL TACO,ANCASTI,,4701,-28.6988879,-65.6044744
10600,EL TALA,CAPITAL,,4700,-28.3321075,-65.8940659
10325,EL TALA,AMBATO,EL RODEO,4715,-28.3259483,-65.8976126
29255,EL TALA,SANTA ROSA,LOS ALTOS,4722,-27.9482162,-65.4766113
10727,EL TALA,LA PAZ,,5264,-28.8393073,-64.9980314
29248,EL TALAR,AMBATO,LA PUERTA,4711,-28.1414785,-65.7934165
29268,EL TALITA,ANCASTI,ANCASTI,4701,-28.8972187,-65.6186831
10999,EL TAMBILLO,TINOGASTA,,4753,,
10906,EL TESORO,SANTA MARIA,,4139,-27.0895762,-66.1553985
10513,EL TIO,BELEN,,4751,-27.4346501,-67.0900939
10514,EL TOLAR,BELEN,,4751,-27.3703574,-67.1836913
10390,EL TOTORAL,ANCASTI,,4701,,
10829,EL TOTORAL,PACLIN,,4718,,
29168,EL TOTORAL,BELEN,POZO DE PIEDRA,4751,-27.5504223,-67.1655028
10907,EL TRAPICHE,SANTA MARIA,,4139,,
10728,EL VALLE,LA PAZ,,5261,,
10729,EL VALLECITO,LA PAZ,,4230,-28.6208280,-65.2507488
10626,EL VALLECITO,EL ALTO,,4235,,
10391,EL VALLECITO,ANCASTI,,4701,,
29383,EL VALLECITO,BELEN,POZO DE PIEDRA,4751,-27.5807256,-67.1605775
29179,EL VENADO,BELEN,BELEN,4750,-27.5605427,-66.7140229
29186,EL VIEJO SUEÑO,BELEN,LONDRES,4753,-27.7588849,-67.2168522
29258,EL VIRQUI,SANTA ROSA,LOS ALTOS,4722,-28.1177853,-65.4481445
29193,EL VOLCAN,SANTA MARIA,SAN JOSE,4139,-26.7451128,-66.4846062
10392,EL ZAPALLAR,ANCASTI,,4701,,
10466,EL ZAPALLAR,ANDALGALA,,4741,,
10730,EMPALME SAN CARLOS,LA PAZ,,5260,,
10731,ENSENADA,LA PAZ,,5266,,
10909,ENTRE RIOS,SANTA MARIA,,4139,-26.8353683,-66.0342679
29214,ESPINILLO,POMAN,POMAN,5315,-28.4128937,-66.1384509
29300,ESQUINA GRANDE,ANDALGALA,ACONQUIJA,4740,-27.3334469,-65.9752556
29228,ESQUINAS DE ABAJO,VALLE VIEJO,VALLE VIEJO,4707,-28.7425903,-65.7774507
29227,ESQUINAS DE ARRIBA,VALLE VIEJO,VALLE VIEJO,4707,-28.7225391,-65.6763312
32274,ESQUIU,LA PAZ,RECREO,5261,-29.3791230,-65.2915080
10866,ESTABLECIMIENTO MINERO CERRO B,POMAN,,5317,,
10393,ESTANCIA,ANCASTI,,5265,,
29243,ESTANCIA LOS TIMONES,AMBATO,LAS JUNTAS,4715,-28.0326894,-65.9402541
10910,ESTANCIA VIEJA,SANTA MARIA,,4139,,
10394,ESTANCIA VIEJA,ANCASTI,,4701,,
16889,ESTANCITO,TINOGASTA,,5340,,
16932,ESTANQUE,VALLE VIEJO,,4707,,
10627,ESTANZUELA,EL ALTO,,4235,,
16756,FALDEO,AMBATO,,4715,,
10911,FAMABALASTO,SANTA MARIA,,4139,-26.8262316,-66.2987109
10912,FAMATANCA,SANTA MARIA,SAN JOSE,4139,-26.7709358,-66.0823399
10515,FARALLON NEGRO,BELEN,,4751,-27.3030120,-66.6744818
11000,FIAMBALA,TINOGASTA,FIAMBALA,5345,-27.6913433,-67.6190109
10913,FUERTE QUEMADO,SANTA MARIA,SANTA MARIA,4141,-26.6276875,-66.0506592
16757,GALPON,AMBATO,,4715,,
10734,GARZON,LA PAZ,,4231,,
16768,GENTILE,ANTOFAGASTA DE LA SIERRA,,4705,,
10395,GUANACO,ANCASTI,,4701,,
29210,GUANACO YACO,POMAN,SAUJIL,5321,-28.1786023,-66.4786465
16890,GUANCHICITO,TINOGASTA,,5340,,
16891,GUANCHIN,TINOGASTA,,5340,,
10628,GUAYAMBA,EL ALTO,,4235,-28.3475252,-65.4021967
16892,GUINCHO,TINOGASTA,,5340,,
10396,HIGUERA DEL ALUMBRE,ANCASTI,,4701,,
10468,HUACHASCHI,ANDALGALA,,4740,-27.5826638,-66.3322557
10467,HUACO,ANDALGALA,ANDALGALA,4741,-27.6080780,-66.3303070
10516,HUACO,BELEN,,4750,-27.6713528,-67.0063992
10830,HUACRA,PACLIN,,4722,,
10517,HUALFIN,BELEN,HUALFIN,4751,-27.2271671,-66.8040924
29205,HUAÑOMIL,POMAN,SAUJIL,5321,-27.8808608,-66.1520827
10469,HUASAN,ANDALGALA,,4740,-27.5555446,-66.3220377
10518,HUASAYACO,BELEN,,4751,-27.4593229,-67.1233567
10519,HUASI CIENAGA,BELEN,,4751,-27.0077349,-66.8652406
11060,HUAYCAMA,VALLE VIEJO,,4705,-28.5152378,-65.6750382
27954,HUAYCAMA,AMBATO,LA PUERTA,4711,-28.1177072,-65.7974956
10576,HUILLAPIMA,CAPAYAN,HUILLAPIMA,4726,-28.7251969,-65.9798414
10326,HUMAYA,AMBATO,,4711,-27.8979661,-65.9784599
10914,IAPES,SANTA MARIA,,4139,,
29390,ICAÑO,LA PAZ,ICAÑO,5265,,
29261,ICHAGON,SANTA ROSA,SANTA ROSA,4723,-27.9663739,-65.2225905
10629,ICHIPUCA,EL ALTO,,4234,,
29265,ICHIPUCA,SANTA ROSA,SANTA ROSA,4723,-28.3218400,-65.1684987
10630,ILOGA,EL ALTO,,4235,-28.3976343,-65.3978597
10631,INACILLO,EL ALTO,,4235,,
10632,INFANZON,EL ALTO,,4235,-28.5792007,-65.4019852
29273,IPAZORCONA,EL ALTO,EL ALTO,4235,-28.2898456,-65.3372314
10397,IPIZCA,ANCASTI,,4701,-28.8512880,-65.5622731
10327,ISLA LARGA,AMBATO,,4711,-28.2334661,-65.7605086
10520,JACIPUNCO,BELEN,PUERTA DE CORRAL QUEMADO,4751,-27.2431287,-67.0078689
10736,JESUS MARIA,LA PAZ,,5264,,
10868,JOYANGO,POMAN,,5321,-28.0957295,-66.1295226
16854,JOYANGUITO,POMAN,,5315,,
10915,JULIPAO,SANTA MARIA,,4139,,
27593,JULUMAO,ANDALGALA,,4740,,
16893,JUNTA,TINOGASTA,,5340,,
11001,KILOMETRO 1006,TINOGASTA,,5331,,
10737,KILOMETRO 1008,LA PAZ,,5264,,
10738,KILOMETRO 1017,LA PAZ,,5264,-29.0130020,-65.0975090
10633,KILOMETRO 1093,EL ALTO,,4234,,
10577,KILOMETRO 128,CAPAYAN,,4728,,
29216,KILOMETRO 16,CAPITAL,SAN F DEL VALLE DE CATAMARCA,4700,-28.3743635,-65.8680549
29217,KILOMETRO 17,CAPITAL,SAN F DEL VALLE DE CATAMARCA,4700,-28.3659055,-65.8724370
10739,KILOMETRO 38,LA PAZ,,5261,,
10740,KILOMETRO 955,LA PAZ,,5260,,
10741,KILOMETRO 969,LA PAZ,RECREO,5260,,
10869,KILOMETRO 975,POMAN,,5321,,
10578,KILOMETRO 99,CAPAYAN,,5263,,
10742,KILOMETRO 997,LA PAZ,,5260,,
11002,KILOMETRO 999,TINOGASTA,,5331,,
29348,LA ABRADURA,CAPAYAN,CAPAYAN,4728,-29.5411366,-65.6508851
10601,LA AGUADA,CAPITAL,,4700,-28.4000844,-65.8016757
10328,LA AGUADA,AMBATO,,4711,-27.9842232,-65.8015159
10948,LA AGUADA,SANTA ROSA,,4723,,
10470,LA AGUADA,ANDALGALA,,4740,-27.5248214,-66.2950573
10521,LA AGUADA,BELEN,LONDRES,4751,-27.7494219,-67.2114102
10743,LA AGUADA,LA PAZ,,5261,,
29184,LA AGUADA DE LA ZORRA,BELEN,LONDRES,4753,-27.8234337,-67.3138981
10870,LA AGUADA GRANDE,POMAN,,5321,,
10398,LA AGUADITA,ANCASTI,,4701,,
29171,LA AGUADITA,BELEN,PUERTA DE SAN JOSE,4751,-27.3379783,-67.0463758
11003,LA AGUADITA,TINOGASTA,,5345,-27.7757433,-67.3901592
16758,LA AGUITA,AMBATO,,4715,,
29180,LA AGUITA,BELEN,BELEN,4750,-27.7236998,-66.7976044
10444,LA ALUMBRERA,ANDALGALA,ACONQUIJA,4743,-27.5269750,-66.0155271
10744,LA ANTIGUA,LA PAZ,,5261,-29.4452914,-65.2497959
29233,LA ATRAVESADA,PACLIN,PACLIN,4718,-27.9299034,-65.7420805
29355,LA AURORA,LA PAZ,ICAÑO,5265,-28.7533811,-64.8819668
10831,LA BAJADA,PACLIN,,4716,-28.3830986,-65.6207907
10949,LA BAJADA,SANTA ROSA,,4723,-27.9075184,-65.3769749
10832,LA BANDA,PACLIN,,4716,-28.2573380,-65.6312539
10471,LA BANDA,ANDALGALA,,4740,,
10522,LA BANDA,BELEN,,4750,-27.6510301,-67.0109174
29480,LA BANDA,TINOGASTA,FIAMBALA,5340,-27.5260843,-67.5751675
29354,LA BARRANQUITA,LA PAZ,ICAÑO,5265,-28.7746664,-64.9658228
10399,LA BARROSA,ANCASTI,,4701,,
10745,LA BARROSA,LA PAZ,,5265,,
10400,LA BEBIDA,ANCASTI,,4701,,
10602,LA BREA,CAPITAL,,4700,-28.4448059,-65.8468486
10746,LA BREA,LA PAZ,,5260,-29.1884420,-65.1612413
10747,LA BUENA ESTRELLA,LA PAZ,,5260,,
10634,LA CALERA,EL ALTO,,4234,-28.4661349,-65.1983156
10603,LA CALERA,CAPITAL,,4700,-28.3474481,-65.8824053
10950,LA CALERA,SANTA ROSA,,4723,,
10635,LA CALERA DEL SAUCE,EL ALTO,,4235,,
16865,LA CAMPANA,SANTA MARIA,,4139,,
16844,LA CAMPANA,LA PAZ,,5260,,
10329,LA CAÑADA,AMBATO,,4715,-28.2707480,-65.8843901
10579,LA CAÑADA,CAPAYAN,,4726,,
10523,LA CAÑADA,BELEN,,4751,,
10748,LA CAÑADA,LA PAZ,,5261,,
11004,LA CAÑADA LARGA,TINOGASTA,,5341,,
11005,LA CANDELARIA,TINOGASTA,,5333,,
10524,LA CAPELLANIA,BELEN,,4751,,
11006,LA CAPELLANIA,TINOGASTA,,5333,,
10674,LA CARRERA,FRAY MAMERTO ESQUIU,FRAY MAMERTO ESQUIU,4711,-28.3563232,-65.7077942
29200,LA CASITA,SANTA MARIA,SAN JOSE,4139,-26.9508442,-66.2744694
10604,LA CHACARITA,CAPITAL,,4700,,
10605,LA CHACARITA DE LOS PADRES,CAPITAL,,4700,-28.4600766,-65.8422265
16894,LA CHILCA,TINOGASTA,,5340,-27.1134609,-67.7021090
10525,LA CIENAGA,BELEN,PUERTA DE SAN JOSE,4751,-27.4949182,-66.9788883
11007,LA CIENAGA,TINOGASTA,,5341,-27.1317452,-67.6681220
29176,LA CIENAGA DE ABAJO,BELEN,PUERTA DE SAN JOSE,4751,,
29175,LA CIENAGA DE ARRIBA,BELEN,PUERTA DE SAN JOSE,4751,,
11008,LA CIENAGA DE LOS ZONDONES,TINOGASTA,,5341,,
29126,LA CIENAGA REDONDA,ANTOFAGASTA DE LA SIERRA,ANTOFAGASTA DE LA SIERRA,4705,-25.3331037,-66.8387204
10749,LA COLONIA,LA PAZ,,5261,,
10526,LA COSTA,BELEN,,4750,,
29289,LA CUESTA,ANDALGALA,ANDALGALA,4740,-27.3657262,-66.3733773
10750,LA DORADA,LA PAZ,RECREO,5261,-29.2417310,-65.4817297
29223,LA ESPERANZA,VALLE VIEJO,VALLE VIEJO,4707,-28.6276511,-65.7841817
10833,LA ESQUINA,PACLIN,,4718,,
10636,LA ESTANCIA,EL ALTO,,4235,,
10401,LA ESTANCIA,ANCASTI,,4701,,
10528,LA ESTANCIA,BELEN,,4751,-27.5325082,-67.0334072
29149,LA ESTANCIA,TINOGASTA,FIAMBALA,5345,-27.1434077,-67.3607354
29750,LA ESTANCITA,CAPITAL,SAN F DEL VALLE DE CATAMARCA,4700,,
10402,LA ESTANCITA,ANCASTI,,4701,-28.8193440,-65.4364984
10637,LA ESTANZUELA,EL ALTO,,4235,,
11061,LA ESTRELLA,VALLE VIEJO,,4724,,
10403,LA FALDA,ANCASTI,,4701,-28.7652615,-65.4766822
10834,LA FALDA,PACLIN,,4718,,
10751,LA FALDA,LA PAZ,,5265,,
11009,LA FALDA,TINOGASTA,,5341,,
10675,LA FALDA DE SAN ANTONIO,FRAY MAMERTO ESQUIU,FRAY MAMERTO ESQUIU,4707,-28.4198487,-65.6988378
29247,LA FLORIDA,AMBATO,LA PUERTA,4711,-28.1075727,-65.7967356
10752,LA FLORIDA,LA PAZ,,5261,-28.7874239,-64.9430116
11010,LA FLORIDA,TINOGASTA,,5341,-27.9834655,-67.5574345
10753,LA GRANJA,LA PAZ,,5264,,
10754,LA GUARDIA,LA PAZ,RECREO,5263,-29.5564022,-65.4539108
10835,LA HIGUERA,PACLIN,,4719,-27.9447355,-65.6962440
10404,LA HIGUERITA,ANCASTI,,4701,,
16940,LA HIGUERITA,AMBATO,,5261,,
29368,LA HORQUETA,LA PAZ,RECREO,5260,-29.5080658,-65.3782302
10580,LA HORQUETA,CAPAYAN,,5263,,
29151,LA HORQUETA,TINOGASTA,FIAMBALA,5345,-27.1089031,-67.7802509
29367,LA HORQUETA DE ARRIBA,LA PAZ,RECREO,5260,-29.5023040,-65.3877112
16866,LA HOYADA,SANTA MARIA,SAN JOSE,4139,-26.5440286,-66.3616749
10472,LA HOYADA,ANDALGALA,,4139,,
16845,LA HOYADA,LA PAZ,,5260,,
10638,LA HUERTA,EL ALTO,,4235,-28.2508885,-65.2815430
10405,LA HUERTA,ANCASTI,,5261,,
29338,LA HUMITA,CAPAYAN,CAPAYAN,4728,-28.8458696,-66.0503963
29299,LA ISLA,ANDALGALA,ANDALGALA,4740,-27.7609514,-66.3969830
10755,LA ISLA,LA PAZ,,5264,,
11011,LA ISLA,TINOGASTA,,5333,-28.2820962,-67.3374852
29364,LA JORNADA,LA PAZ,RECREO,5260,-29.2397281,-65.4254697
10473,LA LAGUNA,ANDALGALA,,4741,,
29135,LA LAGUNITA,ANTOFAGASTA DE LA SIERRA,ANTOFAGASTA DE LA SIERRA,4705,-26.6295565,-67.2452338
16867,LA LOMA,SANTA MARIA,SAN JOSE,4139,-26.7582594,-66.0559959
16846,LA LOMA,LA PAZ,,5260,,
11012,LA MAJADA,TINOGASTA,,5341,,
10951,LA MARAVILLA,SANTA ROSA,,5264,,
29353,LA MEDIA LEGUA,LA PAZ,ICAÑO,5265,-28.8324934,-65.2474074
29337,LA MEDIA LUNA,CAPAYAN,CAPAYAN,4728,-28.8190715,-66.0860908
10836,LA MERCED,PACLIN,PACLIN,4718,-28.1473656,-65.6582794
10406,LA MESADA,ANCASTI,,4701,,
29242,LA MESADA,AMBATO,LAS JUNTAS,4715,-27.9502031,-65.9462291
29309,LA MESADA,ANDALGALA,ACONQUIJA,4740,-27.4581201,-66.0123062
11013,LA MESADA,TINOGASTA,,5341,,
10756,LA MONTOSA,LA PAZ,,5261,,
29376,LA NUEVA GUARDIA,LA PAZ,RECREO,5260,-29.8224501,-65.4994493
10916,LA OLLADA,SANTA MARIA,,4139,,
10917,LA OVEJERIA,SANTA MARIA,SANTA MARIA,4719,-26.2353472,-66.2013813
11014,LA PALCA,TINOGASTA,,5341,,
29198,LA PAMPA,SANTA MARIA,SAN JOSE,4139,-27.0523643,-66.5123657
10757,LA PARADA,LA PAZ,,5265,-28.9300432,-65.2939182
10581,LA PARAGUAYA,CAPAYAN,HUILLAPIMA,4724,-28.6348057,-65.8256783
10407,LA PEÑA,ANCASTI,,5261,,
10758,LA PEÑA,LA PAZ,,5261,,
10330,LA PIEDRA,AMBATO,,4715,-28.1816692,-65.8822546
29188,LA PUERTA,SANTA MARIA,SANTA MARIA,4139,-26.3898825,-66.2584009
10331,LA PUERTA,AMBATO,LA PUERTA,4711,-28.1689321,-65.7896914
16824,LA PUERTA,LA PAZ,RECREO,5260,-29.3602167,-65.4911247
10529,LA PUERTA DE SAN JOSE,BELEN,PUERTA DE SAN JOSE,4751,-27.5380630,-67.0031433
29148,LA PUERTA DE TATON,TINOGASTA,FIAMBALA,5345,-27.3628663,-67.5038172
29249,LA PUERTA SUD,AMBATO,LA PUERTA,4711,-28.1870805,-65.7846119
29201,LA PUNTILLA,SANTA MARIA,SAN JOSE,4139,-26.8398251,-66.0940057
10530,LA PUNTILLA,BELEN,,4750,-27.6844434,-66.9942312
11015,LA PUNTILLA,TINOGASTA,TINOGASTA,5331,-28.1250379,-67.4971296
10918,LA QUEBRADA,SANTA MARIA,SAN JOSE,4139,-26.6856794,-66.4582669
10639,LA QUEBRADA,EL ALTO,,4234,-28.4123879,-65.1806809
29218,LA QUEBRADA,CAPITAL,SAN F DEL VALLE DE CATAMARCA,4700,-28.4581812,-65.8429576
10531,LA QUEBRADA,BELEN,,4751,-27.2065517,-66.8601666
10759,LA QUINTA,LA PAZ,RECREO,5261,-29.0460240,-65.3495494
10532,LA RAMADA,BELEN,,4753,-27.8286882,-67.2002234
10760,LA RENOVACION,LA PAZ,,4231,-28.6841367,-65.0104416
16781,LA REPRESA,BELEN,,4750,-27.6939673,-67.0291078
29241,LA RINCONADA,AMBATO,LOS VARELA,4711,-27.9751393,-65.8033512
29254,LA RINCONADA,SANTA ROSA,LOS ALTOS,4722,-27.9430951,-65.4163029
16759,LA SALVIA,AMBATO,,4715,-28.0832462,-65.9012074
10811,LA SICHA,LA PAZ,ICAÑO,5265,-28.8586280,-65.2963240
10919,LA SOLEDAD,SANTA MARIA,,4139,-26.7081566,-66.0573883
29165,LA SOLEDAD,BELEN,PUERTA DE CORRAL QUEMADO,4751,-27.2629992,-67.0490255
29481,LA SOLEDAD,TINOGASTA,FIAMBALA,5340,-27.5013039,-67.5862220
29378,LA SUERTE,LA PAZ,RECREO,5260,-29.1605252,-64.7980594
10613,LA TERCENA,FRAY MAMERTO ESQUIU,FRAY MAMERTO ESQUIU,4707,-28.3727460,-65.7139860
10408,LA TIGRA,ANCASTI,,5261,,
10533,LA TOMA,BELEN,POZO DE PIEDRA,4751,-27.5861680,-67.1017147
16782,LA TOTORA,BELEN,,4750,-27.8938711,-67.2254624
29284,LA TUNA,EL ALTO,TAPSO,4235,-28.3819556,-65.2829824
10761,LA VALENTINA,LA PAZ,,5261,,
16874,LA VICTORIA,SANTA ROSA,,4723,,
29318,LA VILLA,CAPAYAN,HUILLAPIMA,4728,-28.4516807,-65.9506772
10837,LA VIÑA,PACLIN,,4722,-28.0380041,-65.5986525
10534,LA VIÑA,BELEN,,4751,,
10838,LA VIÑA DE ABAJO,PACLIN,,4722,,
10871,LA YEGUA MUERTA,POMAN,,5321,,
29250,LA ZANJA,SANTA ROSA,LOS ALTOS,4722,-27.8487845,-65.3620988
10762,LA ZANJA,LA PAZ,,5261,-29.5076169,-65.1511131
10535,LAGUNA BLANCA,BELEN,VILLA VIL,4751,-26.5864128,-66.9367775
10536,LAGUNA COLORADA,BELEN,,4751,,
16822,LAGUNITA,LA PAZ,,5260,,
16823,LAJA,LA PAZ,,5260,,
27640,LAMPACITO,SANTA MARIA,SANTA MARIA,4139,-26.7162342,-66.0749683
29190,LAMPACITO,SANTA MARIA,SAN JOSE,4139,-26.6410602,-66.3036110
29159,LAMPACITO,BELEN,VILLA VIL,4755,-26.9663449,-66.7385053
10582,LAMPASILLO,CAPAYAN,,4726,,
16760,LAMPASO,AMBATO,,4715,,
29523,LAS AGUADITAS,ANDALGALA,ACONQUIJA,4740,-27.5585279,-65.9929010
10332,LAS AGUITAS,AMBATO,,4715,-28.1473081,-65.8897489
29343,LAS ANIMAS,CAPAYAN,CAPAYAN,4728,-29.0854171,-65.7669658
29301,LAS ATRAVESADAS,ANDALGALA,ACONQUIJA,4740,-27.3493886,-65.9783601
10409,LAS BARRANCAS,ANCASTI,,4701,,
10814,LAS BARRANCAS,BELEN,POZO DE PIEDRA,4751,-27.5250173,-67.1080698
10410,LAS BARRANCAS CASA ARMADA,ANCASTI,,4701,,
16761,LAS BARRAS,AMBATO,,4715,,
29234,LAS BEATAS,PACLIN,PACLIN,4718,-28.0126877,-65.7037752
10872,LAS BREAS,POMAN,,5321,,
10333,LAS BURRAS,AMBATO,,4715,-28.0313740,-65.9416917
10952,LAS CAÑAS,SANTA ROSA,,4235,-28.2026093,-65.2145461
29359,LAS CASITAS,LA PAZ,ICAÑO,5265,-28.9148191,-65.0276551
10873,LAS CASITAS,POMAN,,5315,-28.1453563,-66.1489698
10411,LAS CHACRAS,ANCASTI,,4701,,
29303,LAS CHACRAS,ANDALGALA,ACONQUIJA,4740,-27.3637344,-65.9772776
29356,LAS CHACRAS,LA PAZ,ICAÑO,5265,-28.7922403,-64.8176918
11018,LAS CHACRAS,TINOGASTA,,5331,-28.2556270,-67.0418681
10334,LAS CHACRITAS,AMBATO,LOS VARELA,4711,-27.6891706,-65.9260628
29266,LAS CISTERNAS,ANCASTI,ANCASTI,4701,-28.6391049,-65.5059040
10763,LAS CORTADERAS,LA PAZ,,5261,,
16812,LAS CORTADERITAS,LA PAZ,,5260,,
10335,LAS CUCHILLAS,AMBATO,,4715,,
10412,LAS CUCHILLAS,ANCASTI,,5261,,
10413,LAS CUCHILLAS DEL AYBAL,ANCASTI,,5265,,
29131,LAS CUEVAS,ANTOFAGASTA DE LA SIERRA,ANTOFAGASTA DE LA SIERRA,4705,-25.6181711,-67.7352643
10538,LAS CUEVAS,BELEN,VILLA VIL,4751,-27.0003667,-66.6630705
29239,LAS DIAMELAS,AMBATO,LOS VARELA,4711,-27.8353943,-65.8480651
11062,LAS ESQUINAS,VALLE VIEJO,,4707,-28.7131236,-65.7682841
29351,LAS ESQUINAS,LA PAZ,ICAÑO,5265,-28.7381547,-65.1071561
10764,LAS FLORES,LA PAZ,RECREO,5261,-29.3666633,-65.4900747
29744,LAS FLORES,LA PAZ,ICAÑO,5265,-28.7144259,-65.1135469
29169,LAS GRANADILLAS,BELEN,POZO DE PIEDRA,4751,-27.5593540,-67.1174734
29264,LAS HIGUERITAS,SANTA ROSA,SANTA ROSA,4723,-28.3096391,-65.1671493
11019,LAS HIGUERITAS,TINOGASTA,,5340,-28.1171607,-67.6919180
10839,LAS HUERTAS,PACLIN,,4722,,
10765,LAS IGUANAS,LA PAZ,,4231,-28.6533498,-65.0223206
29271,LAS JUNTAS,ANCASTI,ANCASTI,4701,-29.0772002,-65.5239520
29751,LAS JUNTAS,AMBATO,LAS JUNTAS,4715,,
10539,LAS JUNTAS,BELEN,POZO DE PIEDRA,4751,-27.5347548,-67.1195094
10640,LAS JUSTAS,EL ALTO,,4235,,
10337,LAS LAJAS,AMBATO,,4715,-28.1463298,-65.9026230
10840,LAS LAJAS,PACLIN,,4719,-27.8510596,-65.7266859
16859,LAS LATILLAS,CAPAYAN,,4728,-28.9101261,-66.1369390
16806,LAS LATILLAS,BELEN,,4750,,
29182,LAS LOMAS,BELEN,BELEN,4750,-27.7462157,-67.0111900
10641,LAS LOMITAS,EL ALTO,,4234,,
10954,LAS LOMITAS,SANTA ROSA,,4235,,
10766,LAS LOMITAS,LA PAZ,,5261,,
16895,LAS LOSAS,TINOGASTA,,5340,-27.2431152,-68.1155236
10540,LAS MANZAS,BELEN,,4751,,
29235,LAS MARIAS,PACLIN,PACLIN,4718,-28.0154388,-65.7013644
10815,LAS MINAS,EL ALTO,,4740,,
10920,LAS MOJARRAS,SANTA MARIA,,4139,-26.6803891,-66.0604445
10583,LAS PALMAS,CAPAYAN,,4726,-28.7419217,-66.1824501
10767,LAS PALMITAS,LA PAZ,ICAÑO,4231,-28.6370997,-64.9859739
10768,LAS PALOMAS,LA PAZ,,5261,,
10955,LAS PAMPAS,SANTA ROSA,,4235,,
29306,LAS PAMPAS,ANDALGALA,ACONQUIJA,4740,-27.4035854,-65.9815820
11020,LAS PAMPAS,TINOGASTA,,5341,,
10338,LAS PAMPITAS,AMBATO,,4711,,
10475,LAS PAMPITAS,ANDALGALA,,4743,-27.5136203,-66.1278861
11021,LAS PAPAS,TINOGASTA,,5341,-26.9871603,-67.7827535
16896,LAS PELADAS,TINOGASTA,,5340,-26.9752294,-68.0563659
10769,LAS PEÑAS,LA PAZ,,5263,-29.4860082,-65.5207185
10339,LAS PIEDRAS BLANCAS,AMBATO,,4715,-28.0017911,-65.9444706
29302,LAS QUINTAS,ANDALGALA,ACONQUIJA,4740,-27.3592237,-65.9777761
11022,LAS RETAMAS,TINOGASTA,,5345,,
29307,LAS ROSAS,ANDALGALA,ACONQUIJA,4740,-27.4437603,-66.0033588
10642,LAS TAPIAS,EL ALTO,,4235,,
10414,LAS TAPIAS,ANCASTI,,4701,,
10770,LAS TEJAS,LA PAZ,ICAÑO,4231,-28.7668195,-64.8218306
11063,LAS TEJAS,VALLE VIEJO,VALLE VIEJO,4700,-28.6584382,-65.7837510
29361,LAS TEJAS,LA PAZ,RECREO,5260,-29.0722990,-65.1512613
29225,LAS TEJAS DE ABAJO,VALLE VIEJO,VALLE VIEJO,4707,-28.6940049,-65.7664612
10771,LAS TOSCAS,LA PAZ,,5265,-28.9078227,-65.2836631
10643,LAS TRANCAS,EL ALTO,,4235,,
10841,LAS TRANQUITAS,PACLIN,,4722,,
10644,LAS TRILLAS,EL ALTO,,4235,,
10415,LAS TUNAS,ANCASTI,,4701,,
10956,LAS TUNAS,SANTA ROSA,LOS ALTOS,4723,-28.1521823,-65.3731570
29336,LAS TUSCAS,CAPAYAN,CAPAYAN,4728,-28.8229159,-66.1359812
10537,LAS VALLAS,BELEN,POZO DE PIEDRA,4753,-27.5598971,-67.2548512
10606,LAS VARITAS,CAPITAL,,4700,,
16825,LAS ZANJAS,LA PAZ,,5260,,
29252,LAS ZANJITAS,SANTA ROSA,LOS ALTOS,4722,-27.9045515,-65.4388187
10980,LAVALLE,SANTA ROSA,SANTA ROSA,5343,-28.1942030,-65.1166720
10607,LAZARETO,CAPITAL,,4700,,
16826,LIEBRE,LA PAZ,,5260,,
29326,LINDA VISTA,CAPAYAN,HUILLAPIMA,4728,-28.6943246,-65.8272630
10645,LINDERO,EL ALTO,,4235,-28.5881444,-65.5238211
29196,LLANPAS,SANTA MARIA,SAN JOSE,4139,-26.8946362,-66.5084156
10541,LOCONTE,BELEN,,4751,-27.2534311,-66.9845263
29313,LOMA ATRAVESADA,ANDALGALA,ACONQUIJA,4740,-27.6275684,-65.9577237
10608,LOMA CORTADA,CAPITAL,,4700,-28.4258799,-65.8481500
16897,LOMA GRANDE,TINOGASTA,,5340,,
29203,LOMA REDONDA,SANTA MARIA,SAN JOSE,4139,-27.1886436,-66.2225518
10416,LOMA SOLA,ANCASTI,,4701,,
10542,LONDRES,BELEN,LONDRES,4753,-27.7108891,-67.1353028
27639,LORO HUASI,SANTA MARIA,SANTA MARIA,4139,-26.7365607,-66.0532302
16783,LORO HUASI,BELEN,LONDRES,4139,-27.6429435,-67.2398000
11023,LORO HUASI,TINOGASTA,,5340,-27.6828212,-67.7882044
29277,LOS ALAMITOS,EL ALTO,EL ALTO,4235,-28.4170812,-65.3969578
29276,LOS ALAMOS,EL ALTO,EL ALTO,4235,-28.4110723,-65.3888010
10772,LOS ALAMOS,LA PAZ,,4235,,
28629,LOS ALTOS,SANTA ROSA,LOS ALTOS,4723,-28.0470520,-65.5002850
10584,LOS ANGELES,CAPAYAN,HUILLAPIMA,4724,-28.5102548,-65.9546349
29224,LOS ARBOLITOS,VALLE VIEJO,VALLE VIEJO,4707,-28.6668791,-65.7499375
10875,LOS BALDES,POMAN,,5315,,
11024,LOS BALVERDIS,TINOGASTA,,5331,-28.2731585,-67.1138409
10958,LOS BASTIDORES,SANTA ROSA,,4723,,
10585,LOS BAZAN,CAPAYAN,HUILLAPIMA,4724,-28.5153600,-65.9551775
10417,LOS BULACIO,ANCASTI,,4701,-28.7012868,-65.5262980
10773,LOS CADILLOS,LA PAZ,,5261,,
10876,LOS CAJONES,POMAN,,5317,,
10340,LOS CASTILLOS,AMBATO,LOS VARELA,4711,-27.9616902,-65.8155653
16813,LOS CAUDILLOS,LA PAZ,,5260,,
16898,LOS CHANAMPA,TINOGASTA,,5340,,
16827,LOS CHAÑARES,LA PAZ,,5260,,
10567,LOS CHAÑARITOS,CAPAYAN,,4726,-28.7791516,-65.7658195
10874,LOS CIENAGOS,POMAN,POMAN,5315,-28.4850871,-66.1676047
10646,LOS CISTERNAS,EL ALTO,,4701,,
29191,LOS COLORADOS,SANTA MARIA,SAN JOSE,4139,-26.6912176,-66.3044367
29290,LOS COLORADOS,ANDALGALA,ANDALGALA,4740,-27.3725992,-66.4014828
10545,LOS COLORADOS,BELEN,,4753,,
29317,LOS COMEDEROS,CAPAYAN,HUILLAPIMA,4728,-28.3938957,-65.9624036
29232,LOS CORDERO,PACLIN,PACLIN,4718,-27.8999441,-65.7467888
10774,LOS CORDOBESES,LA PAZ,,4231,,
10775,LOS CORRALES,LA PAZ,,4235,,
29280,LOS CORRALES,EL ALTO,EL ALTO,4235,-28.4937753,-65.3251917
29325,LOS CUBAS,CAPAYAN,HUILLAPIMA,4728,-28.6540487,-65.8191264
29332,LOS DIVISADEROS,CAPAYAN,HUILLAPIMA,4728,-28.9270303,-65.7204303
10959,LOS ESTANTES,SANTA ROSA,,4723,,
10842,LOS GALPONES,PACLIN,,4718,,
11025,LOS GONZALES,TINOGASTA,,5331,,
11026,LOS GUAYTIMAS,TINOGASTA,,5340,,
10341,LOS GUINDOS,AMBATO,,4711,,
29316,LOS GUTIERREZ,ANDALGALA,ACONQUIJA,4740,-27.6037558,-65.9729475
10342,LOS LOROS,AMBATO,,4715,,
10419,LOS MOGOTES,ANCASTI,,5261,-29.3149618,-65.5471041
10343,LOS MOLLES,AMBATO,,4715,,
10960,LOS MOLLES,SANTA ROSA,,4723,-27.8674281,-65.3377632
29362,LOS MOLLES,LA PAZ,RECREO,5260,-29.1177301,-65.3953338
10420,LOS MOLLES,ANCASTI,,5261,-29.0966792,-65.4926855
29386,LOS MORTERITOS,TINOGASTA,FIAMBALA,5340,-27.2076716,-67.3030464
10647,LOS MORTEROS,EL ALTO,,4234,-28.4342619,-65.1645148
10421,LOS MORTEROS,ANCASTI,,4701,-28.5901868,-65.6259629
11027,LOS MORTEROS,TINOGASTA,,5345,,
29275,LOS MUDADEROS,EL ALTO,EL ALTO,4235,-28.4127962,-65.4854046
29132,LOS NACIMIENTOS,ANTOFAGASTA DE LA SIERRA,ANTOFAGASTA DE LA SIERRA,4705,-25.8242398,-67.3719794
29322,LOS NACIMIENTOS,CAPAYAN,HUILLAPIMA,4728,-28.6143717,-66.0975038
10547,LOS NACIMIENTOS,BELEN,HUALFIN,4751,-27.1371822,-66.6859939
10344,LOS NARVAEZ,AMBATO,,4711,-27.6562381,-65.9440838
10345,LOS NAVARROS,AMBATO,,4711,,
10776,LOS NOGALES,LA PAZ,,4235,,
10317,LOS NOGALES,AMBATO,LA PUERTA,4711,-28.1240326,-65.7955216
10648,LOS ORTICES,EL ALTO,,4235,,
10961,LOS ORTICES,SANTA ROSA,,4723,-27.9936566,-65.3863851
29283,LOS OSORES,EL ALTO,TAPSO,4235,-28.3765452,-65.2926917
10843,LOS OVEJEROS,PACLIN,,4722,,
11028,LOS PALACIOS,TINOGASTA,,5340,-28.0773865,-67.5756291
10649,LOS PEDRAZAS,EL ALTO,,4235,-28.5062038,-65.5099573
29267,LOS PINARES,ANCASTI,ANCASTI,4701,-28.6599842,-65.5686922
10586,LOS PINOS,CAPAYAN,,4724,-28.5665998,-65.9564249
10844,LOS PINTADOS,PACLIN,,4722,,
10422,LOS PIQUILLINES,ANCASTI,,4701,,
10962,LOS POCITOS,SANTA ROSA,,4723,,
29324,LOS POCITOS,CAPAYAN,HUILLAPIMA,4728,-28.6341055,-65.8170744
10777,LOS POCITOS,LA PAZ,,5261,,
11029,LOS POTRERILLOS,TINOGASTA,,5341,,
29272,LOS POZOS,EL ALTO,EL ALTO,4235,-28.2637879,-65.3526231
10921,LOS POZUELOS,SANTA MARIA,,4139,-27.0346560,-66.5070940
10548,LOS POZUELOS,BELEN,,4751,,
10587,LOS PUESTOS,CAPAYAN,,4724,,
10346,LOS PUESTOS,AMBATO,,5319,,
11030,LOS QUINTEROS,TINOGASTA,,5331,-28.2820698,-67.2654979
29329,LOS RAIGONES,CAPAYAN,HUILLAPIMA,4728,-28.7953608,-65.8218497
10476,LOS RASTROJOS,ANDALGALA,,4701,,
11031,LOS RINCONES,TINOGASTA,,5331,,
10922,LOS SALTOS,SANTA MARIA,,4139,-26.7333903,-66.1573965
10347,LOS TALAS,AMBATO,LOS VARELA,4711,-27.9532289,-65.8649178
29327,LOS TRES QUEBRACHOS,CAPAYAN,HUILLAPIMA,4728,-28.6956684,-65.9338666
10963,LOS TRONCOS,SANTA ROSA,,4723,-27.9638845,-65.4778298
11033,LOS VALDEZ,TINOGASTA,,5340,,
10348,LOS VARELA,AMBATO,LOS VARELA,4711,-27.9329258,-65.8723310
10964,LOS ZANJONES,SANTA ROSA,,4723,,
16784,LUNA AGUADA,BELEN,,4750,-27.6360084,-66.9008767
10423,MAJADA,ANCASTI,ANCASTI,5265,-29.0319955,-65.5459884
10877,MALCASCO,POMAN,,5315,,
10477,MALLI 1,ANDALGALA,,4740,,
10478,MALLI 2,ANDALGALA,,4740,,
29752,MANANTIALES,SANTA ROSA,LOS ALTOS,4723,,
10778,MARIA DORA,LA PAZ,,5264,-29.0617709,-65.2115270
10779,MARIA ELENA,LA PAZ,,5261,-29.0754143,-65.2730086
16900,MATAMBRE,TINOGASTA,,5340,,
10923,MEDANITO,SANTA MARIA,,4139,-26.7180581,-66.0670485
11034,MEDANITOS,TINOGASTA,,5341,-27.5299904,-67.5928826
16901,MEDANO,TINOGASTA,,5340,,
11035,MESADA DE LOS ZARATE,TINOGASTA,,5341,-27.1086081,-67.6760792
11036,MESADA GRANDE,TINOGASTA,,5341,,
29291,MINA AGUA RICA,ANDALGALA,ANDALGALA,4740,-27.3687389,-66.2835076
10650,MINA DAL,EL ALTO,,4235,,
10485,MINA INCA HUASI,ANTOFAGASTA DE LA SIERRA,,4705,-25.4411417,-67.1860046
10549,MINAS AGUA TAPADA,BELEN,,4751,,
27636,MINAS CAPILLITAS,ANDALGALA,,4740,-27.3448871,-66.3723271
29163,MINAS DE CULAMPAJA,BELEN,CORRAL QUEMADO,4751,-26.9556929,-66.9739285
10588,MIRAFLORES,CAPAYAN,HUILLAPIMA,4724,-28.5977211,-65.9059601
10878,MISCHANGO,POMAN,SAUJIL,5315,-28.2587194,-66.1402570
10966,MISTOL ANCHO,SANTA ROSA,,4723,,
16754,MOLINITOS,AMBATO,LOS VARELA,4715,-27.7038995,-65.8745678
29281,MOLLE PAMPA,EL ALTO,EL ALTO,4235,-28.5319485,-65.3266664
10349,MOLLE QUEMADO,AMBATO,,4715,,
10479,MOLLECITO,ANDALGALA,,5319,-27.7709782,-66.2195292
16828,MOLLEGASTA,LA PAZ,,5260,,
10845,MONTE POTRERO,PACLIN,,4716,-28.1797005,-65.6629575
10967,MONTE REDONDO,SANTA ROSA,,4723,-27.9978300,-65.4471131
29319,MONTE REDONDO,CAPAYAN,HUILLAPIMA,4728,-28.4991321,-65.9522024
29183,MORENO,BELEN,LONDRES,4753,-27.8649099,-67.1812552
11064,MOTA BOTELLO,VALLE VIEJO,,4705,-28.4994669,-65.6742139
10780,MOTEGASTA,LA PAZ,,5261,,
29551,MUTQUIN,POMAN,MUTQUIN,5317,,
10551,NACIMIENTOS DE SAN ANTONIO,BELEN,,4751,-26.8818931,-66.7315996
10552,NACIMIENTOS DEL BOLSON,BELEN,,4751,,
16875,NAIPA,SANTA ROSA,,4723,-28.1347893,-65.2249668
29229,NANA HUASI,VALLE VIEJO,VALLE VIEJO,4707,-28.7713845,-65.6608182
10424,NAVAGUIN,ANCASTI,,5261,-29.0876343,-65.4321067
16814,NAVIGAN,LA PAZ,,5260,,
16902,NEGRO MUERTO,TINOGASTA,,5340,,
10651,NOGALITO,EL ALTO,,4235,,
10676,OCHO VADOS,FRAY MAMERTO ESQUIU,,4713,,
10425,OJO DE AGUA,ANCASTI,,4701,,
16941,OJO DE AGUA,BELEN,,4750,,
16903,OJO DE AGUA,TINOGASTA,,5340,,
16785,OJO DE LA CORTADERA,BELEN,,4750,,
16861,OLLITA,LA PAZ,,5260,,
16829,OLMOS,LA PAZ,,5260,,
10781,OLTA,LA PAZ,,5261,,
29129,ONAS,ANTOFAGASTA DE LA SIERRA,ANTOFAGASTA DE LA SIERRA,4705,-25.5987802,-67.6730007
10652,ORELLANO,EL ALTO,,4235,,
10968,OVANTA,SANTA ROSA,,4723,,
10924,OVEJERIA,SANTA MARIA,SANTA MARIA,4139,-26.2429564,-66.1984558
10653,OYOLA,EL ALTO,,4235,-28.4755444,-65.4038776
29192,PABELLON DE SURI PUNCO,SANTA MARIA,SAN JOSE,4139,-26.6418184,-66.4251644
10925,PAJANGUILLO,SANTA MARIA,,4139,-26.9770065,-66.1195365
16904,PALACIOS,TINOGASTA,,5340,,
16786,PALO BLANCO,BELEN,,4750,,
28184,PALO BLANCO,TINOGASTA,FIAMBALA,5341,-27.3395853,-67.7592295
10782,PALO CRUZ,LA PAZ,,5261,-29.3235332,-65.2438281
10846,PALO LABRADO,PACLIN,,4716,-28.3191093,-65.6202922
10783,PALO PARADO,LA PAZ,,4231,-28.6981695,-64.9694776
29377,PALO SANTO,LA PAZ,RECREO,5260,-29.8869061,-65.2953434
16868,PALO SECO,SANTA MARIA,,4139,-26.8128714,-66.0757000
16847,PALO SECO,LA PAZ,,5260,,
10926,PALOMA YACO,SANTA MARIA,,4139,-27.0083355,-66.5313495
16933,PAMPA,VALLE VIEJO,,4707,,
10969,PAMPA CHACRA,SANTA ROSA,,4723,,
16787,PAMPA CIENAGA,BELEN,,4750,,
16830,PAMPA POZO,LA PAZ,,5260,-29.0436472,-65.1516530
29323,PAMPICHUELA,CAPAYAN,HUILLAPIMA,4728,-28.6636473,-66.0953882
16905,PAN DE AZUCAR,TINOGASTA,,5340,,
16906,PANTANOS,TINOGASTA,,5340,,
10553,PAPA CHACRA,BELEN,,4751,-27.0102728,-66.8992456
10784,PARADA KILOMETRO 62,CAPAYAN,CAPAYAN,5263,,
16839,PARAJE LOS CHAÑARITOS,LA PAZ,,5260,,
29387,PARAJE SAN JOSE,LA PAZ,RECREO,5260,-29.7312757,-65.5190727
11039,PASO SAN FRANCISCO,TINOGASTA,,5341,-26.8734477,-68.2988906
29158,PASTO VENTURA,BELEN,VILLA VIL,4755,-26.6919359,-67.1776582
16907,PASTOS AMARILLOS,TINOGASTA,,5340,,
29146,PASTOS LARGOS,TINOGASTA,FIAMBALA,5345,-27.6872957,-68.1580012
16808,PAYABUAYCA,CAPITAL,,4700,,
29221,PAYAHUAICO,FRAY MAMERTO ESQUIU,FRAY MAMERTO ESQUIU,4707,-28.3683572,-65.7158253
29133,PAYCUQUI,ANTOFAGASTA DE LA SIERRA,ANTOFAGASTA DE LA SIERRA,4705,-25.9187489,-67.3645675
10426,PEÑAFLOR,ANCASTI,,4701,,
29312,PEÑAS BLANCAS,ANDALGALA,ACONQUIJA,4740,-27.5677399,-65.9918917
11040,PEÑAS BLANCAS,TINOGASTA,,5331,,
16810,PEÑON,CAPITAL,,4700,,
10927,PIE DEL MEDANO,SANTA MARIA,,4139,-27.0031471,-66.2444610
10554,PIEDRA LARGA,BELEN,,4753,-27.6032508,-67.1971901
10480,PILCIAO,ANDALGALA,,4740,-27.7436614,-66.2681689
16908,PILLAHUASI,TINOGASTA,,5340,,
29206,PIPANACO,POMAN,SAUJIL,5321,-27.9826282,-66.2002839
16909,PLANCHADA,TINOGASTA,,5340,,
11041,PLAZA DE SAN PEDRO,TINOGASTA,,5341,,
16831,PLUMERO,LA PAZ,,5260,,
16910,POCITOS,TINOGASTA,,5340,,
11065,POLCOS,VALLE VIEJO,VALLE VIEJO,4707,-28.4333816,-65.7202973
10880,POMAN,POMAN,POMAN,5315,-28.3833675,-66.2243576
29222,POMANCILLO ESTE,FRAY MAMERTO ESQUIU,FRAY MAMERTO ESQUIU,4707,-28.3104102,-65.7184854
10678,POMANCILLO OESTE,FRAY MAMERTO ESQUIU,,4711,-28.3158469,-65.7275929
29244,PORTAL DE LAS JUNTAS,AMBATO,LAS JUNTAS,4715,-28.1340409,-65.8876627
10785,PORTILLO CHICO,LA PAZ,,5261,-29.3271663,-65.4027214
29365,PORTILLO GRANDE,LA PAZ,RECREO,5260,-29.2857935,-65.4186525
16853,POSTA,PACLIN,,4718,,
29297,POTRERILLO,ANDALGALA,ANDALGALA,4740,-27.5671060,-66.2380251
16788,POTRERITO,BELEN,,4750,,
10427,POTRERO,ANCASTI,,4701,,
10786,POZANCONES,LA PAZ,,5260,-28.8606455,-64.8317302
10787,POZO CAVADO,LA PAZ,ICAÑO,5266,-28.7595664,-65.0588461
29374,POZO DE LA ORILLA,LA PAZ,RECREO,5260,-29.7676467,-65.2421780
10555,POZO DE PIEDRA,BELEN,POZO DE PIEDRA,4751,-27.5705716,-67.1298851
10847,POZO DEL ALGARROBO,PACLIN,,4723,,
29262,POZO DEL BAJO,SANTA ROSA,SANTA ROSA,4723,-28.0219385,-65.2371362
29263,POZO DEL CAMPO,SANTA ROSA,SANTA ROSA,4723,-28.0304246,-65.3162211
10848,POZO DEL CAMPO,PACLIN,,4723,,
11067,POZO DEL MISTOL,VALLE VIEJO,VALLE VIEJO,4705,-28.4689790,-65.7195047
29373,POZO ESCONDIDO,LA PAZ,RECREO,5260,,
10654,POZO GRANDE,EL ALTO,,4234,,
29342,POZO LINDO,CAPAYAN,CAPAYAN,4728,-29.0669956,-65.8941974
16804,POZUELOS,BELEN,,4750,,
16832,PTO ESPINAL,LA PAZ,,5260,,
10655,PUEBLITO,EL ALTO,,4235,,
29195,PUERTA DE CHIÑOCAN,SANTA MARIA,SAN JOSE,4139,-26.7949567,-66.4840171
29358,PUERTA DE CORDOBA,LA PAZ,ICAÑO,5265,-28.8761038,-64.9362829
27735,PUERTA DE CORRAL QUEMADO,BELEN,PUERTA DE CORRAL QUEMADO,4751,-27.2266636,-66.9275234
10733,PUERTA DE GARAY,LA PAZ,RECREO,5261,-29.4535739,-65.1423907
29286,PUERTA DE MOLLE YACO,EL ALTO,TAPSO,4235,-28.4479368,-65.2657259
10970,PUERTA GRANDE,SANTA ROSA,,4723,-27.9843108,-65.4188408
16858,PUERTO BLANCO,BELEN,,4750,,
16790,PUERTO CHIPI,BELEN,,4750,,
16791,PUERTO DE LA PAMPA,BELEN,,4750,,
16789,PUERTO POTRERO,BELEN,,4750,,
10788,PUESTO DE FADEL O DE LOBO,LA PAZ,,5260,,
10971,PUESTO DE LA VIUDA,SANTA ROSA,,4237,,
10789,PUESTO DE LOS MORALES,LA PAZ,,4231,,
10790,PUESTO DE VERA,LA PAZ,,5265,,
10972,PUESTO DEL MEDIO,SANTA ROSA,,4723,-28.1042975,-65.2375417
10314,PUESTO EL VIZCOTE,AMBATO,LA PUERTA,4715,-28.2973344,-65.8562813
10656,PUESTO LOS GOMEZ,EL ALTO,,4235,,
29347,PUESTO NUEVO,CAPAYAN,CAPAYAN,4728,-29.4056685,-65.5756333
10791,PUESTO SABATTE,LA PAZ,,5261,,
27654,PUNTA DE AGUA,TINOGASTA,,5345,-27.2274786,-67.7554522
10928,PUNTA DE BALASTO,SANTA MARIA,SAN JOSE,4139,-26.9578295,-66.1419033
29315,PUNTA DEL AGUA,ANDALGALA,ACONQUIJA,4740,-27.5229471,-66.1295114
16833,PUNTA DEL POZO,LA PAZ,,5260,,
29333,PUNTA DEL RIO,CAPAYAN,CAPAYAN,4728,-28.8761090,-65.8377050
10973,QUEBRACHAL,SANTA ROSA,,4723,,
10428,QUEBRACHO,ANCASTI,,4701,,
10974,QUEBRACHOS BLANCOS,SANTA ROSA,,4723,,
29202,QUEBRADA DE JUJUIL,SANTA MARIA,SAN JOSE,4139,-26.7857150,-66.0155796
16911,QUEBRADA HONDA,TINOGASTA,,5340,,
16912,QUEMADITA,TINOGASTA,,5340,,
16913,QUEMADO,TINOGASTA,,5340,,
10975,QUIMILPA,SANTA ROSA,,4723,-28.0863988,-65.5409867
16914,QUIQUERO,TINOGASTA,,5340,,
10792,QUIROS,LA PAZ,ICAÑO,5266,-28.7866513,-65.1076530
16915,QUSTO,TINOGASTA,,5340,,
10849,RAFAEL CASTILLO,PACLIN,,4716,,
10793,RAMBLONES,LA PAZ,,5261,-29.1549505,-65.3984588
10794,RECREO,LA PAZ,RECREO,5260,-29.2834225,-65.0547409
10976,RETIRO,SANTA ROSA,,5317,,
10881,RETIRO DE COLANA,POMAN,,5317,-28.3528742,-66.1507826
10882,RINCON,POMAN,,5317,-28.2243563,-66.1409623
16792,RINCON GRANDE,BELEN,,4750,,
16916,RIO ABAJO,TINOGASTA,,5340,,
29288,RIO BLANCO,ANDALGALA,ANDALGALA,4740,-27.3095736,-66.3208737
10795,RIO CHICO,LA PAZ,,5265,-28.9456736,-65.3468100
11042,RIO COLORADO,TINOGASTA,,5331,-28.2832723,-67.3739099
10657,RIO DE AVILA,EL ALTO,,4235,-28.4499840,-65.4166708
10796,RIO DE BAZANES,LA PAZ,,5261,,
10797,RIO DE DON DIEGO,LA PAZ,,5261,,
10798,RIO DE LA DORADA,LA PAZ,,5261,-29.3031721,-65.4837473
10658,RIO DE LA PLATA,EL ALTO,,4235,,
10307,RIO DE LAS CASAS VIEJAS,AMBATO,LOS VARELA,4711,-27.7890817,-65.8765316
16917,RIO DE LOS INDIOS,TINOGASTA,,5340,,
10609,RIO DEL TALA,CAPITAL,,4700,,
11043,RIO GRANDE,TINOGASTA,,5341,-27.2282266,-67.3772681
10429,RIO LOS MOLINOS,ANCASTI,,4701,,
29305,RIO POTRERO,ANDALGALA,ACONQUIJA,4740,-27.3962427,-65.9815782
16918,RODEO,TINOGASTA,,5340,,
10556,RODEO GERVAN,BELEN,,4751,-26.9721094,-66.8371844
10482,RODEO GRANDE,ANDALGALA,,4740,-27.4461668,-66.4721358
29282,ROSARIO DE ABAJO,EL ALTO,EL ALTO,4235,-28.6193620,-65.4115742
29552,ROSARIO DE COLANA,POMAN,POMAN,5316,,
16769,ROSARIO DEL SUMALAO,ANTOFAGASTA DE LA SIERRA,,4705,,
11068,ROSARIO DEL SUMALAO,VALLE VIEJO,,4707,,
16793,RUMIMONION,BELEN,,4750,,
11044,SALADO,TINOGASTA,TINOGASTA,5331,-28.3120206,-67.2508793
27946,SALAR DEL HOMBRE MUERTO,ANTOFAGASTA DE LA SIERRA,ANTOFAGASTA DE LA SIERRA,4705,-25.4934253,-67.0950762
10977,SALAUCA,SANTA ROSA,,4723,-28.1802641,-65.2670058
10850,SALCEDO,PACLIN,,4716,,
10430,SAN ANTONIO,ANCASTI,,4701,,
10680,SAN ANTONIO,FRAY MAMERTO ESQUIU,FRAY MAMERTO ESQUIU,4707,-28.4237767,-65.7062134
16794,SAN ANTONIO,BELEN,,4750,-27.8457353,-67.2538290
10800,SAN ANTONIO DE LA PAZ,LA PAZ,ICAÑO,5264,-28.9331053,-65.0949656
10851,SAN ANTONIO DE PACLIN,PACLIN,,4719,-28.0048712,-65.7143074
10929,SAN ANTONIO DEL CAJON,SANTA MARIA,,4139,-26.4002304,-66.2568054
10801,SAN ANTONIO VIEJO,LA PAZ,,5264,,
29379,SAN BERNARDO,LA PAZ,RECREO,5260,-29.1968901,-64.9126068
16795,SAN BUENAVENTURA,BELEN,,4750,,
11045,SAN BUENAVENTURA,TINOGASTA,,5340,,
29328,SAN CARLOS,CAPAYAN,HUILLAPIMA,4728,-28.7604766,-65.8444464
10598,SAN FDO DEL VALLE DE CATAMARCA,CAPITAL,SAN F DEL VALLE DE CATAMARCA,4700,-28.4846582,-65.7867893
10557,SAN FERNANDO,BELEN,SAN FERNANDO,4751,-27.3346136,-66.9019298
29167,SAN FERNANDO NORTE,BELEN,SAN FERNANDO,4751,-27.2839628,-66.9021174
29270,SAN FRANCISCO,ANCASTI,ANCASTI,4701,-28.9632424,-65.4222701
10802,SAN FRANCISCO,LA PAZ,,5265,,
29344,SAN GABRIEL,CAPAYAN,CAPAYAN,4728,-29.1924002,-65.6964089
10589,SAN GERONIMO,CAPAYAN,,4728,-28.8315812,-66.2444813
11069,SAN ISIDRO,VALLE VIEJO,VALLE VIEJO,4707,-28.4592400,-65.7234573
29226,SAN JAVIER,VALLE VIEJO,VALLE VIEJO,4707,-28.7292388,-65.8173052
10659,SAN JERONIMO,EL ALTO,,4235,-28.4302043,-65.4424272
16599,SAN JOSE,SANTA MARIA,SAN JOSE,4139,-26.7891312,-66.0695953
10431,SAN JOSE,ANCASTI,,4701,-28.6834034,-65.4737482
10803,SAN JOSE,LA PAZ,RECREO,5319,-29.2467041,-65.2171021
11046,SAN JOSE,TINOGASTA,TINOGASTA,5341,-27.9897450,-67.5956520
16869,SAN JOSE BANDA,SANTA MARIA,SAN JOSE,4139,-26.7854979,-66.0838593
29207,SAN JOSE DE COLPES,POMAN,SAUJIL,5321,-28.0438024,-66.1404140
10677,SAN JOSE DE PIEDRA BLANCA,FRAY MAMERTO ESQUIU,FRAY MAMERTO ESQUIU,4709,-28.3887321,-65.7062701
10930,SAN JOSE NORTE,SANTA MARIA,,4139,-26.7787481,-66.0597732
10590,SAN LORENZO,CAPAYAN,,4724,,
10804,SAN LORENZO,LA PAZ,,5261,-29.7508192,-65.4558442
10978,SAN LUIS,SANTA ROSA,,4723,,
10805,SAN MANUEL,LA PAZ,,5264,,
10432,SAN MARTIN,ANCASTI,,4234,,
10591,SAN MARTIN,CAPAYAN,CAPAYAN,5263,-29.2215561,-65.7736753
10806,SAN MIGUEL,LA PAZ,,5261,-29.4570910,-65.2952432
10884,SAN MIGUEL,POMAN,,5321,-28.1394807,-66.2037096
29138,SAN MIGUEL,TINOGASTA,TINOGASTA,5340,-28.0124153,-67.5826868
29256,SAN NICOLAS,SANTA ROSA,LOS ALTOS,4722,-27.9631599,-65.4188278
10807,SAN NICOLAS,LA PAZ,,5261,-29.2848241,-65.2370732
10592,SAN PABLO,CAPAYAN,HUILLAPIMA,4726,-28.7070639,-66.0310783
29392,SAN PEDRO,SANTA ROSA,SANTA ROSA,4723,,
10593,SAN PEDRO,CAPAYAN,CAPAYAN,4726,-28.7468918,-66.1254418
29363,SAN PEDRO,LA PAZ,RECREO,5260,-29.2078828,-65.2455190
10808,SAN RAFAEL,LA PAZ,,5260,-29.1316435,-64.9443519
16848,SAN ROQUE,LA PAZ,,5260,,
29372,SAN SALVADOR,LA PAZ,RECREO,5260,-29.6751706,-65.4658390
10660,SAN VICENTE,EL ALTO,,4235,-28.6166692,-65.5166801
16834,SANCHO,LA PAZ,,5260,,
10852,SANTA ANA,PACLIN,,4718,,
10853,SANTA BARBARA,PACLIN,,4718,-28.1072653,-65.6650289
11070,SANTA CRUZ,VALLE VIEJO,,4705,-28.4984244,-65.6673187
11047,SANTA CRUZ,TINOGASTA,,5331,-28.2865164,-67.1982997
10433,SANTA GERTRUDIS,ANCASTI,,4701,,
29375,SANTA HELENA,LA PAZ,RECREO,5260,-29.7875312,-65.4300276
10809,SANTA LUCIA,LA PAZ,,5260,-29.1152631,-65.1722856
10931,SANTA MARIA,SANTA MARIA,SANTA MARIA,4139,-26.6939812,-66.0474701
29366,SANTA MARTA,LA PAZ,RECREO,5260,-29.4211763,-65.4709937
11071,SANTA ROSA,VALLE VIEJO,VALLE VIEJO,4707,-28.4426704,-65.7040865
29360,SANTA ROSA,LA PAZ,ICAÑO,5265,-28.9724831,-65.0446397
11048,SANTA ROSA,TINOGASTA,TINOGASTA,5343,-28.0379314,-67.6024475
29352,SANTA TERESITA,LA PAZ,ICAÑO,5265,-28.7192565,-64.9877731
29330,SANTILLAN,CAPAYAN,HUILLAPIMA,4728,-28.8293768,-65.9089296
29320,SANTO DOMINGO,CAPAYAN,HUILLAPIMA,4728,-28.5248110,-65.9558016
10810,SANTO DOMINGO,LA PAZ,,5260,-29.1633812,-65.1917375
11049,SANTO TOMAS,TINOGASTA,,5341,,
16876,SANTOS LUGARES,SANTA ROSA,,4723,,
16809,SAUCE,CAPITAL,,4700,,
10434,SAUCE DE LOS CEJAS,ANCASTI,,5265,,
10661,SAUCE HUACHO,EL ALTO,,4235,-28.2972905,-65.4344890
10435,SAUCE HUACHO,ANCASTI,,4701,,
10854,SAUCE MAYO,EL ALTO,,4722,-28.2400404,-65.4555882
10885,SAUJIL,POMAN,SAUJIL,5321,-28.1735210,-66.2120895
11050,SAUJIL,TINOGASTA,FIAMBALA,5341,-27.5699115,-67.6179916
16934,SEBILA,VALLE VIEJO,,4707,,
16860,SEBILA,CAPAYAN,,4728,,
16807,SEBILA,BELEN,,4750,,
16796,SHINCAL,BELEN,,4750,,
10682,SIERRA BRAVA,FRAY MAMERTO ESQUIU,,4711,,
10886,SIJAN,POMAN,,5319,-28.2626021,-66.2196000
29285,SIMOGASTA,EL ALTO,TAPSO,4235,-28.3813965,-65.1656866
10350,SINGUIL,AMBATO,LOS VARELA,4711,-27.8117943,-65.8679943
10594,SISIGUASI,CAPAYAN,HUILLAPIMA,4724,,
10662,SOLEDAD,EL ALTO,,4701,,
10663,SUCUMA,EL ALTO,,4235,,
11072,SUMALAO,VALLE VIEJO,VALLE VIEJO,4705,-28.4668217,-65.7298660
10855,SUMAMPA,PACLIN,,4722,-28.0790900,-65.5800727
16919,SUNCHO,TINOGASTA,,5340,,
29197,SUNCHOYACU,SANTA MARIA,SAN JOSE,4139,-26.9162178,-66.5342867
10856,SUPERI,PACLIN,,4718,,
10664,SURUIPIANA,EL ALTO,,4235,-28.5832182,-65.4831323
16770,TACAHUASI,ANTOFAGASTA DE LA SIERRA,,4705,,
10436,TACANA,ANCASTI,,4701,-28.6343461,-65.5954777
10437,TACO DE ABAJO,ANCASTI,,4701,,
10812,TACOPAMPA,LA PAZ,,5261,-29.3349502,-65.3722182
16835,TAJAMARES,LA PAZ,,5260,,
16935,TALA,VALLE VIEJO,,4707,,
16920,TALA ZAPATA,TINOGASTA,,5340,,
10857,TALAGUADA,PACLIN,,4718,,
10558,TALAMAYO,BELEN,,4750,-27.5627739,-66.8504344
16921,TALAR,TINOGASTA,,5265,,
10666,TALEGA,EL ALTO,,4235,,
16922,TALITA,TINOGASTA,,5340,,
16923,TAMBERIA,TINOGASTA,,5340,,
16924,TAMBU,TINOGASTA,,5340,,
10667,TAPSO,EL ALTO,TAPSO,4234,-28.4053140,-65.1034322
11051,TATON,TINOGASTA,FIAMBALA,5341,-27.3246880,-67.5118179
29127,TEBENQUICHO GRANDE,ANTOFAGASTA DE LA SIERRA,ANTOFAGASTA DE LA SIERRA,4705,-25.4400874,-67.5947027
10595,TELARITOS,CAPAYAN,,5263,-29.4721874,-65.6552507
10858,TIERRA VERDE,PACLIN,,4719,-27.9128406,-65.7063978
16836,TINAJERA,LA PAZ,,5260,,
11052,TINOGASTA,TINOGASTA,TINOGASTA,5340,-28.0618935,-67.5644455
10668,TINTIGASTA,EL ALTO,,4235,-28.3722822,-65.4412090
16936,TIORCO,VALLE VIEJO,,4707,,
16771,TORO MUERTO,ANTOFAGASTA DE LA SIERRA,,4705,,
10932,TORO YACO,SANTA MARIA,SANTA MARIA,4139,-26.5198534,-66.2682441
16925,TOTORA,TINOGASTA,,5340,,
10438,TOTORAL,ANCASTI,,4701,,
10933,TOTORILLA,SANTA MARIA,,4139,,
10596,TRAMPASACHA,CAPAYAN,,4728,-28.8421775,-66.2989251
11073,TRES PUENTES,VALLE VIEJO,,4707,,
16926,TROYA,TINOGASTA,,5340,-27.8768763,-67.6795919
29212,TUCUMANAO,POMAN,SAUJIL,5321,-28.0818896,-66.5614453
10813,TULA,LA PAZ,,5264,,
10887,TUSCUMAYO,POMAN,,5315,,
29296,URQUIZA,ANDALGALA,ANDALGALA,4740,-27.6836275,-66.6725021
29294,VALLECITO,ANDALGALA,ANDALGALA,4740,-27.4472581,-66.6102710
16927,VALLECITO,TINOGASTA,,5340,,
16928,VEGA,TINOGASTA,,5340,,
29130,VEGA COLORADA,ANTOFAGASTA DE LA SIERRA,ANTOFAGASTA DE LA SIERRA,4705,-25.6113697,-67.5112651
16772,VEGA CURUTU,ANTOFAGASTA DE LA SIERRA,,4705,,
29381,VEGA LA BOTIJUELA,ANTOFAGASTA DE LA SIERRA,ANTOFAGASTA DE LA SIERRA,4705,-25.7799698,-67.8676279
16773,VEGA TAMBERIA,ANTOFAGASTA DE LA SIERRA,,4705,,
10560,VICUÑA PAMPA,BELEN,,4751,,
29215,VIEJA,POMAN,POMAN,5315,-28.4353523,-66.1366856
10669,VILISMAN,EL ALTO,,4235,-28.4980419,-65.4331178
10859,VILLA COLLANTES,PACLIN,,4719,-27.9686461,-65.7233831
10483,VILLA CORONEL ARROYO,ANDALGALA,,4741,,
10611,VILLA CUBAS,CAPITAL,,4700,,
11074,VILLA DOLORES,VALLE VIEJO,VALLE VIEJO,4707,-28.4413376,-65.7109451
10683,VILLA LAS PIRQUITAS,FRAY MAMERTO ESQUIU,FRAY MAMERTO ESQUIU,4713,-28.2817774,-65.7300853
29388,VILLA LUJAN,TINOGASTA,TINOGASTA,5340,-28.2345708,-67.7013546
11075,VILLA MACEDO,VALLE VIEJO,,4707,,
29237,VILLA NORIEGA,PACLIN,PACLIN,4718,-28.2375429,-65.6447214
16837,VILLA OFELIA,LA PAZ,,5260,,
10612,VILLA PARQUE CHACABUCO,CAPITAL,,4700,,
10351,VILLA QUINTIN AHUMADA,AMBATO,,4715,,
11053,VILLA SAN ROQUE,TINOGASTA,TINOGASTA,5343,-28.0201136,-67.6050591
11054,VILLA SELEME,TINOGASTA,,5331,,
16838,VILLA SOTOMAYOR,LA PAZ,,5260,,
29298,VILLA VIL,ANDALGALA,ANDALGALA,4740,-27.5799004,-66.2578691
10559,VILLA VIL,BELEN,VILLA VIL,4751,-27.1018353,-66.8294678
11055,VIÑA DEL CERRO,TINOGASTA,,5333,,
29173,VIÑITA,BELEN,PUERTA DE SAN JOSE,4751,-27.3938830,-67.0828631
16929,VINQUIS,TINOGASTA,TINOGASTA,5340,-28.1054871,-67.2013926
29293,VIS VIS,ANDALGALA,ANDALGALA,4740,-27.4291485,-66.5304645
29178,VISCO,BELEN,BELEN,4750,-27.5481578,-66.8361384
16797,VISCOTE,BELEN,,4750,,
29292,VIZCACHAS,ANDALGALA,ANDALGALA,4740,-27.3627806,-66.5499100
16930,YACOCHUYO,TINOGASTA,,5340,,
16870,YAPES,SANTA MARIA,,4139,-26.8476273,-66.0741835
16849,YAPES,LA PAZ,,5260,,
10979,YAQUICHO,SANTA ROSA,,4723,,
10439,YERBA BUENA,ANCASTI,,5265,-29.0060563,-65.4632340
10860,YOCAN,PACLIN,,4716,-28.4195051,-65.6262791
29304,YUNKA SUMA,ANDALGALA,ACONQUIJA,4740,-27.3802326,-65.9836789
16937,ZANJA,VALLE VIEJO,,4707,,
29382,ZAPATA,BELEN,POZO DE PIEDRA,4751,-27.6225966,-67.2164639
29208,ZAPICRUZ,POMAN,SAUJIL,5321,-28.0095128,-66.4530635
16798,ZARCITO,BELEN,,4750,-26.9827788,-66.9769636
10908,ZARZA,SANTA MARIA,SAN JOSE,4139,-27.1632201,-66.1566649
16799,ZARZA,BELEN,,4750,-27.5484441,-66.7742058
