id,nombre,partido,municipio,cp,latitud,longitud
16178,ACHIRAS,RIO CUARTO,ACHIRAS,5833,-33.1784477,-64.9935303
24561,ACHIRAS,SAN JAVIER,,5875,-31.9982320,-65.0381138
25311,ACOLLARADO,TULUMBA,,5216,,
16179,ADELIA MARIA,RIO CUARTO,ADELIA MARIA,5843,-33.6325188,-64.0215988
24361,AGUA DE CRESPIN,CRUZ DEL EJE,,5285,-31.0876507,-65.0455589
25230,AGUA DE LAS PIEDRAS,TOTORAL,,5221,-30.8153335,-64.2123349
16054,AGUA DE ORO,COLON,AGUA DE ORO,5107,-31.0649335,-64.3012088
23092,AGUA DE ORO,RIO SECO,,5248,-29.8180211,-63.7531213
25559,AGUA DE TALA,PUNILLA,,5155,,
25312,AGUA DEL TALA,TULUMBA,,5243,-30.3938758,-64.1222191
25314,AGUA HEDIONDA,TULUMBA,,5216,-29.9840077,-64.4901418
24892,AGUA PINTADA,ISCHILIN,,5212,,
25495,AGUAS DE RAMON,MINAS,,5284,-30.8510158,-65.3636474
23565,AGUASACHA,COLON,ESTACION GENERAL PAZ,5221,-31.1367710,-64.0989320
16180,ALCIRA GIGENA,RIO CUARTO,ALCIRA,5813,-32.7570653,-64.3378599
25484,ALDEA SANTA MARIA,UNION,ALDEA SANTA MARIA,2651,-33.6994522,-62.9143327
16113,ALEJANDRO ROCA,JUAREZ CELMAN,ALEJANDRO ROCA,2686,-33.3533363,-63.7177963
16126,ALEJO LEDESMA,MARCOS JUAREZ,ALEJO LEDESMA,2662,-33.6066704,-62.6231995
24188,ALGARROBAL,SAN ALBERTO,,5885,,
16253,ALICIA,SAN JUSTO,ALICIA,5949,-31.9375172,-62.4665871
16292,ALMAFUERTE,TERCERO ARRIBA,ALMAFUERTE,5854,-32.1947746,-64.2538834
28443,ALPA CORRAL,RIO CUARTO,ALPA CORRAL,5801,-32.6917340,-64.7227550
25706,ALPAPUCA,RIO CUARTO,,5813,,
16274,ALTA GRACIA,SANTA MARIA,ALTA GRACIA,5186,-31.6544495,-64.4347382
24189,ALTAUTINA,SAN ALBERTO,,5871,-31.7912093,-65.1658794
24906,ALTO ALEGRE,SANTA MARIA,,5121,-31.6106875,-64.4430374
16316,ALTO ALEGRE,UNION,ALTO ALEGRE,5907,-32.3456955,-62.8833809
25561,ALTO CASTRO,PUNILLA,,5182,,
24909,ALTO DE FIERRO,SANTA MARIA,,5119,-29.7011775,-63.6146242
25316,ALTO DE FLORES,TULUMBA,,5203,-30.3804221,-64.0415734
24563,ALTO DE LAS MULAS,SAN JAVIER,,5875,,
24363,ALTO DE LOS QUEBRACHOS,CRUZ DEL EJE,ALTO DE LOS QUEBRACHOS,5281,-30.5466284,-65.0355502
25563,ALTO DE SAN PEDRO,PUNILLA,,5174,,
24916,ALTO DEL DURAZNO,SANTA MARIA,,5119,-31.5591004,-64.1919687
24190,ALTO GRANDE,SAN ALBERTO,,5893,-31.5179995,-65.1114507
24566,ALTO RESBALOSO,SAN JAVIER,,5885,-31.9628404,-65.0680898
25317,ALTO VERDE,TULUMBA,,5205,-30.1693896,-64.1132321
16254,ALTOS DE CHIPION,SAN JUSTO,ALTOS DE CHIPION,2417,-30.9565601,-62.3377037
28460,AMBOY,CALAMUCHITA,AMBOY,5199,-32.1759670,-64.5743380
28382,AMBUL,SAN ALBERTO,AMBUL,5299,-31.4910790,-65.0545260
25417,ANA ZUMARAN,UNION,ANA ZUMARAN,5905,-32.3920332,-63.0580418
25564,ANGOSTURA,PUNILLA,,5155,,
23574,ANIMI,COLON,,5107,-31.0216134,-64.2740244
16276,ANISACATE,SANTA MARIA,ANISACATE,5189,-31.7231379,-64.4144863
25318,ARBOL BLANCO,ISCHILIN,,5216,-30.1555268,-64.7227042
24726,ARBOL CHATO,SAN JUSTO,,2432,,
24570,ARBOLES BLANCOS,SAN JAVIER,,5873,,
24408,ARCOYO,SAN ALBERTO,,5297,,
16127,ARIAS,MARCOS JUAREZ,ARIAS,2624,-33.6406250,-62.4037209
23095,AROMITO,RIO SECO,,2341,,
16255,ARROYITO,SAN JUSTO,ARROYITO,2434,-31.4148674,-63.0525055
24193,ARROYO,SAN ALBERTO,,5297,,
16091,ARROYO ALGODON,GENERAL SAN MARTIN,ARROYO ALGODON,5909,-32.2009583,-63.1649551
16092,ARROYO CABRAL,GENERAL SAN MARTIN,ARROYO CABRAL,5917,-32.4912376,-63.4015579
24727,ARROYO DE ALVAREZ,SAN JUSTO,,2434,-31.5625266,-63.1761980
28399,ARROYO DE LOS PATOS,SAN ALBERTO,MINA CLAVERO,5889,-31.7626900,-65.0019890
24195,ARROYO LA HIGUERA,SAN ALBERTO,,5889,,
22572,ARROYO SAN ANTONIO,CALAMUCHITA,,5859,-32.2624815,-64.5933829
25707,ARROYO SANTA CATALINA,RIO CUARTO,,5825,,
22579,ARROYO SECO,CALAMUCHITA,,5196,-32.0930841,-64.5638382
22583,ARROYO TOLEDO,CALAMUCHITA,CAÑADA DE ALVAREZ,5819,-32.4526050,-64.5540310
25708,ARSENAL JOSE MARIA ROJAS,RIO CUARTO,,5825,,
23577,ASCOCHINGA,COLON,,5117,-30.9589328,-64.2752326
25260,ASSUNTA,JUAREZ CELMAN,ASSUNTA,2671,-33.6334938,-63.2253582
25486,ATAHONA,RIO PRIMERO,ATAHONA,5225,-30.9042477,-63.7057061
22565,ATHOS PAMPA,CALAMUCHITA,,5194,-31.9913669,-64.6904505
23582,AUGUSTO VANDERSANDE,COLON,,5145,-31.1675420,-64.1448670
16093,AUSONIA,GENERAL SAN MARTIN,AUSONIA,5901,-32.6613083,-63.2429199
31633,AVELLANEDA,ISCHILIN,AVELLANEDA,5212,-30.5947260,-64.2059850
22604,BAJADA NUEVA,RIO CUARTO,,5813,,
24913,BAJO CHICO,SANTA MARIA,,5189,-31.6992920,-64.3199054
22671,BAJO DE FERNANDEZ,RIO PRIMERO,,5101,,
23762,BAJO DE GOMEZ,RIO SEGUNDO,,5961,-31.6569892,-63.7072795
24895,BAJO DE OLMOS,TOTORAL,RIO PINTO,5221,-30.8644350,-64.3444160
22594,BAJO DEL CARMEN,CALAMUCHITA,LOS MOLINOS,5189,-31.8674190,-64.3622050
24199,BAJO EL MOLINO,SAN ALBERTO,,5887,,
24918,BAJO GRANDE,SANTA MARIA,,5101,-31.6196765,-64.2069081
23098,BAJO HONDO,RIO PRIMERO,,5231,-30.8055537,-63.1727126
24364,BAJO LINDO,CRUZ DEL EJE,,5270,-30.5816720,-65.4962688
23100,BALBUENA,RIO SECO,,5248,,
24203,BALDE DE LA MORA,SAN ALBERTO,,5871,-31.8149404,-65.6608930
25595,BALDE DE LA ORILLA,POCHO,,5871,-31.3227814,-65.6158860
24207,BALDE LINDO,SAN ALBERTO,,5871,,
16317,BALLESTEROS,UNION,BALLESTEROS,2572,-32.5450096,-62.9827042
16318,BALLESTEROS SUD,UNION,BALLESTEROS SUD,2572,-32.5885971,-63.0270388
16256,BALNEARIA,SAN JUSTO,BALNEARIA,5141,-31.0090960,-62.6670496
22675,BALNEARIO GUGLIERI,RIO PRIMERO,,5137,,
24212,BAÑADO DE PAJA,SAN ALBERTO,,5871,-31.8523049,-65.2525398
24365,BAÑADO DE SOTO,CRUZ DEL EJE,BAÑADO DE SOTO,5285,-30.8056147,-65.0437374
23109,BAÑADO DEL FUERTE,RIO SECO,,5248,-29.9374973,-63.6855874
24571,BANDA DE VARELA,SAN JAVIER,,5875,,
24897,BARRANCA YACO,TOTORAL,,5212,-30.8588137,-64.1015077
25261,BARRETO,JUAREZ CELMAN,,2671,-33.3488603,-63.3011997
23113,BARRETO,RIO SECO,,5246,,
24920,BARRIO DEAN FUNES,SANTA MARIA,,5123,,
24572,BARRIO LA FERIA,SAN JAVIER,,5870,,
25355,BARRIO LA FORTUNA,MARCOS JUAREZ,,2594,-32.6491355,-62.3018690
24728,BARRIO MULLER,SAN JUSTO,,5143,,
25566,BATAN,PUNILLA,,5155,,
16319,BELL VILLE,UNION,BELL VILLE,2550,-32.6235809,-62.6868820
24371,BELLA VISTA,CRUZ DEL EJE,,5284,-30.9209134,-65.1099683
16114,BENGOLEA,JUAREZ CELMAN,BENGOLEA,5807,-33.0278778,-63.6709938
16320,BENJAMIN GOULD,UNION,BENJAMIN GOULD,2664,-33.5916672,-62.7288551
16181,BERROTARAN,RIO CUARTO,BERROTARAN,5817,-32.4513741,-64.3892975
16155,BIALET MASSE,PUNILLA,BIALET MASSE,5158,-31.3159065,-64.4653015
23653,BLAS DE ROSALES,RIO PRIMERO,,5125,-31.2666702,-63.8666611
24573,BOCA DEL RIO,SAN JAVIER,,5885,,
25568,BOSQUE ALEGRE,PUNILLA,,5187,-31.1055511,-64.5901923
16275,BOUWER,SANTA MARIA,BOUWER,5119,-31.5586910,-64.1927414
16257,BRINKMANN,SAN JUSTO,BRINKMANN,2419,-30.8665250,-62.0356522
16083,BUCHARDO,GENERAL ROCA,BUCHARDO,6225,-34.7223142,-63.5080131
25569,BUEN RETIRO,PUNILLA,,5155,,
24923,BUENA VISTA,SANTA MARIA,,5121,-31.8404339,-64.1133498
23114,BUENA VISTA,RIO SECO,,5249,,
25598,BUENA VISTA,POCHO,,5295,-31.3921922,-64.9232228
24216,BUENA VISTA,SAN ALBERTO,,5297,,
22677,BUEY MUERTO,RIO PRIMERO,,5135,-31.2402089,-63.3313859
16182,BULNES,RIO CUARTO,BULNES,5845,-33.5061188,-64.6767426
24746,BURMEISTER,GENERAL ROCA,,6225,-34.7453891,-63.5845879
16156,CABALANGO,PUNILLA,CABALANGO,5155,-31.3931049,-64.5635653
16055,CABANA,COLON,UNQUILLO,5109,-31.2361000,-64.3281000
25309,CABEZA DE BUEY,TOTORAL,,5229,,
25232,CABINDO,TOTORAL,,5221,-30.9906051,-63.8237354
25077,CACHI YACO,SOBREMONTE,,5209,-29.6190165,-64.0621270
24373,CACHIYUYO,CRUZ DEL EJE,,5284,-30.5438278,-65.2842436
25571,CAJON DEL RIO,PUNILLA,,5184,,
25573,CALABALUMBA,PUNILLA,,5282,,
16217,CALCHIN,RIO SEGUNDO,CALCHIN,5969,-31.6654015,-63.2001762
16218,CALCHIN OESTE,RIO SEGUNDO,CALCHIN OESTE,5965,-31.8637447,-63.2773018
28459,CALMAYO,CALAMUCHITA,CALMAYO,5191,-32.0265150,-64.4641460
16128,CAMILO ALDAO,MARCOS JUAREZ,CAMILO ALDAO,2585,-33.1276093,-62.0943527
16290,CAMINIAGA,SOBREMONTE,CAMINIAGA,5244,-30.0524521,-64.0500793
24925,CAMINO A PUNTA DEL AGUA,SANTA MARIA,,5101,,
23115,CAMOATI,RIO SECO,,5231,,
23669,CAMPAMENTO MINNETTI,COLON,,5149,-31.3179936,-64.3167900
25080,CAMPO ALEGRE,SOBREMONTE,,5209,-29.5091213,-64.2912483
25233,CAMPO ALEGRE,TOTORAL,,5221,,
25235,CAMPO ALVAREZ,TOTORAL,,5229,,
23769,CAMPO AMBROGGIO,RIO SEGUNDO,,5915,-31.8129727,-63.0330526
24729,CAMPO BAUDILLO,SAN JUSTO,,5943,-31.6506103,-62.6467350
24730,CAMPO BEIRO,SAN JUSTO,,2421,,
24731,CAMPO BOERO,SAN JUSTO,,2426,,
24732,CAMPO CALVO,SAN JUSTO,,2423,,
24733,CAMPO COYUNDA,SAN JUSTO,,5139,,
25709,CAMPO DE LA TORRE,RIO CUARTO,,5801,-32.7461391,-64.5750755
25237,CAMPO DE LAS PIEDRAS,TOTORAL,,5236,,
25421,CAMPO GENERAL PAZ,UNION,,2555,-32.8331216,-62.9399847
23116,CAMPO GRANDE,RIO SECO,,5231,-30.0508431,-63.5396762
32257,CAMPO LA ADELA,GENERAL ROCA,BUCHARDO,6225,-34.9151740,-63.3910490
24734,CAMPO LA LUISA,SAN JUSTO,,2423,,
25239,CAMPO LA PIEDRA,TOTORAL,,5221,-30.7829482,-63.8281692
22679,CAMPO RAMALLO,RIO PRIMERO,,5225,-30.7107010,-63.4977174
25182,CAMPO ROSSI,TERCERO ARRIBA,JAMES CRAIK,5987,-32.2385024,-63.4680025
24748,CAMPO SAN JUAN,GENERAL ROCA,,6271,-34.6089139,-64.1407975
23117,CAÑA CRUZ,RIO SECO,,5248,,
22683,CAÑADA ANCHA SANTA ROSA,RIO PRIMERO,,5135,,
22605,CAÑADA DE ALVAREZ,CALAMUCHITA,,5819,-32.3657664,-64.5491145
23118,CAÑADA DE CORIA,RIO SECO,,5249,,
22685,CAÑADA DE CUEVAS,RIO PRIMERO,,5101,,
25240,CAÑADA DE JUME,TOTORAL,,5221,,
22609,CAÑADA DE LAS CHACRAS,CALAMUCHITA,,5199,,
16305,CAÑADA DE LUQUE,TOTORAL,CAÑADA DE LUQUE,5229,-30.7341633,-63.7226486
32309,CAÑADA DE MACHADO,RIO PRIMERO,CAÑADA DE MACHADO,5961,-31.4291270,-63.5883330
23771,CAÑADA DE MACHADO SUD,RIO SEGUNDO,,5963,-31.5290671,-63.6858432
25241,CAÑADA DE RIO PINTO,ISCHILIN,CAÑADA DE RIO PINTO,5221,-30.7757266,-64.2121449
25601,CAÑADA DE SALAS,POCHO,,5299,-31.3090617,-65.1989580
22610,CAÑADA DEL DURAZNO,CALAMUCHITA,,5196,-32.1698645,-64.7750648
24221,CAÑADA DEL PUERTO,SAN ALBERTO,,5297,,
22612,CAÑADA DEL SAUCE,CALAMUCHITA,CAÑADA DEL SAUCE,5817,-32.3692150,-64.6411005
24574,CAÑADA GRANDE,SAN JAVIER,,5873,,
24223,CAÑADA GRANDE,SAN ALBERTO,,5891,,
22689,CAÑADA HONDA,RIO PRIMERO,,5227,-30.5778828,-63.4915085
24376,CAÑADA HONDA,CRUZ DEL EJE,,5280,-31.0198277,-64.7709165
24225,CAÑADA LARGA,SAN ALBERTO,,5889,-31.7449696,-64.9805123
24750,CAÑADA VERDE,GENERAL ROCA,,6275,-34.8364258,-64.5869909
24903,CAÑADAS HONDAS,ISCHILIN,,5221,,
25577,CAÑADON DE LOS MOGOTES,PUNILLA,,5184,,
16321,CANALS,UNION,CANALS,2650,-33.5641785,-62.8859825
24384,CANDELARIA,CRUZ DEL EJE,,5287,-31.0952786,-64.8550853
25242,CANDELARIA SUD,TOTORAL,CANDELARIA SUD,5221,-30.8407788,-63.8009924
23693,CANDONGA,COLON,,5111,-31.0855953,-64.3444326
24904,CANTERA LOS VIERAS,ISCHILIN,,5212,,
24928,CANTERAS ALTA GRACIA,SANTA MARIA,,5186,,
16056,CANTERAS EL SAUCE,COLON,,5107,-31.0862545,-64.3145959
24381,CANTERAS IGUAZU,CRUZ DEL EJE,,5285,,
24907,CANTERAS KILOMETRO 428,ISCHILIN,DEAN FUNES,5200,-30.4682970,-64.3274770
25243,CANTERAS LOS MORALES,TOTORAL,,5238,,
24378,CANTERAS QUILPO,CRUZ DEL EJE,,5281,-30.8369312,-64.6945279
16129,CAP GRAL BERNARDO O HIGGINS,MARCOS JUAREZ,CAP GRAL BERNARDO O HIGGINS,2645,-33.2472028,-62.2697384
24930,CAPILLA DE COSME,SANTA MARIA,,5101,,
22691,CAPILLA DE DOLORES,RIO PRIMERO,,5125,-31.2619417,-63.7813720
16199,CAPILLA DE LOS REMEDIOS,RIO PRIMERO,CAPILLA DE LOS REMEDIOS,5101,-31.4296610,-63.8321804
24575,CAPILLA DE ROMERO,SAN JAVIER,,5873,-32.1353800,-65.2228435
25425,CAPILLA DE SAN ANTONIO,UNION,,2559,-32.2016968,-62.6299190
28455,CAPILLA DE SITON,TOTORAL,CAPILLA DE SITON,5231,-30.5725350,-63.6524910
25710,CAPILLA DE TEGUA,RIO CUARTO,,5813,,
28415,CAPILLA DEL CARMEN,RIO SEGUNDO,CAPILLA DEL CARMEN,5963,-31.5081130,-63.3424950
16157,CAPILLA DEL MONTE,PUNILLA,CAPILLA DEL MONTE,5184,-30.8599663,-64.5256500
22696,CAPILLA LA ESPERANZA,RIO PRIMERO,,5129,,
24735,CAPILLA SAN ANTONIO,SAN JUSTO,,2432,-31.5108420,-62.8209526
24859,CAPILLA SAN ANTONIO DE YUCAT,GENERAL SAN MARTIN,,5936,-32.3172061,-63.5130689
24736,CAPILLA SANTA ROSA,SAN JUSTO,,2415,,
22615,CARAHUASI,CALAMUCHITA,,5196,-32.3180186,-64.7039250
16115,CARNERILLO,JUAREZ CELMAN,CARNERILLO,5805,-32.9153142,-64.0256581
23129,CARNERO YACO,RIO SECO,,5246,,
16219,CARRILOBO,RIO SEGUNDO,CARRILOBO,5915,-31.8744278,-63.1165466
24386,CARRIZAL,CRUZ DEL EJE,SAN MARCOS SIERRAS,5285,-30.7176710,-64.6562340
24226,CARRIZAL,SAN ALBERTO,,5299,,
24576,CARTABEROL,SAN JAVIER,,5871,,
23709,CASA BAMBA,COLON,,5151,-31.3431288,-64.3978296
25604,CASA BLANCA,POCHO,,5299,-31.3754582,-65.1574344
24228,CASA DE PIEDRA,SAN ALBERTO,,5891,,
28352,CASA GRANDE,PUNILLA,CASA GRANDE,5162,-31.1541910,-64.4734630
25579,CASA NUEVA,PUNILLA,,5155,,
25581,CASA SERRANA HUERTA GRANDE,PUNILLA,,5175,,
23133,CASAS VEJAS,RIO SECO,,5246,,
25245,CASAS VIEJAS,TOTORAL,,5236,,
24389,CASAS VIEJAS,CRUZ DEL EJE,,5285,,
25583,CASCADAS,PUNILLA,,5178,,
25169,CASPICUCHANA,SOBREMONTE,,5209,-29.8158062,-64.0683966
25587,CASSAFFOUSTH ESTACION FCGB,PUNILLA,,5149,-31.3637408,-64.4514690
22697,CASTELLANOS,RIO PRIMERO,,5135,,
16130,CAVANAGH,MARCOS JUAREZ,CAVANAGH,2625,-33.4784241,-62.3377953
24863,CAYUQUEO,GENERAL SAN MARTIN,,5901,-32.8064463,-63.1398578
22617,CERRO BLANCO,CALAMUCHITA,SANTA ROSA DE CALAMUCHITA,5191,-32.1609310,-64.8571110
25500,CERRO BOLA,POCHO,,5293,-31.2745777,-65.3389294
16309,CERRO COLORADO,RIO SECO,CERRO COLORADO,5244,-30.0960599,-63.9287732
22618,CERRO COLORADO,CALAMUCHITA,,5821,-32.4166636,-64.6866460
24908,CERRO DE LA CRUZ,COLON,,5200,,
24911,CERRO NEGRO,CALAMUCHITA,VILLA CIUDAD PARQUE LOS REARTE,5221,-31.9501270,-64.9166670
24233,CERRO NEGRO,SAN ALBERTO,,5297,,
22619,CERRO SAN LORENZO,CALAMUCHITA,,5821,-32.4208132,-64.6143738
22621,CERROS ASPEROS,CALAMUCHITA,SANTA ROSA DE CALAMUCHITA,5859,-32.1169930,-64.9166240
25588,CHACHA DEL REY,PUNILLA,,5282,,
24390,CHACRAS,CRUZ DEL EJE,,5284,-30.8354085,-65.2207060
25246,CHACRAS VIEJAS,TOTORAL,,5242,,
16183,CHAJAN,RIO CUARTO,CHAJAN,5837,-33.5567933,-65.0039856
28450,CHALACEA,RIO PRIMERO,CHALACEA,5229,-30.7615500,-63.5613660
25606,CHAMICO,POCHO,,5299,-31.4101587,-65.0959556
23138,CHAÑAR VIEJO,RIO SECO,CHAÑAR VIEJO,5246,-30.0008351,-63.8491812
25711,CHAÑARITOS,RIO CUARTO,,5829,-33.2917497,-64.8209064
32307,CHANCANI,POCHO,CHANCANI,5871,-31.4163350,-65.4514000
24577,CHAQUINCHUNA,SAN JAVIER,,5870,,
24395,CHARACATO,CRUZ DEL EJE,,5287,-31.1250994,-64.7404454
25589,CHARBONIER,PUNILLA,CHARBONIER,5282,-30.7722201,-64.5441750
22699,CHARCAS NORTE,RIO PRIMERO,,5127,-31.4055810,-63.6898862
16116,CHARRAS,JUAREZ CELMAN,CHARRAS,5807,-33.0219154,-64.0518188
16094,CHAZON,GENERAL SAN MARTIN,CHAZON,2675,-33.0795097,-63.2765999
23146,CHILE CORRAL AL AGUADA,RIO SECO,,5246,,
16322,CHILIBROSTE,UNION,CHILIBROSTE,2561,-32.3315010,-62.5117302
23150,CHILLI CORRAL,RIO SECO,,5246,,
25321,CHIPITIN,TULUMBA,,5244,-30.3821774,-63.9852377
24235,CHUA,SAN ALBERTO,,5871,,
24578,CHUCHIRAS,SAN JAVIER,,5875,-31.9829314,-65.0829874
16517,CHUCUL,RIO CUARTO,CHUCUL,5805,-33.0107803,-64.1724701
16107,CHUÑA,ISCHILIN,CHUÑA,5218,-30.4681911,-64.6597214
25087,CHUÑA HUASI,SOBREMONTE,CHUÑA HUASI,5201,-29.9380981,-64.1177556
25322,CHURQUI CAÑADA,TULUMBA,CHURQUI CAÑADA,5246,-30.1754473,-63.9313742
24237,CIENAGA DE ALLENDE,SAN ALBERTO,,5891,-31.7458021,-65.1144859
27667,CIENAGA DE BRITOS,MINAS,,5297,-31.2517902,-64.9375447
25504,CIENAGA DEL CORO,MINAS,CIENAGA DEL CORO,5289,-31.0415555,-65.2825933
16323,CINTRA,UNION,CINTRA,2559,-32.3058052,-62.6509438
23043,CNIA HOGAR VELEZ SARSFIELD,SANTA MARIA,,5119,,
16220,COLAZO,RIO SEGUNDO,COLAZO,5965,-31.9647751,-63.3835983
27638,COLONIA 10 DE JULIO,SAN JUSTO,,2349,-30.5290419,-62.1156504
25363,COLONIA 25 LOS SURGENTES,MARCOS JUAREZ,,2581,-32.8876078,-61.9540473
22633,COLONIA ALEMANA,CALAMUCHITA,,5196,,
32328,COLONIA ALMADA,TERCERO ARRIBA,COLONIA ALMADA,5987,-32.0350070,-63.8642840
24737,COLONIA ANGELITA,SAN JUSTO,,5941,,
24738,COLONIA ANITA,SAN JUSTO,COLONIA ANITA,2413,-31.1254798,-62.2347082
24739,COLONIA ARROYO DE ALVAREZ,SAN JUSTO,,2436,,
25590,COLONIA BANCO PCIA BS AS,PUNILLA,,5155,,
28441,COLONIA BARGE,MARCOS JUAREZ,COLONIA BARGE,2659,-33.2575400,-62.6072990
24740,COLONIA BEIRO,SAN JUSTO,,2421,-30.7066128,-61.9049716
16324,COLONIA BISMARCK,UNION,COLONIA BISMARCK,2651,-33.2997017,-62.7157822
24753,COLONIA BOERO,GENERAL ROCA,,6270,-34.4883985,-64.4889508
24742,COLONIA BOTTURI,SAN JUSTO,,2419,,
25427,COLONIA BREMEN,UNION,COLONIA BREMEN,2651,-33.4645531,-62.7326849
25370,COLONIA CALCHAQUI,MARCOS JUAREZ,,2580,-32.8084318,-62.1738486
22702,COLONIA CAÑADON,RIO PRIMERO,,5137,,
16057,COLONIA CAROYA,COLON,COLONIA CAROYA,5223,-31.0089100,-64.0769543
24744,COLONIA CEFERINA,SAN JUSTO,,2415,-31.0406286,-62.1274274
24745,COLONIA CORTADERA,SAN JUSTO,,2436,,
24934,COLONIA COSME SUD,SANTA MARIA,,5101,,
24747,COLONIA COYUNDA,SAN JUSTO,,2435,-31.1794137,-62.9527365
24749,COLONIA CRISTINA,SAN JUSTO,,2424,,
25713,COLONIA DEAN FUNES,RIO CUARTO,,5847,,
24751,COLONIA DEL BANCO NACION,SAN JUSTO,,2428,,
25263,COLONIA DOLORES,JUAREZ CELMAN,,5809,-32.7629575,-63.9593645
24754,COLONIA DOROTEA,GENERAL ROCA,,6270,-34.9716433,-64.4350648
24752,COLONIA DOS HERMANOS,SAN JUSTO,,2421,-30.6272031,-62.0296726
25714,COLONIA EL CARMEN PARAJE,RIO CUARTO,,5801,-33.0975439,-64.4308895
25373,COLONIA EL CHAJA,MARCOS JUAREZ,,2594,-32.7411445,-62.3655029
28027,COLONIA EL FORTIN,RIO PRIMERO,LA QUINTA,5133,-31.1229937,-63.1771265
24755,COLONIA EL MILAGRO,SAN JUSTO,,2424,-31.4571489,-62.3696594
24756,COLONIA EL TRABAJO,SAN JUSTO,,2424,-31.3279644,-62.3753190
24759,COLONIA EUGENIA,SAN JUSTO,,2413,-31.1705841,-62.3481639
25184,COLONIA GARZON,TERCERO ARRIBA,,5987,-32.0818879,-63.7360480
24763,COLONIA GENERAL DEHEZA,SAN JUSTO,,5945,-31.6321399,-63.0441642
24762,COLONIA GORCHS,SAN JUSTO,,2415,-30.9908302,-62.1733269
23712,COLONIA HOLANDESA,COLON,,5131,-31.2336828,-64.0015110
16131,COLONIA ITALIANA,MARCOS JUAREZ,COLONIA ITALIANA,2645,-33.3130531,-62.1779213
24765,COLONIA ITURRASPE,SAN JUSTO,COLONIA ITURRASPE,2413,-31.2102992,-62.1111257
22704,COLONIA LA ARGENTINA,RIO PRIMERO,,5137,-30.9843784,-63.0132527
25712,COLONIA LA ARGENTINA,RIO CUARTO,,6140,-34.1890514,-64.4123988
25715,COLONIA LA CARMENCITA,RIO CUARTO,,6141,-33.7713815,-64.3774117
25716,COLONIA LA CELESTINA,RIO CUARTO,,5847,-33.6538192,-64.7213106
25429,COLONIA LA LEONCITA,UNION,,2559,-32.1190916,-62.5644109
25431,COLONIA LA LOLA,UNION,,2650,-33.7320231,-62.7850993
25515,COLONIA LA MAGDALENA DE ORO,PRESIDENTE ROQUE SAENZ PEÑA,,6132,,
24767,COLONIA LA MOROCHA,SAN JUSTO,,2423,,
25375,COLONIA LA MURIUCHA,MARCOS JUAREZ,,2580,-32.5683204,-62.0825106
25487,COLONIA LA PIEDRA,RIO CUARTO,,5801,-33.0157171,-64.7327708
25517,COLONIA LA PROVIDENCIA,PRESIDENTE ROQUE SAENZ PEÑA,,6134,-33.9528490,-63.6117834
24770,COLONIA LA TRINCHERA,SAN JUSTO,,2417,-31.0778424,-62.4974326
22707,COLONIA LAS CUATRO ESQUINAS,RIO PRIMERO,COLONIA LAS CUATRO ESQUINAS,5135,-31.2067372,-63.2215547
27924,COLONIA LAS PICHANAS,SAN JUSTO,COLONIA LAS PICHANAS,2433,-31.2454066,-62.9256665
24773,COLONIA LAVARELLO,SAN JUSTO,,2415,-31.0275429,-61.9522521
25381,COLONIA LEDESMA,MARCOS JUAREZ,,2662,-33.6156900,-62.6161288
25383,COLONIA LOS VASCOS,MARCOS JUAREZ,,2189,-33.0623945,-61.9374250
25187,COLONIA LUQUE,TERCERO ARRIBA,,5850,,
25265,COLONIA MAIPU,JUAREZ CELMAN,,2684,-33.4719387,-63.4377850
16258,COLONIA MARINA,SAN JUSTO,COLONIA MARINA,2424,-31.2487354,-62.3633499
24775,COLONIA MAUNIER,SAN JUSTO,,2349,-30.5948956,-62.1282930
24777,COLONIA MILESSI,SAN JUSTO,,2349,-30.8370295,-62.1385296
24579,COLONIA MONTES NEGROS,SAN JAVIER,,5875,,
24779,COLONIA NUEVO PIAMONTE,SAN JUSTO,,2415,,
25717,COLONIA ORCOVI,RIO CUARTO,,5841,,
24780,COLONIA PALO LABRADO,SAN JUSTO,,2415,-31.0585310,-62.0333028
25718,COLONIA PASO CARRIL,RIO CUARTO,,5801,,
24782,COLONIA PRODAMONTE,SAN JUSTO,,2413,,
16259,COLONIA PROSPERIDAD,SAN JUSTO,COLONIA PROSPERIDAD,2423,-31.6301219,-62.3654115
22708,COLONIA SAGRADA FAMILIA,RIO PRIMERO,SAGRADA FAMILIA,5125,-31.2905313,-63.4439802
16260,COLONIA SAN BARTOLOME,SAN JUSTO,COLONIA SAN BARTOLOME,2426,-31.5281143,-62.7247505
22710,COLONIA SAN IGNACIO,RIO PRIMERO,,5189,,
24783,COLONIA SAN PEDRO,SAN JUSTO,COLONIA SAN PEDRO,2421,-30.7826841,-61.9172357
24868,COLONIA SAN RAFAEL,SAN JUSTO,,2433,-31.1194628,-62.8326218
25519,COLONIA SANTA ANA,PRESIDENTE ROQUE SAENZ PEÑA,,6123,-34.2647553,-63.5714819
24937,COLONIA SANTA CATALINA,SANTA MARIA,,5851,,
25188,COLONIA SANTA MARGARITA,TERCERO ARRIBA,,5933,,
24785,COLONIA SANTA MARIA,SAN JUSTO,,2423,-31.6069420,-62.4269770
25268,COLONIA SANTA PAULA,JUAREZ CELMAN,,5805,-32.9393559,-63.9029120
24787,COLONIA SANTA RITA,SAN JUSTO,,2411,-31.2010358,-62.2582616
24865,COLONIA SANTA RITA,GENERAL SAN MARTIN,,5936,-32.1837262,-63.3250543
24789,COLONIA TACURALES,SAN JUSTO,,2421,,
16065,COLONIA TIROLESA,COLON,COLONIA TIROLESA,5101,-31.2371080,-64.0670250
24792,COLONIA TORO PUJIO,SAN JUSTO,,5139,,
24794,COLONIA UDINE,SAN JUSTO,,2417,-31.0765223,-62.3251214
25269,COLONIA VALLE GRANDE,JUAREZ CELMAN,,6121,-33.3309609,-63.3438687
16261,COLONIA VALTELINA,SAN JUSTO,COLONIA VALTELINA,2413,-31.0530453,-62.2351646
25388,COLONIA VEINTICINCO,MARCOS JUAREZ,,2592,-32.8883679,-61.9347826
31866,COLONIA VICENTE AGUERO,COLON,COLONIA VICENTE AGUERO,5221,-31.0285220,-64.0187250
23778,COLONIA VIDELA,RIO SEGUNDO,COLONIA VIDELA,5865,-31.9171875,-63.5046202
16262,COLONIA VIGNAUD,SAN JUSTO,COLONIA VIGNAUD,2419,-30.8427086,-61.9564743
22712,COLONIA YARETA,RIO PRIMERO,,5137,,
24866,COLONIA YUCAT SUD,GENERAL SAN MARTIN,,5917,-32.3698603,-63.4267760
24795,COLONIAS,SAN JUSTO,,2436,,
23733,COLUMBO,TOTORAL,,5220,-30.8809145,-63.8356078
24580,COME TIERRA,SAN JAVIER,,5875,,
16201,COMECHINGONES,RIO PRIMERO,COMECHINGONES,5129,-31.1683292,-63.6079979
24241,COMECHINGONES,SAN ALBERTO,,5153,,
24243,CONCEPCION,SAN ALBERTO,,5871,,
24245,CONDOR HUASI,SAN ALBERTO,,5871,,
24581,CONLARA,SAN JAVIER,CONLARA,5873,-32.0787088,-65.2301484
22713,CONSTITUCION,RIO PRIMERO,,5125,,
25089,COPACABANA,ISCHILIN,COPACABANA,5201,-30.6117188,-64.5555995
25591,COPINA,PUNILLA,,5153,,
26120,CORDOBA,CAPITAL,CORDOBA,5000,-31.3988438,-64.2074509
24914,CORIMAYO,ISCHILIN,,5184,,
24915,CORITO,ISCHILIN,COPACABANA,5200,-30.4880760,-64.4944010
16184,CORONEL BAIGORRIA,RIO CUARTO,CORONEL BAIGORRIA,5811,-32.8489603,-64.3604237
16185,CORONEL MOLDES,RIO CUARTO,CORONEL MOLDES,5847,-33.6234283,-64.6039352
25248,CORRAL DE BARRANCA,TOTORAL,,5221,,
16132,CORRAL DE BUSTOS,MARCOS JUAREZ,CORRAL DE BUSTOS,2645,-33.2849159,-62.1853294
24673,CORRAL DE CABALLOS,SAN JAVIER,,5870,,
22714,CORRAL DE GOMEZ,RIO PRIMERO,,5135,,
24797,CORRAL DE GOMEZ,SAN JUSTO,,5139,,
24799,CORRAL DE GUARDIA,SAN JUSTO,,5940,,
24800,CORRAL DE MULAS,SAN JUSTO,,5945,,
25446,CORRAL DEL BAJO,UNION,,5913,-32.0741941,-62.8031383
23157,CORRAL DEL REY,RIO SECO,,5249,,
23161,CORRAL VIEJO,RIO SECO,,5246,,
16293,CORRALITO,TERCERO ARRIBA,CORRALITO,5853,-32.0249939,-64.1917877
24582,CORRALITO SAN JAVIER,SAN JAVIER,,5879,-32.1873467,-65.0532840
25390,CORTADERAS,MARCOS JUAREZ,,2661,-33.6159585,-62.6611865
16159,COSQUIN,PUNILLA,COSQUIN,5166,-31.2446365,-64.4665756
23782,COSTA ALEGRE,RIO SEGUNDO,,5963,-31.4971395,-63.4444649
22715,COSTA DEL CASTAÑO,RIO PRIMERO,,5137,,
22174,COSTA DEL TAMBO,RIO CUARTO,,5801,-32.9494053,-64.5135753
16221,COSTA SACATE,RIO SEGUNDO,COSTA SACATE,5961,-31.6916637,-63.7597847
24802,COTAGAITA,SAN JUSTO,,2419,-30.9187209,-62.0711636
24804,CRISTINA,SAN JUSTO,,2424,,
16133,CRUZ ALTA,MARCOS JUAREZ,CRUZ ALTA,2189,-33.0069695,-61.8107224
16160,CRUZ CHICA,PUNILLA,LA CUMBRE,5178,-30.9618940,-64.4853710
27666,CRUZ DE CAÑA,CRUZ DEL EJE,CRUZ DE CAÑA,5287,-31.0675003,-64.9426323
16239,CRUZ DE CAÑA,SAN JAVIER,,5875,-32.2830916,-65.0302766
16074,CRUZ DEL EJE,CRUZ DEL EJE,CRUZ DEL EJE,5280,-30.7204342,-64.8075562
25249,CRUZ DEL QUEMADO,TOTORAL,,5221,,
24917,CRUZ MOJADA,ISCHILIN,,5212,-30.4992501,-64.3247865
25448,CUATRO CAMINOS,UNION,,2551,-32.7182627,-62.5933076
25719,CUATRO VIENTOS,RIO CUARTO,,5801,-33.0730084,-64.5793989
25592,CUCHILLA NEVADA,PUNILLA,,5155,,
28358,CUESTA BLANCA,PUNILLA,CUESTA BLANCA,5152,-31.4775240,-64.5812200
25521,CURAPALIGUE,PRESIDENTE ROQUE SAENZ PEÑA,,6120,-34.0753181,-63.6137112
16294,DALMACIO VELEZ SARSFIELD,TERCERO ARRIBA,DALMACIO VELEZ,5919,-32.6114006,-63.5797157
24758,DE LA SERNA,GENERAL ROCA,,6271,-34.3761941,-64.6938266
16108,DEAN FUNES,ISCHILIN,DEAN FUNES,5200,-30.4254053,-64.3499567
16082,DEL CAMPILLO,GENERAL ROCA,DEL CAMPILLO,6271,-34.3792686,-64.4962311
16277,DESPEÑADEROS,SANTA MARIA,DESPEÑADEROS,5121,-31.8147354,-64.2922592
22735,DESVIO CHALACEA,RIO PRIMERO,,5229,,
27681,DESVIO EL VOLCAN,SAN ALBERTO,,5299,-31.4841830,-64.9586440
16263,DEVOTO,SAN JUSTO,DEVOTO,2424,-31.4025116,-62.3069572
16202,DIEGO DE ROJAS,RIO PRIMERO,DIEGO DE ROJAS,5135,-31.0279461,-63.3412653
24674,DIEZ RIOS,SAN JAVIER,,5875,,
32326,DIQUE CHICO,SANTA MARIA,DIQUE CHICO,5189,-31.7429360,-64.3655070
24583,DIQUE LA VIÑA,SAN JAVIER,,5885,-31.8730126,-65.0373661
25594,DIQUE LAS VAQUERIAS,PUNILLA,,5168,,
24941,DIQUE LOS MOLINOS,SANTA MARIA,,5192,,
25596,DIQUE SAN ROQUE,PUNILLA,,5149,,
25250,DOCTOR NICASIO SALAS OROÑO,TOTORAL,,5221,,
25597,DOLORES SAN ESTEBAN,PUNILLA,,5182,,
25599,DOMINGO FUNES,PUNILLA,,5164,,
25720,DOS LAGUNAS,RIO CUARTO,,5813,,
25602,DOS RIOS,PUNILLA,,5155,,
24247,DOS RIOS,SAN ALBERTO,,5297,,
24805,DOS ROSAS,SAN JUSTO,,2349,,
24943,DUARTE QUIROS,SANTA MARIA,,5119,,
16058,DUMESNIL,COLON,LA CALERA,5149,-31.3235838,-64.3358484
24460,EL ABRA,CRUZ DEL EJE,CRUZ DEL EJE,5281,-30.3853055,-65.1541758
25603,EL AGUILA BLANCA,PUNILLA,,5184,,
22736,EL ALCALDE,RIO PRIMERO,,5131,-31.1164348,-63.5991568
24251,EL ALGADOBAL,SAN ALBERTO,,5885,,
23165,EL ALGARROBAL,RIO SECO,,5249,,
24919,EL ALGARROBO,ISCHILIN,,5221,,
23750,EL ALGODONAL,COLON,,5107,-31.0571014,-64.3179905
24584,EL ALTO,SAN JAVIER,,5885,,
24252,EL ALTO,SAN ALBERTO,,5887,,
16264,EL ARAÑADO,SAN JUSTO,EL ARAÑADO,5947,-31.7414551,-62.8932838
24760,EL ARBOL,PRESIDENTE ROQUE SAENZ PEÑA,RIOBAMBA,6127,-34.3407880,-63.9960520
22737,EL BAGUAL,RIO PRIMERO,,5137,-30.8262889,-63.0460832
24255,EL BAJO,SAN ALBERTO,,5889,,
25766,EL BALDECITO,PUNILLA,,5182,,
24585,EL BALDECITO,SAN JAVIER,,5870,-32.0161886,-65.1642180
24922,EL BAÑADO,ISCHILIN,,5214,-30.2846630,-64.4456304
27686,EL BAÑADO,TULUMBA,,5244,-30.3479228,-63.8420546
23182,EL BAÑADO,RIO SECO,,5248,,
25722,EL BAÑADO,RIO CUARTO,,5801,,
25505,EL BARREAL,MINAS,,5270,-30.7138330,-65.4168860
25721,EL BARREAL,RIO CUARTO,,5813,,
24400,EL BARRIAL,CRUZ DEL EJE,,5285,-30.6561893,-64.9152699
24367,EL BARRIALITO,CRUZ DEL EJE,CRUZ DEL EJE,5284,-30.8186890,-65.1697030
24256,EL BORDO,SAN ALBERTO,,5871,-31.7811665,-65.3891078
25251,EL BOSQUE,TOTORAL,,5229,,
16075,EL BRETE,CRUZ DEL EJE,EL BRETE,5281,-30.6718082,-64.8359375
25723,EL CANO,RIO CUARTO,,5821,-32.6280986,-64.6315663
24403,EL CARACOL,CRUZ DEL EJE,,5284,,
22667,EL CARMEN,CALAMUCHITA,,5197,-32.2014587,-64.8210243
22740,EL CARRIZAL,RIO PRIMERO,,5135,-31.0314107,-63.4893961
25605,EL CARRIZAL,PUNILLA,,5282,-30.7320072,-64.5984214
25611,EL CARRIZAL,POCHO,,5299,-31.3910885,-65.1644681
25092,EL CARRIZAL CHUÑAHUASI,SOBREMONTE,,5201,-29.9449900,-64.0499457
25324,EL CERRITO,TULUMBA,,5205,-30.4340314,-64.0038447
24587,EL CERRO,SAN JAVIER,,5875,,
25506,EL CHACHO,MINAS,EL CHACHO,5272,-30.8009120,-65.6577920
25724,EL CHIQUILLAN,RIO CUARTO,,5813,,
23186,EL CORO,RIO SECO,,5248,,
24257,EL CORTE,SAN ALBERTO,,5889,,
25310,EL CRESTON DE PIEDRA,TOTORAL,,5236,,
22746,EL CRISPIN,RIO PRIMERO,EL CRISPIN,5129,-31.0187968,-63.6070075
25607,EL CUADRADO,PUNILLA,,5172,,
27647,EL DESCANSO,SAN JUSTO,,2434,-31.5344951,-63.0543737
16059,EL DIQUECITO,COLON,,5151,-31.3593342,-64.3650438
24927,EL DIVISADERO,ISCHILIN,,5212,,
25453,EL DORADO,UNION,,2651,-33.8045783,-62.8037342
25725,EL DURAZNITO,RIO CUARTO,,5801,,
25609,EL DURAZNO,PUNILLA,,5155,-31.3531069,-64.6171100
25326,EL DURAZNO,TULUMBA,,5231,-30.2758655,-64.1416547
23188,EL DURAZNO,RIO SECO,,5249,,
22749,EL ESPINAL,RIO PRIMERO,,5133,,
25726,EL ESPINILLAL,RIO CUARTO,,5813,-32.7706357,-64.0920253
24929,EL ESTANQUE,ISCHILIN,,5212,-30.5606002,-64.2991978
25455,EL FLORENTINO,UNION,,5951,-32.0088759,-62.5386489
24820,EL FLORIDA,SAN JUSTO,,2432,,
16265,EL FORTIN,SAN JUSTO,EL FORTIN,5951,-31.9696808,-62.3011932
24807,EL FUERTECITO,SAN JUSTO,,2428,-31.4049076,-62.9729712
23192,EL GABINO,RIO SECO,,5248,,
23194,EL GALLEGO,RIO SECO,,5249,,
24407,EL GUAICO,CRUZ DEL EJE,,5285,,
23198,EL GUANACO,RIO SECO,,5231,-29.9586218,-63.3338161
34377,EL HUAYCO,SAN ALBERTO,LAS CALLES,5885,,
24931,EL IALITA,ISCHILIN,,5212,,
23200,EL JORDAN,RIO SECO,,5248,-29.8952971,-63.8271187
24808,EL JUMIAL,SAN JUSTO,,5947,-31.8635593,-62.9261260
23202,EL LAUREL,RIO SECO,,5248,,
22669,EL MANANTIAL,SAN ALBERTO,AMBUL,5819,-31.4475770,-64.9458870
24589,EL MANANTIAL,SAN JAVIER,,5873,-32.2481699,-65.1709572
23206,EL MANGRULLO,RIO SECO,,5249,,
16060,EL MANZANO,COLON,EL MANZANO,5107,-31.0840225,-64.2975006
27672,EL MEDANITO,POCHO,,5871,-31.5843457,-65.3757691
24258,EL MIRADOR,SAN ALBERTO,,5891,-31.5837439,-65.1126093
24935,EL MOJONCITO,ISCHILIN,,5218,,
24939,EL MOLINO,ISCHILIN,,5214,-30.2333585,-64.9315733
24761,EL NOY,PRESIDENTE ROQUE SAENZ PEÑA,,6127,-34.3445287,-63.8833344
23123,EL OCHENTA,SANTA MARIA,,5123,-31.5204246,-64.0457527
25328,EL OJO DE AGUA,TULUMBA,,5203,-30.4654289,-64.1365385
25457,EL OVERO,MARCOS JUAREZ,,2563,-32.2583832,-62.3342001
24764,EL PAMPERO,GENERAL ROCA,,6273,-34.0682223,-65.0835670
23207,EL PANTANILLO,RIO SECO,,5246,,
24259,EL PANTANILLO,SAN ALBERTO,,5885,,
25094,EL PANTANO,SOBREMONTE,,5244,-30.0613046,-63.9788439
22673,EL PARADOR DE LA MONTAÑA,CALAMUCHITA,,5197,-32.1006667,-64.4707917
24940,EL PARAISO,ISCHILIN,,5218,,
24262,EL PASO DE LA PAMPA,SAN ALBERTO,,5871,,
23759,EL PAYADOR,COLON,LA CALERA,5151,-31.3529400,-64.4048500
25252,EL PEDACITO,TOTORAL,,5236,-30.7159487,-64.0261914
25610,EL PERCHEL,PUNILLA,,5166,,
25330,EL PERCHEL,TULUMBA,,5244,-30.1489088,-64.0362255
24264,EL PERCHEL,SAN ALBERTO,,5885,,
25612,EL PERUEL,PUNILLA,,5155,,
25614,EL PILCADO,PUNILLA,,5155,,
25616,EL PINGO,PUNILLA,,5178,,
25189,EL PORTEÑO,TERCERO ARRIBA,,5933,-32.3551898,-63.8655772
22678,EL PORTEZUELO,SAN JAVIER,LUYABA,5196,-32.1567760,-65.0294110
24942,EL PORTILLO,TULUMBA,INTIHUASI,5200,-30.3772570,-64.3740010
25727,EL POTOSI,RIO CUARTO,,5801,-33.1124227,-64.7022235
25618,EL POTRERO,PUNILLA,,5155,,
25613,EL POTRERO,POCHO,,5295,-31.3769897,-65.3777833
23210,EL POZO,RIO SECO,,5233,,
23213,EL PRADO,RIO SECO,,5248,,
23572,EL PROGRESO,RIO SECO,,5249,,
24590,EL PUEBLITO,SAN JAVIER,,5875,-31.9510971,-65.0717442
25619,EL PUENTE,PUNILLA,,5172,,
23215,EL PUESTO,RIO SECO,,5249,,
24410,EL PUESTO,CRUZ DEL EJE,,5284,-31.0012954,-64.7521049
24944,EL PUESTO LOS CABRERA,ISCHILIN,,5218,,
22750,EL QUEBRACHO,RIO PRIMERO,,5101,-31.2678066,-63.3924520
24947,EL QUEBRACHO,ISCHILIN,,5218,-30.3901362,-64.6541940
23218,EL QUEBRACHO,RIO SECO,,5249,,
22681,EL QUEBRACHO,CALAMUCHITA,,5854,-32.2497856,-64.3773291
24415,EL QUICHO,CRUZ DEL EJE,,5270,-30.4632794,-65.3933908
24951,EL RANCHITO,PUNILLA,CAPILLA DEL MONTE,5218,-30.8629110,-64.4970660
25272,EL RASTREADOR,JUAREZ CELMAN,EL RASTREADOR,6121,-33.6653316,-63.5401449
25253,EL RINCON,TOTORAL,,5231,-30.5576615,-63.7015081
24420,EL RINCON,CRUZ DEL EJE,,5282,-30.7425399,-64.6478183
25615,EL RINCON,POCHO,,5871,-31.5301126,-65.4093164
25331,EL RODEO,TULUMBA,EL RODEO,5246,-30.1756341,-63.8656735
23220,EL RODEO,RIO SECO,,5249,,
25332,EL ROSARIO,TULUMBA,,5205,,
25565,EL SALTO,PUNILLA,,5282,-30.7128420,-64.6548810
25190,EL SALTO NORTE,TERCERO ARRIBA,,5854,-32.1396957,-64.2143501
25511,EL SAUCE,MINAS,,5289,-31.1084955,-65.2723082
24265,EL SAUZAL,SAN ALBERTO,,5887,,
23223,EL SILVERIO,RIO SECO,,5248,,
23226,EL SIMBOL,RIO SECO,,5249,,
24422,EL SIMBOLAR,CRUZ DEL EJE,,5281,-30.6379083,-64.8938281
24266,EL TAJAMAR,SAN ALBERTO,,5885,,
24953,EL TALA,ISCHILIN,,5201,,
23768,EL TALAR,COLON,,5107,,
25254,EL TALITA VILLA GRAL MITRE,TOTORAL,,5236,,
25728,EL TAMBO,RIO CUARTO,,5801,,
16267,EL TIO,SAN JUSTO,EL TIO,2432,-31.3843136,-62.8292999
22752,EL TOSTADO,RIO PRIMERO,,5137,-31.0335830,-63.0416640
24809,EL TRABAJO,SAN JUSTO,,2424,,
25459,EL TRIANGULO,UNION,,2572,,
23228,EL TULE,RIO SECO,,5249,,
25334,EL TUSCAL,TULUMBA,,5216,-29.7639250,-64.5262386
25702,EL VADO,PUNILLA,,5182,,
24423,EL VALLECITO,CRUZ DEL EJE,CRUZ DEL EJE,5172,,
25513,EL VALLESITO,MINAS,,5291,,
25335,EL VENCE,TULUMBA,,5231,-30.3505075,-63.7202413
25620,EL VERGEL,PUNILLA,,5155,-31.2582279,-64.0747773
23231,EL VISMAL,RIO SECO,,5233,,
23773,EL ZAINO,COLON,,5149,-31.3164892,-64.3135451
23233,EL ZAPALLAR,RIO SECO,,5233,-30.1833603,-63.0537478
25622,EL ZAPATO,PUNILLA,,5184,,
16186,ELENA,RIO CUARTO,ELENA,5815,-32.5696373,-64.3947525
16037,EMBALSE,CALAMUCHITA,EMBALSE,5856,-32.2087784,-64.4025650
23235,ENCRUCIJADA,RIO SECO,,5231,-30.1819622,-63.3901687
25394,ENFERMERA KELLY,MARCOS JUAREZ,,2587,-32.9344200,-62.2965794
25623,ESCOBAS,PUNILLA,,5282,,
22753,ESCUELA DE ARTILLERIA,RIO PRIMERO,,5101,,
22754,ESPERANZA,RIO PRIMERO,,5131,-31.1304217,-63.7084165
22758,ESPINILLO,RIO PRIMERO,,5129,,
25255,ESPINILLO,TOTORAL,,5221,,
25729,ESPINILLO,RIO CUARTO,,5811,-33.0033157,-64.3530010
16203,ESQUINA,RIO PRIMERO,ESQUINA,5131,-31.0777000,-63.7941000
24426,ESQUINA DEL ALAMBRE,ISCHILIN,COPACABANA,5281,-30.5973730,-64.9100920
23124,EST CANDELARIA NORTE,RIO SECO,,5235,,
25730,ESTACION ACHIRAS,RIO CUARTO,,5831,-33.2159869,-65.0032572
25460,ESTACION BELL VILLE,UNION,,2550,-32.6121004,-62.6940854
28842,ESTACION CALCHIN,RIO SEGUNDO,,5969,-31.6691290,-63.2013790
23783,ESTACION CAROYA,COLON,,5220,-31.0214079,-64.1153695
23787,ESTACION COLONIA TIROLESA,COLON,,5131,-31.2655134,-64.0560115
16443,ESTACION GENERAL PAZ,COLON,ESTACION GENERAL PAZ,5145,-31.1341189,-64.1410057
27630,ESTACION JUAREZ CELMAN,COLON,ESTACION JUAREZ CELMAN,5145,-31.2571163,-64.1660538
16372,ESTACION LUXARDO,SAN JUSTO,PLAZA LUXARDO,2411,-31.3047489,-62.1333023
25731,ESTACION PUNTA DE AGUA,RIO CUARTO,,5839,,
24431,ESTACION SOTO,CRUZ DEL EJE,LA HIGUERA,5284,-30.8490550,-65.0096660
25256,ESTANCIA BOTTARO,TOTORAL,,5229,,
25514,ESTANCIA DE GUADALUPE,MINAS,ESTANCIA DE GUADALUPE,5291,-31.1300996,-65.2183300
25624,ESTANCIA DOS RIOS,PUNILLA,,5155,,
23793,ESTANCIA EL CARMEN,COLON,,5131,-31.1787031,-64.2508445
24810,ESTANCIA EL CHAÑAR,SAN JUSTO,,2428,,
25257,ESTANCIA EL TACO,TOTORAL,,5229,,
24963,ESTANCIA GOROSITO,ISCHILIN,,5212,,
24811,ESTANCIA LA CHIQUITA,SAN JUSTO,,2428,,
24812,ESTANCIA LA MOROCHA,SAN JUSTO,,2428,,
24946,ESTANCIA LA PUNTA DEL AGUA,SANTA MARIA,,5187,,
25273,ESTANCIA LAS MARGARITAS,JUAREZ CELMAN,,2671,-32.9249795,-63.4962621
25258,ESTANCIA LAS MERCEDES,TOTORAL,,5229,,
25259,ESTANCIA LAS ROSAS,TOTORAL,,5229,,
23801,ESTANCIA LOS MATORRALES,RIO SEGUNDO,,5987,-31.7085319,-63.6275986
23237,ESTANCIA PATIÑO,RIO SECO,,5249,,
28356,ESTANCIA VIEJA,PUNILLA,ESTANCIA VIEJA,5152,-31.3822710,-64.5316650
16096,ETRURIA,GENERAL SAN MARTIN,ETRURIA,2681,-32.9406586,-63.2468796
28350,EUFRASIO LOZA,RIO SECO,EUFRASIO LOZA,5248,-29.9251160,-63.5898100
24867,FABRICA MILITAR,GENERAL SAN MARTIN,,5900,-32.4524389,-63.1940393
25192,FABRICA MILITAR RIO TERCERO,TERCERO ARRIBA,,5850,-32.1617601,-64.1444345
27930,FALDA DE CAÑETE,SANTA MARIA,ALTA GRACIA,5186,-31.5348815,-64.4554856
22690,FALDA DE LOS REARTES,CALAMUCHITA,,5189,-31.9525369,-64.5316117
24958,FALDA DEL CARMEN,SANTA MARIA,FALDA DEL CARMEN,5187,-31.5866384,-64.4579872
25396,FLORA,MARCOS JUAREZ,,2525,-32.3932550,-62.1764534
25732,FRAGUEYRO,RIO CUARTO,,5847,,
25522,FRAY CAYETANO RODRIGUEZ,PRESIDENTE ROQUE SAENZ PEÑA,,6120,-34.0154983,-63.4317168
16268,FREYRE,SAN JUSTO,FREYRE,2413,-31.1650715,-62.0994377
25524,GAVILAN,PRESIDENTE ROQUE SAENZ PEÑA,,6132,-34.0268862,-63.8457430
16134,GENERAL BALDISSERA,MARCOS JUAREZ,GENERAL BALDISSERA,2583,-33.1228180,-62.3047409
16117,GENERAL CABRERA,JUAREZ CELMAN,GENERAL CABRERA,5809,-32.8123932,-63.8748245
16118,GENERAL DEHEZA,JUAREZ CELMAN,GENERAL DEHEZA,5923,-32.7559166,-63.7869987
16295,GENERAL FOTHERINGHAM,TERCERO ARRIBA,GENERAL FOTHERINGHAM,5933,-32.3233261,-63.8702393
22763,GENERAL LAS HERAS,RIO PRIMERO,,5101,,
16147,GENERAL LEVALLE,PRESIDENTE ROQUE SAENZ PEÑA,GENERAL LEVALLE,6132,-34.0098325,-63.9225368
23802,GENERAL ORTIZ DE OCAMPO,COLON,,5151,-31.3613948,-64.4265703
25733,GENERAL PUEYRREDON,RIO CUARTO,,6140,,
16135,GENERAL ROCA,MARCOS JUAREZ,GENERAL ROCA,2592,-32.7302780,-61.9171982
25734,GENERAL SOLER,RIO CUARTO,,6142,-33.9415026,-64.2434399
25461,GENERAL VIAMONTE,UNION,,2671,-33.7464350,-63.0995980
25736,GLORIALDO FERNANDEZ,RIO CUARTO,,5837,,
24949,GOLPE DE AGUA,SANTA MARIA,,5187,-31.8404236,-64.6036914
25626,GRUTA DE SAN ANTONIO,PUNILLA,,5172,,
24592,GUANACO BOLEADO,SAN JAVIER,,5875,-32.1108214,-65.0999642
24435,GUANACO MUERTO,CRUZ DEL EJE,GUANACO MUERTO,5281,-30.4811164,-65.0616664
25526,GUARDIA VIEJA,PRESIDENTE ROQUE SAENZ PEÑA,,6120,-34.0905304,-63.5216138
25516,GUASAPAMPA,MINAS,GUASAPAMPA,5285,-31.1013823,-65.3293628
25627,GUASTA,PUNILLA,,5155,,
16136,GUATIMOZIN,MARCOS JUAREZ,GUATIMOZIN,2627,-33.4614944,-62.4365845
25338,GUAYASCATE,TULUMBA,SAN JOSE DE LA DORMIDA,5244,-30.2396907,-63.9418964
25737,GUINDAS,RIO CUARTO,,5821,,
28453,GUTEMBERG,RIO SECO,GUTEMBERG,5249,-29.7211730,-63.5156520
25262,HARAS SAN ANTONIO,TOTORAL,,5236,,
16296,HERNANDO,TERCERO ARRIBA,HERNANDO,5929,-32.4261208,-63.7336540
23807,HIGUERIAS,COLON,,5131,,
23055,HIGUERILLAS,RIO PRIMERO,,5125,,
24594,HORNILLOS,SAN JAVIER,,5885,,
25704,HOSPITAL FLIA DOMINGO FUNES,PUNILLA,,5165,,
16119,HUANCHILLA,JUAREZ CELMAN,HUANCHILLA,6121,-33.6678658,-63.6366806
24438,HUASCHA,ISCHILIN,,5218,-30.6036525,-64.7403273
24596,HUASTA,SAN JAVIER,,5875,,
24267,HUCLE,SAN ALBERTO,,5887,,
16162,HUERTA GRANDE,PUNILLA,HUERTA GRANDE,5174,-31.0728302,-64.4963608
16084,HUINCA RENANCO,GENERAL ROCA,HUINCA RENANCO,6270,-34.8425789,-64.3697281
16325,IDIAZABAL,UNION,IDIAZABAL,2557,-32.8142052,-63.0341263
24442,IGLESIA VIEJA,CRUZ DEL EJE,,5270,-30.6598257,-65.2630822
23812,IMPIRA,RIO SEGUNDO,IMPIRA,5987,-31.7969232,-63.6503092
23816,INDEPENDENCIA,RIO SEGUNDO,,5988,-31.8734423,-63.8148585
24813,INDIA MUERTA,SAN JUSTO,,5909,,
24965,INGENIERO BERTINI,ISCHILIN,QUILINO,5200,-30.3196420,-64.4249370
27978,INGENIERO MALMEN,GENERAL ROCA,VILLA HUIDOBRO,6279,-34.7776536,-64.8099880
16137,INRIVILLE,MARCOS JUAREZ,INRIVILLE,2587,-32.9437675,-62.2286377
25340,INTI HUASI,TULUMBA,SAN PEDRO NORTE,5203,-30.4107470,-64.2220336
25629,IRIGOYEN,PUNILLA,,5168,,
24966,ISCHILIN,ISCHILIN,,5201,-30.5798407,-64.3643145
25339,ISLA DE SAN ANTONIO,TULUMBA,,5214,-30.0287914,-64.4174409
22766,ISLA DEL CERRO,RIO PRIMERO,,5129,,
22767,ISLA LARGA,RIO PRIMERO,,5129,-30.9575963,-63.7048568
16138,ISLA VERDE,MARCOS JUAREZ,ISLA VERDE,2661,-33.2407150,-62.4042969
22769,ISLA VERDE,RIO PRIMERO,,5225,-30.6643480,-63.3229797
24268,ISLA VERDE,SAN ALBERTO,,5893,,
16085,ITALO,GENERAL ROCA,ITALO,6271,-34.7909546,-63.7809715
24968,JAIME PETER,ISCHILIN,,5218,-30.4115322,-64.5368892
16297,JAMES CRAIK,TERCERO ARRIBA,JAMES CRAIK,5984,-32.1586494,-63.4677162
25103,JARILLAS,SOBREMONTE,,5209,,
24814,JEANMAIRE,SAN JUSTO,,2424,,
24815,JERONIMO CORTES,SAN JUSTO,,5141,-30.9805212,-62.4980657
16062,JESUS MARIA,COLON,JESUS MARIA,5220,-30.9836922,-64.0933380
28408,JOSE DE LA QUINTANA,SANTA MARIA,JOSE DE LA QUINTANA,5189,-31.8069000,-64.4280630
16088,JOVITA,GENERAL ROCA,JOVITA,6127,-34.5189850,-63.9440470
24269,JUAN BAUTISTA ALBERDI,SAN ALBERTO,,5891,-31.5196032,-65.0639334
24970,JUAN GARCIA,ISCHILIN,,5212,-30.6450091,-64.2223824
25528,JULIO ARGENTINO ROCA,PRESIDENTE ROQUE SAENZ PEÑA,,6134,-34.0510900,-63.7312120
16326,JUSTINIANO POSSE,UNION,JUSTINIANO POSSE,2553,-32.8830185,-62.6813202
25397,KILEGRUMAN,MARCOS JUAREZ,,2625,-33.4561419,-62.3265203
22774,KILOMETRO 271,RIO PRIMERO,,5139,,
22776,KILOMETRO 294,RIO PRIMERO,,5137,,
22780,KILOMETRO 316,RIO PRIMERO,,5137,,
25264,KILOMETRO 364,TOTORAL,,5229,,
25266,KILOMETRO 394,TOTORAL,,5238,,
24971,KILOMETRO 430,ISCHILIN,,5200,,
24972,KILOMETRO 450,ISCHILIN,,5218,,
24816,KILOMETRO 531,SAN JUSTO,,2424,,
25740,KILOMETRO 545,RIO CUARTO,,6142,,
25398,KILOMETRO 57,MARCOS JUAREZ,,2619,-33.4979734,-62.2235222
25630,KILOMETRO 579,PUNILLA,,5168,,
24817,KILOMETRO 581,SAN JUSTO,,2428,-31.3924052,-62.7415585
25632,KILOMETRO 592,PUNILLA,,5166,,
25633,KILOMETRO 608,PUNILLA,,5149,,
28448,KILOMETRO 658,RIO PRIMERO,KILOMETRO 658,5127,-31.3707750,-63.5318570
22788,KILOMETRO 691,RIO PRIMERO,,5125,-31.3236210,-63.8549812
23858,KILOMETRO 745,COLON,,5220,-31.1990798,-64.1546181
24974,KILOMETRO 784,ISCHILIN,,5212,,
24977,KILOMETRO 807,ISCHILIN,,5212,,
24979,KILOMETRO 827,ISCHILIN,,5212,,
24981,KILOMETRO 832,ISCHILIN,,5200,,
24984,KILOMETRO 859,ISCHILIN,,5214,,
24986,KILOMETRO 865,ISCHILIN,,5214,,
24988,KILOMETRO 881,ISCHILIN,,5214,,
25341,KILOMETRO 907,TULUMBA,,5216,-29.8979150,-64.6620337
25342,KILOMETRO 931,TULUMBA,,5216,-29.7307009,-64.7910497
25267,LA AGUADA,TOTORAL,,5211,-30.5090908,-64.0993927
24990,LA AGUADA,ISCHILIN,,5212,,
24469,LA AGUADA,CRUZ DEL EJE,,5285,,
25739,LA AGUADA,RIO CUARTO,,5801,-32.9553930,-64.6037019
25617,LA AGUADITA,POCHO,,5299,-31.5200667,-65.2724325
24271,LA AGUADITA,SAN ALBERTO,,5887,,
25518,LA ARGENTINA,MINAS,,5293,-31.2236766,-65.3039152
24992,LA AURA,ISCHILIN,,5218,,
23243,LA BANDA,RIO SECO,,5249,,
24994,LA BARRANCA,ISCHILIN,,5214,-30.2613594,-64.4565157
23245,LA BARRANCA,RIO SECO,,5248,-29.6777390,-63.7233571
25490,LA BARRANQUITA,RIO CUARTO,,5833,-33.1109656,-64.8376913
24997,LA BATALLA,ISCHILIN,,5201,,
24475,LA BATEA,CRUZ DEL EJE,LA BATEA,5270,-30.3740900,-65.3082869
24952,LA BETANIA,SANTA MARIA,,5189,,
25520,LA BISMUTINA,MINAS,,5291,-31.1547364,-65.2553137
25004,LA BOTIJA,ISCHILIN,,5214,-30.2836926,-64.7667657
25491,LA BRIANZA,RIO CUARTO,,5848,-33.4289954,-64.1257434
22793,LA BUENA PARADA,RIO PRIMERO,,5129,,
16063,LA CALERA,COLON,LA CALERA,5151,-31.3505192,-64.3391647
25006,LA CALERA,ISCHILIN,,5218,,
25492,LA CALERA,RIO CUARTO,,5813,-32.6681138,-64.2296811
22693,LA CALERA,CALAMUCHITA,,5819,,
22796,LA CAÑADA,RIO PRIMERO,,5101,-31.4762993,-63.8794632
25634,LA CAÑADA,PUNILLA,,5155,,
23247,LA CAÑADA,RIO SECO,,5231,-30.0747628,-63.3549728
24598,LA CAÑADA,SAN JAVIER,,5870,,
25008,LA CAÑADA ANGOSTA,ISCHILIN,,5218,,
25635,LA CANTERA,PUNILLA,,5168,,
24481,LA CARBONERA,CRUZ DEL EJE,,5280,,
16120,LA CARLOTA,JUAREZ CELMAN,LA CARLOTA,2670,-33.4234123,-63.2975464
22607,LA CAROLINA,RIO CUARTO,LA CAROLINA EL POTOSI,5841,-33.1890522,-64.7258731
22695,LA CASCADA,CALAMUCHITA,,5854,-32.2000447,-64.2979501
16187,LA CAUTIVA,RIO CUARTO,LA CAUTIVA,6142,-33.9798876,-64.0824750
22798,LA CELINA,RIO PRIMERO,,5125,,
16148,LA CESIRA,PRESIDENTE ROQUE SAENZ PEÑA,LA CESIRA,6101,-33.9526558,-62.9747620
25014,LA CHACRA,ISCHILIN,,5212,,
23249,LA CHICHARRA,RIO SECO,,5249,,
22698,LA CHOZA,CALAMUCHITA,SANTA ROSA DE CALAMUCHITA,5196,-32.0618370,-64.5423930
22804,LA CIENAGA,RIO PRIMERO,,5133,,
24956,LA COCHA,SANTA MARIA,,5101,,
24272,LA COCHA,SAN ALBERTO,,5893,-31.6859143,-65.1516340
25023,LA COLONIA,ISCHILIN,,5201,,
22313,LA COLORADA,RIO CUARTO,,5831,,
24279,LA COMPASION,SAN ALBERTO,,5871,,
27689,LA CONCEPCION,ISCHILIN,,5281,,
24288,LA CONCEPCION,SAN ALBERTO,,5870,-31.7733778,-65.5782514
27648,LA CORTADERA,SAN JUSTO,,2434,-31.4933728,-62.9135817
24293,LA CORTADERA,SAN ALBERTO,,5871,-31.6650824,-65.3730785
23250,LA COSTA,RIO SECO,,5249,-29.7604225,-63.6456678
25636,LA COSTA,PUNILLA,,5282,,
24297,LA COSTA,SAN ALBERTO,,5885,,
23866,LA COTITA,COLON,,5220,-30.9605454,-64.0803704
23252,LA CRUZ,RIO SECO,,5249,,
16038,LA CRUZ,CALAMUCHITA,LA CRUZ,5859,-32.3053932,-64.4831009
16164,LA CUMBRE,PUNILLA,LA CUMBRE,5178,-30.9815865,-64.4901062
22315,LA CUMBRE,RIO CUARTO,,5801,,
22701,LA CUMBRECITA,CALAMUCHITA,LA CUMBRECITA,5194,-31.8992053,-64.7731069
24819,LA CURVA,SAN JUSTO,,2434,-31.4392403,-63.1177295
25271,LA DORA,TOTORAL,,5229,,
22316,LA DORMIDA,RIO CUARTO,,5817,-32.3910828,-64.2653503
25345,LA ESPERANZA,TULUMBA,,5231,-30.2856396,-63.7243151
25625,LA ESQUINA,POCHO,,5295,-31.2984271,-65.0650725
22317,LA ESQUINA,RIO CUARTO,,5801,-33.0197376,-64.4391779
25025,LA ESTACADA,ISCHILIN,QUILINO,5212,-30.3278064,-64.8911086
23253,LA ESTANCIA,RIO SECO,,5249,-29.9158933,-63.8563724
25523,LA ESTANCIA,MINAS,,5291,-31.2719418,-65.0242233
23869,LA ESTANCITA,COLON,,5111,-31.1140881,-64.3661495
22811,LA ESTRELLA,RIO PRIMERO,,5129,,
16165,LA FALDA,PUNILLA,LA FALDA,5172,-31.0932369,-64.4839706
25031,LA FLORIDA,ISCHILIN,,5214,,
16408,LA FRANCIA,SAN JUSTO,LA FRANCIA,2426,-31.4065723,-62.6340332
24496,LA FRONDA,CRUZ DEL EJE,,5282,,
24821,LA FRONTERA,SAN JUSTO,,2433,,
24599,LA FUENTE,SAN JAVIER,,5879,,
22608,LA GILDA,RIO CUARTO,,5848,-33.2082115,-64.2581144
24960,LA GRANADILLA,SANTA MARIA,,5187,,
28371,LA GRANJA,COLON,LA GRANJA,5115,-31.0216380,-64.2766790
27884,LA GRUTA,SAN ALBERTO,,5889,,
24302,LA GUARDIA,SAN ALBERTO,,5891,,
24871,LA HERRADURA,GENERAL SAN MARTIN,,5900,-32.5506324,-63.1309498
16076,LA HIGUERA,CRUZ DEL EJE,LA HIGUERA,5285,-31.0146626,-65.1194955
25037,LA HIGUERITA,ISCHILIN,,5201,,
25346,LA HIGUERITA,TULUMBA,,5244,,
22425,LA INVERNADA,RIO CUARTO,,5801,-32.8153961,-64.6062316
25045,LA ISABELA,ISCHILIN,,5200,,
25055,LA ISLA,SANTA MARIA,,5186,-31.7038353,-64.4843150
24962,LA ISOLINA,SANTA MARIA,,5186,,
25347,LA LAGUNA,TULUMBA,,5205,-30.1761908,-64.1097145
28004,LA LAGUNA,CRUZ DEL EJE,VILLA DE SOTO,5284,-30.9687295,-64.8485513
16097,LA LAGUNA,GENERAL SAN MARTIN,LA LAGUNA,5901,-32.8025208,-63.2444496
24964,LA LAGUNILLA,SANTA MARIA,,5119,,
27643,LA LAGUNILLA,RIO CUARTO,,5825,-33.1276132,-64.5683625
24508,LA LILIA,CRUZ DEL EJE,,5281,,
24307,LA LINEA,SAN ALBERTO,,5871,-31.9001216,-65.5051795
25049,LA MAJADA,ISCHILIN,,5212,,
24310,LA MAJADA,SAN ALBERTO,,5887,-31.7780678,-65.0923215
23254,LA MAZA,RIO SECO,,5231,-30.1488342,-63.7176628
22433,LA MERCANTIL,RIO CUARTO,,5841,,
25056,LA MESADA,ISCHILIN,,5200,,
22437,LA MESADA,RIO CUARTO,,5801,,
24514,LA MESILLA,MINAS,,5285,-30.9662967,-65.1650754
24822,LA MILKA,SAN JUSTO,,2400,,
22813,LA MOSTAZA,RIO PRIMERO,,5137,,
25631,LA MUDANA,POCHO,,5299,-31.3400497,-65.3470663
24771,LA NACIONAL,GENERAL ROCA,,6275,-34.7574506,-64.9142044
23255,LA OSCURIDAD,RIO SECO,,5255,,
24967,LA PAISANITA,SANTA MARIA,LA PAISANITA,5186,-31.7207613,-64.4742308
16098,LA PALESTINA,GENERAL SAN MARTIN,LA PALESTINA,5925,-32.6160545,-63.4089546
23257,LA PALMA,RIO SECO,,5231,,
25274,LA PAMPA,TOTORAL,LA PAMPA,5117,-30.9460630,-64.2677965
16369,LA PAQUITA,SAN JUSTO,LA PAQUITA,2417,-30.9064693,-62.2151833
16204,LA PARA,RIO PRIMERO,LA PARA,5137,-30.8933735,-63.0042610
25668,LA PATRIA,POCHO,,5871,-31.5223823,-65.5076038
25275,LA PAZ,TOTORAL,,5117,-30.9518787,-64.2335552
16240,LA PAZ,SAN JAVIER,LA PAZ,5879,-32.2170563,-65.0494385
23258,LA PENCA,RIO SECO,,5231,-30.1347147,-63.5164740
24772,LA PENCA,GENERAL ROCA,,6279,-34.7499926,-65.0347157
23260,LA PIEDRA BLANCA,RIO SECO,,5246,-29.9632448,-63.8280569
25637,LA PIEDRA MOVEDIZA,PUNILLA,,5184,,
23261,LA PINTADA,RIO SECO,,5248,,
25527,LA PLAYA,MINAS,LA PLAYA,5285,-31.0096563,-65.3608986
16099,LA PLAYOSA,GENERAL SAN MARTIN,LA PLAYOSA,5911,-32.0996208,-63.0326500
25109,LA PLAZA,SOBREMONTE,,5244,-29.9538458,-63.9975913
28433,LA POBLACION,SAN JAVIER,LA POBLACION,5875,-32.0666890,-65.0295380
24823,LA POBLADORA,SAN JUSTO,,5945,,
23191,LA PORFIA,SANTA MARIA,,5119,,
25277,LA PORTEÑA,TOTORAL,,5221,,
28451,LA POSTA,RIO PRIMERO,LA POSTA,5227,-30.5652950,-63.5165650
25348,LA PROVIDENCIA,TULUMBA,,5231,-30.2962871,-63.4900461
28042,LA PUERTA,COLON,COLONIA TIROLESA,5101,-31.1480020,-64.0385771
16205,LA PUERTA,RIO PRIMERO,LA PUERTA,5137,-30.8957233,-63.2555275
24527,LA PUERTA,CRUZ DEL EJE,,5281,-30.9011732,-64.8355150
23872,LA QUEBRADA,COLON,,5107,-31.1522355,-64.3227931
25638,LA QUEBRADA,PUNILLA,,5172,,
24315,LA QUEBRADA,SAN ALBERTO,,5297,,
22821,LA QUINTA,RIO PRIMERO,LA QUINTA,5135,-31.0635648,-63.1506215
24317,LA QUINTA,SAN ALBERTO,,5887,,
23262,LA QUINTANA,RIO SECO,,5249,,
16241,LA RAMADA,SAN JAVIER,,5875,-32.2996922,-65.0386025
25529,LA RAMADA,PRESIDENTE ROQUE SAENZ PEÑA,,6123,-34.2334575,-63.7004367
22441,LA RAMONCITA,RIO CUARTO,,5813,,
25036,LA RANCHERITA,SANTA MARIA,LA RANCHERITA,5189,-31.7560745,-64.4611228
25399,LA REDUCCION,MARCOS JUAREZ,,2594,-32.6722511,-62.3145573
23883,LA REDUCCION,COLON,,5105,-31.2611010,-64.3464292
24825,LA REPRESA,SAN JUSTO,,2436,-31.3301411,-63.2736664
32311,LA RINCONADA,RIO SECO,LA RINCONADA,5233,-30.1816830,-62.9446140
23265,LA RINCONADA CANDELARIA,RIO SECO,,5249,,
25059,LA RUDA,ISCHILIN,,5214,,
25061,LA SELVA,ISCHILIN,,5212,,
16278,LA SERRANITA,SANTA MARIA,LA SERRANITA,5189,-31.7419155,-64.4500655
24602,LA SIENA,SAN JAVIER,,5875,,
25669,LA SIERRITA,POCHO,,5297,-31.3993360,-64.9729803
22444,LA SIERRITA,RIO CUARTO,,5813,,
23267,LA SOLEDAD,RIO SECO,,5249,,
25670,LA TABLADA,POCHO,,5299,-31.4536150,-65.3057415
25466,LA TIGRA,UNION,,5949,-32.0416384,-62.4694329
27685,LA TOMA,TULUMBA,,5244,-30.2139284,-64.0090917
24541,LA TOMA,CRUZ DEL EJE,,5280,,
27883,LA TOMA,SAN ALBERTO,,5889,,
16367,LA TORDILLA,SAN JUSTO,LA TORDILLA,2435,-31.2423405,-63.0618694
25121,LA TOTORILLA,SOBREMONTE,,5209,-29.8694353,-64.1661213
24320,LA TRAMPA,SAN ALBERTO,,5871,,
24604,LA TRAVESIA,SAN JAVIER,,5875,-32.1130645,-65.0469059
24826,LA TRINCHERA,SAN JUSTO,,2417,,
25064,LA TUNA,ISCHILIN,,5212,,
24827,LA UDINE,SAN JUSTO,,2413,,
25639,LA USINA,PUNILLA,,5168,,
24606,LA VENTANA,SAN JAVIER,,5870,,
22449,LA VERONICA,RIO CUARTO,,5801,,
24828,LA VICENTA,SAN JUSTO,,2417,,
27641,LA VICTORIA,RIO SECO,,5231,-30.1397867,-63.4373807
23901,LA VIRGINIA,COLON,MI GRANJA,5220,-31.3834410,-64.1140130
16327,LABORDE,UNION,LABORDE,2657,-33.1532135,-62.8570023
16149,LABOULAYE,PRESIDENTE ROQUE SAENZ PEÑA,LABOULAYE,6120,-34.1200066,-63.3890076
25349,LADERA YACUS,TULUMBA,,5246,-30.1187762,-64.1253181
22453,LAGUNA CLARA,RIO CUARTO,,5813,,
16222,LAGUNA LARGA,RIO SEGUNDO,LAGUNA LARGA,5974,-31.7804203,-63.7981567
22459,LAGUNA OSCURA,RIO CUARTO,,6144,-33.8682810,-64.8565855
22465,LAGUNA SECA,RIO CUARTO,,5829,-33.3252739,-64.9039174
24973,LAGUNILLA,SANTA MARIA,,5101,,
23854,LAGUNILLA,RIO SEGUNDO,,5972,-31.7459369,-63.9515729
25282,LAGUNILLAS,JUAREZ CELMAN,,5807,-33.0488467,-63.9172998
24776,LARSEN,GENERAL ROCA,,6275,-34.7789658,-64.6209715
24712,LAS ABRAS,CRUZ DEL EJE,,5270,-30.6431341,-65.3206359
22827,LAS ACACIAS,RIO PRIMERO,,5129,-31.2122490,-63.5408908
16188,LAS ACEQUIAS,RIO CUARTO,LAS ACEQUIAS,5848,-33.2801933,-63.9757118
25129,LAS AGUADITAS,SOBREMONTE,,5201,-29.9094227,-63.8863120
32310,LAS ALBAHACAS,RIO CUARTO,LAS ALBAHACAS,5801,-32.8883700,-64.8430610
25353,LAS AROMAS,TULUMBA,,5231,,
16310,LAS ARRIAS,TULUMBA,LAS ARRIAS,5231,-30.3768241,-63.5935928
23906,LAS ASTILLAS,TOTORAL,,5220,,
16206,LAS AVERIAS,RIO PRIMERO,,5135,-31.0839277,-63.0677206
22703,LAS BAJADAS,CALAMUCHITA,LAS BAJADAS,5851,-32.0989936,-64.3351237
25279,LAS BANDURRIAS,TOTORAL,,5236,-30.6977757,-64.0597899
22832,LAS BANDURRIAS NORTE,RIO PRIMERO,,5225,-30.8119308,-63.6940957
22839,LAS CABRAS,RIO PRIMERO,,5127,,
22481,LAS CALECITAS,RIO CUARTO,,5801,,
22705,LAS CALERAS,CALAMUCHITA,LAS CALERAS,5819,-32.3916025,-64.5234940
24322,LAS CALLES,SAN ALBERTO,LAS CALLES,5885,-31.8307534,-64.9738055
24551,LAS CAÑADAS,CRUZ DEL EJE,LAS CAÑADAS,5284,-30.9339953,-64.7178442
24607,LAS CAÑADAS,SAN JAVIER,,5870,,
25065,LAS CAÑAS,ISCHILIN,,5201,,
25354,LAS CAÑAS,TULUMBA,,5216,,
23272,LAS CAÑAS,RIO SECO,,5246,,
24829,LAS CAÑITAS,SAN JUSTO,,2428,-31.3075931,-62.9235913
22488,LAS CAÑITAS,RIO CUARTO,,5801,-32.8739330,-64.7488366
25067,LAS CANTERAS,ISCHILIN,,5218,-30.4838572,-64.3062720
23276,LAS CARDAS,RIO SECO,,5248,,
25640,LAS CASITAS,PUNILLA,,5158,,
24323,LAS CEBOLLAS,SAN ALBERTO,,5885,,
25068,LAS CHACRAS,ISCHILIN,,5214,-30.2882569,-64.3798338
23279,LAS CHACRAS,RIO SECO,,5249,,
25671,LAS CHACRAS,POCHO,,5297,-31.3643968,-64.9756961
16242,LAS CHACRAS,SAN JAVIER,LA PAZ,5875,-32.2423580,-65.0321180
24108,LAS CHACRAS RUTA 111 KM 14,COLON,,5101,,
22492,LAS CINCO ESQUINAS,RIO CUARTO,,5841,-32.8661473,-64.2745767
24325,LAS CONANITAS,SAN ALBERTO,,5885,,
23282,LAS CORTADERAS,RIO SECO,,5249,,
25532,LAS CORTADERAS,MINAS,,5293,,
25071,LAS CRUCECITAS,ISCHILIN,,5201,,
24875,LAS CUATRO ESQUINAS,GENERAL SAN MARTIN,,5900,-32.3564467,-63.2319639
24830,LAS DELICIAS,SAN JUSTO,,2433,-31.5695136,-62.8830605
25074,LAS DELICIAS,ISCHILIN,,5212,,
24609,LAS ENCRUCIJADAS,SAN JAVIER,,5871,-31.9532023,-65.2447934
24329,LAS ENSENADAS,SAN ALBERTO,,5153,,
22493,LAS ENSENADAS,RIO CUARTO,,5825,-33.3466713,-64.4233601
23286,LAS FLORES,RIO SECO,,5249,,
22496,LAS GAMAS,RIO CUARTO,,5819,-32.4800417,-64.1159596
25641,LAS GEMELAS,PUNILLA,,5184,,
22855,LAS GRAMILLAS,RIO PRIMERO,LAS GRAMILLAS,5135,-31.1328069,-63.2281338
23289,LAS GRAMILLAS,RIO SECO,,5246,,
22501,LAS GUINDAS,RIO CUARTO,,5801,,
22862,LAS HERAS,RIO PRIMERO,,5101,-31.5346712,-63.8943601
16189,LAS HIGUERAS,RIO CUARTO,LAS HIGUERAS,5805,-33.0918350,-64.2882767
22869,LAS HIGUERILLAS,RIO PRIMERO,,5131,,
24976,LAS HIGUERITAS,SANTA MARIA,,5186,,
22874,LAS HILERAS,RIO PRIMERO,,5137,,
28445,LAS ISLETILLAS,TERCERO ARRIBA,LAS ISLETILLAS,5931,-32.5099400,-63.9288240
28348,LAS JARILLAS,PUNILLA,SAN ANTONIO DE ARREDONDO,5165,-31.5349650,-64.5487440
27671,LAS JARILLAS,POCHO,,5871,-31.6477268,-65.6707338
25357,LAS JUNTAS,TULUMBA,,5203,-30.3077638,-64.0608964
16223,LAS JUNTURAS,RIO SEGUNDO,LAS JUNTURAS,5965,-31.8307953,-63.4481888
25467,LAS LAGUNITAS,UNION,,2568,-32.7264007,-62.9277167
25076,LAS LOMITAS,ISCHILIN,,5212,,
25079,LAS MANZANAS,ISCHILIN,,5212,-30.6983146,-64.1904293
25359,LAS MASITAS,TULUMBA,,5231,-30.2913812,-63.6249751
23292,LAS MERCEDES,RIO SECO,,5249,,
24876,LAS MOJARRAS,GENERAL SAN MARTIN,,5909,-32.3045142,-63.2328340
22505,LAS MORAS,RIO CUARTO,,5801,,
25675,LAS OSCURAS,POCHO,,5871,-31.6386292,-65.3166434
25469,LAS OVERIAS,UNION,,2559,,
25082,LAS PALMAS,ISCHILIN,,5201,-30.3957189,-64.8833042
25677,LAS PALMAS,POCHO,LAS PALMAS,5299,-31.3750455,-65.3172739
25470,LAS PALMERAS,UNION,,2559,-32.1585424,-62.5279977
25084,LAS PALMITAS,ISCHILIN,,5221,,
22883,LAS PALMITAS,RIO PRIMERO,,5227,-30.8375508,-63.5111403
24332,LAS PALMITAS,SAN ALBERTO,,5889,,
24610,LAS PALOMAS,SAN JAVIER,,5870,,
25086,LAS PALOMITAS,ISCHILIN,,5201,,
25642,LAS PAMPILLAS,PUNILLA,,5182,,
16306,LAS PEÑAS,TOTORAL,LAS PEÑAS,5238,-30.5646152,-63.9975357
22510,LAS PEÑAS,RIO CUARTO,,5817,-32.4810440,-64.2887533
22516,LAS PEÑAS SUD,RIO CUARTO,LAS PEÑAS SUD,5819,-32.5337878,-64.1076939
25088,LAS PENCAS,ISCHILIN,,5200,,
16298,LAS PERDICES,TERCERO ARRIBA,LAS PERDICES,5921,-32.6999207,-63.7062073
25090,LAS PIEDRAS ANCHAS,ISCHILIN,,5212,,
22887,LAS PIGUAS,RIO PRIMERO,,5129,,
25643,LAS PLAYAS,PUNILLA,,5172,,
24554,LAS PLAYAS,CRUZ DEL EJE,LAS PLAYAS,5285,-30.7094861,-64.8447089
24978,LAS PLAYAS LOZADA,SANTA MARIA,,5101,-31.6744595,-64.1617320
24334,LAS RABONAS,SAN ALBERTO,LAS RABONAS,5885,-31.8576616,-64.9760325
25679,LAS ROSAS,POCHO,,5295,,
28452,LAS SALADAS,RIO PRIMERO,LAS SALADAS,5137,-30.7598550,-63.2049310
25091,LAS SIERRAS,ISCHILIN,,5212,,
22709,LAS SIERRITAS,CALAMUCHITA,,5199,-32.1443764,-64.4384863
24556,LAS TAPIAS,CRUZ DEL EJE,,5281,-30.7535432,-65.0997456
22528,LAS TAPIAS,RIO CUARTO,,5801,-32.8142334,-64.7341872
16243,LAS TAPIAS,SAN JAVIER,LAS TAPIAS,5885,-31.9529545,-65.0991058
25093,LAS TOSCAS,ISCHILIN,,5214,,
24337,LAS TOSCAS,SAN ALBERTO,,5871,-31.8554521,-65.4927543
24559,LAS TOTORITAS,CRUZ DEL EJE,,5285,,
23295,LAS TRANCAS,RIO SECO,,5246,,
24613,LAS TRES PIEDRAS,SAN JAVIER,,5879,,
25095,LAS TUSCAS,ISCHILIN,,5218,-30.1928139,-64.8947443
25644,LAS VAQUERIAS,PUNILLA,,5184,,
16414,LAS VARAS,SAN JUSTO,LAS VARAS,5941,-31.8035221,-62.6158066
16406,LAS VARILLAS,SAN JUSTO,LAS VARILLAS,5940,-31.8716373,-62.7176018
16190,LAS VERTIENTES,RIO CUARTO,LAS VERTIENTES,5839,-33.2815056,-64.5785522
28372,LAS VERTIENTES DE LA GRANJA,COLON,LA GRANJA,5107,-31.0379400,-64.2794020
24778,LECUEDER,GENERAL ROCA,,6273,-34.4984836,-64.8107319
28440,LEGUIZAMON,PRESIDENTE ROQUE SAENZ PEÑA,LEGUIZAMON,6128,-34.2033480,-62.9775030
16139,LEONES,MARCOS JUAREZ,LEONES,2594,-32.6580505,-62.3013191
23298,LO MACHADO,RIO SECO,,5246,,
25097,LOBERA,ISCHILIN,,5201,,
25133,LOMA BLANCA,SOBREMONTE,,5209,-29.5764703,-64.3031017
24614,LOMA BOLA,SAN JAVIER,,5879,-32.2194045,-65.0280675
25362,LOMA DE PIEDRA,TULUMBA,,5244,-30.3916418,-63.6568405
22890,LOMAS DEL TROZO,RIO PRIMERO,,5137,-30.7770640,-63.0161614
24615,LOMITAS,SAN JAVIER,,5875,,
25364,LOS ALAMOS,TULUMBA,,5244,-30.4261960,-63.8040168
24781,LOS ALFALFARES,GENERAL ROCA,,6275,-34.8117120,-64.7173031
24831,LOS ALGARROBITOS,SAN JUSTO,,2432,,
22894,LOS ALGARROBITOS,RIO PRIMERO,,5225,,
24560,LOS ALGARROBITOS,CRUZ DEL EJE,CRUZ DEL EJE,5281,-30.5666760,-64.9482110
24980,LOS ALGARROBOS,SANTA MARIA,,5189,,
24893,LOS ALGARROBOS,ISCHILIN,MANZANAS,5221,-30.7212340,-64.2880060
24339,LOS ALGARROBOS,SAN ALBERTO,,5887,-31.8014448,-64.9360964
22899,LOS ALVAREZ,RIO PRIMERO,,5133,-31.2194883,-63.4814809
22904,LOS AVILES,RIO PRIMERO,,5137,,
25537,LOS BARRIALES,MINAS,,5291,-31.1747291,-65.0565323
25100,LOS BRINZES,ISCHILIN,,5201,,
25102,LOS CADILLOS,ISCHILIN,,5214,-30.1014990,-64.4528389
23299,LOS CAJONES,RIO SECO,,5246,,
24342,LOS CALLEJONES,SAN ALBERTO,,5871,-31.9275210,-65.2376496
22908,LOS CASTAÑOS,RIO PRIMERO,,5137,-30.7608971,-63.0982035
32327,LOS CEDROS,SANTA MARIA,LOS CEDROS,5101,-31.5265780,-64.2845900
25105,LOS CEJAS,ISCHILIN,,5201,,
24982,LOS CERRILLOS,SANTA MARIA,,5101,,
25140,LOS CERRILLOS,SOBREMONTE,,5209,-29.7351646,-63.7783045
23300,LOS CERRILLOS,RIO SECO,,5246,,
16244,LOS CERRILLOS,SAN JAVIER,LOS CERRILLOS,5871,-31.9730758,-65.4434761
22913,LOS CERROS,RIO PRIMERO,,5137,,
22738,LOS CERROS NEGROS,CALAMUCHITA,RIO DE LOS SAUCES,5821,-32.4405670,-64.7979270
22914,LOS CHAÑARES,RIO PRIMERO,,5133,,
25108,LOS CHAÑARES,ISCHILIN,,5212,,
24156,LOS CHAÑARES,COLON,,5220,-31.0068936,-64.0478733
24616,LOS CHAÑARES,SAN JAVIER,,5873,,
32319,LOS CHAÑARITOS,RIO SEGUNDO,LOS CHAÑARITOS,5125,-31.4016560,-63.3330110
24564,LOS CHAÑARITOS,CRUZ DEL EJE,LOS CHAÑARITOS,5281,-30.5573595,-64.9535358
24617,LOS CHAÑARITOS,SAN JAVIER,,5873,,
24160,LOS CIGARRALES,COLON,,5107,-31.2541988,-64.3003411
28447,LOS CISNES,JUAREZ CELMAN,LOS CISNES,2684,-33.4035980,-63.4721780
16166,LOS COCOS,PUNILLA,LOS COCOS,5182,-30.9258194,-64.4990228
23311,LOS COCOS,RIO SECO,,5246,,
22888,LOS COCOS,CALAMUCHITA,,5821,-30.9246180,-64.5044680
25280,LOS COMETIERRA,TOTORAL,,5221,-30.8791061,-63.9154997
16039,LOS CONDORES,CALAMUCHITA,LOS CONDORES,5823,-32.3202171,-64.2782745
25112,LOS COQUITOS,ISCHILIN,,5201,,
24832,LOS DESAGUES,SAN JUSTO,,2421,,
25682,LOS DOS POZOS,POCHO,,5871,-31.2641827,-65.5620799
24240,LOS DOS RIOS,COLON,,5220,-30.9667693,-64.0798621
24567,LOS ESLABONES,CRUZ DEL EJE,,5270,-30.4746905,-65.2918237
25645,LOS GIGANTES,CRUZ DEL EJE,,5155,-31.4081129,-64.7730898
25646,LOS GUEVARA,PUNILLA,,5282,,
22916,LOS GUINDOS,RIO PRIMERO,,5127,-31.2608440,-63.5302169
25647,LOS HELECHOS,PUNILLA,,5168,,
24588,LOS HORMIGUEROS,CRUZ DEL EJE,,5281,-30.5319018,-64.9850608
16245,LOS HORNILLOS,SAN JAVIER,LOS HORNILLOS,5885,-31.9003448,-64.9880295
23313,LOS HOYOS,RIO SECO,LOS HOYOS,5249,-29.8032079,-63.6270562
24345,LOS HUESOS,SAN ALBERTO,,5153,,
22530,LOS JAGUELES,RIO CUARTO,,5839,-33.5070434,-64.5062795
23314,LOS JUSTES,RIO SECO,,5249,,
24618,LOS MANGUITOS,SAN JAVIER,,5873,,
22919,LOS MANSILLAS,RIO PRIMERO,,5127,,
25685,LOS MEDANITOS,POCHO,,5871,-31.5770201,-65.5316127
22532,LOS MEDANOS,RIO CUARTO,,5815,,
22920,LOS MIGUELITOS,RIO PRIMERO,,5137,,
25116,LOS MIQUILES,ISCHILIN,,5221,,
25281,LOS MISTOLES,TOTORAL,LOS MISTOLES,5229,-30.6256732,-63.8811734
25648,LOS MOGOTES,PUNILLA,,5182,,
16040,LOS MOLINOS,CALAMUCHITA,LOS MOLINOS,5189,-31.8490620,-64.3767114
24619,LOS MOLLES,SAN JAVIER,,5885,-31.9630934,-65.0388441
24347,LOS MOLLES,SAN ALBERTO,,5887,,
25122,LOS MORTEROS,ISCHILIN,,5214,,
24985,LOS OLIVARES,SANTA MARIA,,5101,,
24987,LOS PARAISOS,SANTA MARIA,,5187,,
25649,LOS PAREDONES,PUNILLA,,5282,,
24593,LOS PATAYES,CRUZ DEL EJE,,5284,-30.8808130,-64.8539275
25125,LOS PEDERNALES,ISCHILIN,,5212,,
23316,LOS POCITOS,RIO SECO,,5249,,
25198,LOS POTREROS,TERCERO ARRIBA,,5850,-32.1532876,-64.0407900
25128,LOS POZOS,ISCHILIN,LOS POZOS,5212,-30.5154520,-64.2664450
22922,LOS POZOS,RIO PRIMERO,,5225,,
25365,LOS POZOS,TULUMBA,,5244,-30.3420950,-63.1616008
23356,LOS POZOS,RIO SECO,,5249,,
24620,LOS POZOS,SAN JAVIER,,5870,,
25650,LOS PUENTES,PUNILLA,,5158,,
25130,LOS PUESTITOS,ISCHILIN,,5200,,
24171,LOS QUEBRACHITOS,COLON,,5221,-31.1980882,-64.3611506
23361,LOS QUEBRACHOS,RIO SECO,,5246,,
28422,LOS REARTES,CALAMUCHITA,LOS REARTES,5194,-31.9088960,-64.5748960
24878,LOS REYUNOS,GENERAL SAN MARTIN,,5925,-32.7797682,-63.4223470
25137,LOS RUICES,ISCHILIN,,5201,-30.5580422,-64.3665984
24597,LOS SAUCES,CRUZ DEL EJE,,5282,-30.7338745,-64.6866373
25144,LOS SOCABONES,ISCHILIN,,5214,,
16140,LOS SURGENTES,MARCOS JUAREZ,LOS SURGENTES,2581,-32.9841347,-62.0247154
23366,LOS TAJAMARES,RIO SECO,,5233,,
27678,LOS TALARES,POCHO,LOS TALARES,5299,-31.3771658,-65.0392712
25149,LOS TARTAGOS,ISCHILIN,,5218,-30.5344515,-64.5592443
25651,LOS TERRONES,PUNILLA,,5184,,
22536,LOS TRES POZOS,RIO CUARTO,,5851,-32.4136894,-64.1154691
23369,LOS TRONCOS,RIO SECO,,5246,,
25473,LOS UCLES,UNION,,2559,-32.1072470,-62.6626220
16100,LOS ZORROS,TERCERO ARRIBA,LOS ZORROS,5901,-32.0440140,-63.2018623
16279,LOZADA,SANTA MARIA,LOZADA,5101,-31.6495056,-64.0882492
16101,LUCA,GENERAL SAN MARTIN,LUCA,5917,-32.5429649,-63.4790878
16311,LUCIO V MANSILLA,TULUMBA,LUCIO VICTORIO MANSILLA,5216,-29.8052302,-64.7083060
24833,LUIS SAUZE,SAN JUSTO,,2423,,
16224,LUQUE,RIO SEGUNDO,LUQUE,5967,-31.6483936,-63.3416901
22741,LUTTI,CALAMUCHITA,LUTTI,5859,-32.3183821,-64.7451683
16246,LUYABA,SAN JAVIER,LUYABA,5875,-32.1366752,-65.0632212
25283,MACHA,TOTORAL,,5211,-30.5673867,-64.1388570
24603,MAJADA DE SANTIAGO,CRUZ DEL EJE,,5287,-31.2051474,-64.8742462
25368,MAJADILLA,TULUMBA,,5203,-30.4337674,-64.1842627
25142,MAJADILLA,SOBREMONTE,,5209,-29.6917306,-64.1442317
16280,MALAGUEÑO,SANTA MARIA,MALAGUEÑO,5101,-31.4678688,-64.3622971
16444,MALENA,RIO CUARTO,MALENA,5839,-33.4900665,-64.4353256
25652,MALLIN,PUNILLA,,5155,-31.2978451,-64.5753296
16066,MALVINAS ARGENTINAS,COLON,MALVINAS ARGENTINAS,5125,-31.3731632,-64.0524216
25287,MANANTIALES,JUAREZ CELMAN,,2671,-33.5281437,-63.3133823
25143,MANANTIALES,SOBREMONTE,,5209,-29.8737523,-63.8885245
24605,MANDALA,CRUZ DEL EJE,,5284,-30.9161907,-65.0565490
16225,MANFREDI,RIO SEGUNDO,MANFREDI,5988,-31.8439960,-63.7457619
24621,MANGUITAS,SAN JAVIER,,5873,,
22926,MAQUINISTA GALLINI,RIO PRIMERO,MAQUINISTA GALLINI,5227,-30.9064810,-63.5304281
16141,MARCOS JUAREZ,MARCOS JUAREZ,MARCOS JUAREZ,2580,-32.6990547,-62.1063919
16413,MARULL,SAN JUSTO,MARULL,5139,-30.9948769,-62.8264923
16226,MATORRALES,RIO SEGUNDO,MATORRALES,5965,-31.7155740,-63.5105632
16086,MATTALDI,GENERAL ROCA,MATTALDI,6271,-34.5026283,-64.1561432
24834,MAUNIER,SAN JUSTO,,2421,,
16424,MAYU SUMAJ,PUNILLA,MAYU SUMAJ,5153,-31.4668646,-64.5427635
24174,MEDIA LUNA,COLON,,5125,-31.1891504,-63.8951990
24608,MEDIA NARANJA,CRUZ DEL EJE,MEDIA NARANJA,5281,-30.6237059,-64.9510067
24786,MELIDEO,GENERAL ROCA,,6270,-34.9327949,-64.3141326
16150,MELO,PRESIDENTE ROQUE SAENZ PEÑA,MELO,6123,-34.3497200,-63.4456291
16067,MENDIOLAZA,COLON,MENDIOLAZA,5107,-31.2665291,-64.3023834
24611,MESA DE MARIANO,CRUZ DEL EJE,,5285,-31.0809770,-65.0869009
24349,MESILLAS,SAN ALBERTO,,5153,,
16068,MI GRANJA,COLON,MI GRANJA,5125,-31.3509140,-63.9714165
24989,MI VALLE,SANTA MARIA,,5101,-31.5723962,-64.3337641
25533,MIGUEL SALAS,PRESIDENTE ROQUE SAENZ PEÑA,,6128,-34.1863611,-63.0750242
22928,MIGUELITO,RIO PRIMERO,,5225,,
24351,MINA ARAUJO,SAN ALBERTO,,5297,,
16233,MINA CLAVERO,SAN ALBERTO,MINA CLAVERO,5889,-31.7285962,-64.9998297
25152,MIQUILOS,ISCHILIN,,5221,,
25488,MIRAMAR,SAN JUSTO,MIRAMAR,5143,-30.9145412,-62.6737862
24788,MODESTINO PIZARRO,GENERAL ROCA,,6273,-34.1080548,-65.0713405
25687,MOGIGASTA,POCHO,,5891,-31.5619237,-65.2392713
25544,MOGOTE VERDE,CRUZ DEL EJE,,5291,-31.3968998,-64.7797083
25653,MOLINARI,PUNILLA,,5166,-31.1978092,-64.4797092
25154,MOLINOS,ISCHILIN,,5212,,
22743,MONSALVO,CALAMUCHITA,,5851,-32.1256888,-64.3603577
16142,MONTE BUEY,MARCOS JUAREZ,MONTE BUEY,2589,-32.9150047,-62.4570122
25475,MONTE CASTILLO,MARCOS JUAREZ,,2563,-32.4551859,-62.3042359
16208,MONTE CRISTO,RIO PRIMERO,MONTE CRISTO,5125,-31.3449383,-63.9456139
16191,MONTE DE LOS GAUCHOS,RIO CUARTO,MONTE DE LOS GAUCHOS,5831,-33.6379000,-63.8910000
24880,MONTE DE LOS LAZOS,GENERAL SAN MARTIN,,5900,-32.2105011,-63.1792029
22929,MONTE DE TORO PUJIO,RIO PRIMERO,,5135,,
25199,MONTE DEL FRAYLE,RIO CUARTO,,5931,-32.6025404,-64.0277888
27677,MONTE DEL ROSARIO,RIO PRIMERO,,5129,-30.9835964,-63.6023469
24835,MONTE GRANDE,SAN JUSTO,,2417,-31.1014144,-62.3892568
24991,MONTE GRANDE RAFAEL GARCIA,SANTA MARIA,,5119,,
22543,MONTE LA INVERNADA,RIO CUARTO,,5801,,
28446,MONTE LEÑA,UNION,MONTE LEÑA,2564,-32.6108500,-62.5899340
16328,MONTE MAIZ,UNION,MONTE MAIZ,2659,-33.2065163,-62.5989532
16281,MONTE RALO,SANTA MARIA,MONTE RALO,5119,-31.9100513,-64.2404175
24836,MONTE REDONDO,SAN JUSTO,,2423,-31.4875278,-62.1615944
24354,MONTE REDONDO,SAN ALBERTO,,5889,,
16329,MORRISON,UNION,MORRISON,2568,-32.5912552,-62.8342590
16409,MORTEROS,SAN JUSTO,MORTEROS,2421,-30.7121029,-62.0055351
24175,MULA MUERTA,TOTORAL,,5221,-30.8994574,-64.0216625
24355,MUSSI,SAN ALBERTO,,5299,-31.4371818,-65.0670377
24790,NAZCA,GENERAL ROCA,,6270,-34.8400399,-64.4867145
24612,NEGRO HUASI,CRUZ DEL EJE,,5280,-30.9151573,-64.7328383
24622,NICHO,SAN JAVIER,,5870,,
16087,NICOLAS BRUZZONE,GENERAL ROCA,NICOLAS BRUZZONE,6271,-34.4382295,-64.3383707
24356,NIDO DEL AGUILA,SAN ALBERTO,,5889,,
24357,NIÑA PAULA,SAN ALBERTO,,5889,,
25546,NINALQUIN,MINAS,,5291,-31.1819750,-65.1751057
24176,NINTES,TOTORAL,,5220,-30.9346612,-63.8156242
16330,NOETINGER,UNION,NOETINGER,2563,-32.3649292,-62.3112259
16234,NONO,SAN ALBERTO,NONO,5887,-31.7969112,-65.0025787
24177,ÑU PORA,COLON,,5111,-31.1824923,-64.3156146
22930,NUEVA ANDALUCIA,RIO PRIMERO,,5101,-31.2026981,-63.7408505
24676,NUEVA ESPERANZA,CRUZ DEL EJE,,5280,,
24178,NUÑEZ DEL PRADO,COLON,,5131,-31.1661337,-63.9574926
16209,OBISPO TREJO,RIO PRIMERO,OBISPO TREJO,5225,-30.7809982,-63.4123535
24993,OBREGON,SANTA MARIA,,5189,,
24179,OJO DE AGUA,COLON,,5220,,
25548,OJO DE AGUA,MINAS,,5293,-31.2162781,-65.2448361
24359,OJO DE AGUA,SAN ALBERTO,,5887,-31.7954285,-65.0674374
25540,OJO DE AGUA DE TOTOX,MINAS,,5293,-31.2017488,-65.1468203
16121,OLAETA,JUAREZ CELMAN,OLAETA,5807,-33.0432320,-63.9072762
16299,OLIVA,TERCERO ARRIBA,OLIVA,5980,-32.0424576,-63.5687599
24719,OLIVARES SAN NICOLAS,ISCHILIN,OLIVARES DE SAN NICOLAS,5280,-30.6029628,-64.8471821
25290,OLMOS,JUAREZ CELMAN,,2684,-33.5011242,-63.1664141
27637,ONAGOITY,GENERAL ROCA,ONAGOITY,6227,-34.7725554,-63.6721379
16227,ONCATIVO,RIO SEGUNDO,ONCATIVO,5986,-31.9151440,-63.6831818
25158,ONGAMIRA,ISCHILIN,,5184,-30.7700215,-64.4168563
24106,ORATORIO DE PERALTA,RIO SEGUNDO,,5125,-31.4947370,-63.3957436
25160,ORCOSUNI,ISCHILIN,,5214,,
16331,ORDOÑEZ,UNION,ORDOÑEZ,2555,-32.8404732,-62.8666878
24677,ORO GRUESO,CRUZ DEL EJE,,5287,-31.0393396,-64.8327726
24360,PACHANGO,SAN ALBERTO,,5893,-31.5916309,-65.1818828
32306,PACHECO DE MELO,JUAREZ CELMAN,PACHECO DE MELO,6121,-33.7589480,-63.4905190
24180,PAJAS BLANCAS,COLON,,5111,-31.2161566,-64.2767244
24678,PALO CORTADO,ISCHILIN,,5280,,
24679,PALO LABRADO,CRUZ DEL EJE,,5281,,
24680,PALO PARADO,CRUZ DEL EJE,,5281,-30.6276836,-64.9508438
24681,PALO QUEMADO,CRUZ DEL EJE,LA HIGUERA,5284,-30.9506990,-64.8563440
24682,PALOMA POZO,CRUZ DEL EJE,,5284,-30.8541236,-65.0869565
24362,PAMPA DE ACHALA,SAN ALBERTO,,5153,-31.6138515,-64.9024948
25654,PAMPA DE OLAEN,PUNILLA,,5166,,
16300,PAMPAYASTA NORTE,TERCERO ARRIBA,PAMPAYASTA NORTE,5931,-32.2416458,-63.6425209
16301,PAMPAYASTA SUD,TERCERO ARRIBA,PAMPAYASTA SUD,5931,-32.2507581,-63.6510140
28383,PANAHOLMA,SAN ALBERTO,VILLA CURA BROCHERO,5893,-31.6339530,-65.0543210
16332,PASCANAS,UNION,PASCANAS,2679,-33.1247025,-63.0425949
16102,PASCO,GENERAL SAN MARTIN,PASCO,5925,-32.7474556,-63.3415413
22550,PASO CABRAL,RIO CUARTO,,5817,,
24181,PASO CASTELLANOS,COLON,,5145,-31.2384512,-64.1627056
24838,PASO DE LOS GALLEGOS,SAN JUSTO,,2433,,
24683,PASO DE MONTOYA,CRUZ DEL EJE,,5284,,
24115,PASO DE VELEZ,RIO SEGUNDO,,5972,-31.6761556,-64.0118565
22556,PASO DEL DURAZNO,JUAREZ CELMAN,PASO DEL DURAZNO,5803,-33.1712007,-64.0417451
22932,PASO DEL SAUCE,RIO PRIMERO,,5101,-31.4294944,-63.7367202
23371,PASO DEL SILVERIO,RIO SECO,,5246,,
25550,PASO GRANDE,MINAS,,5291,-31.1130700,-65.0825516
24370,PASO LAS TROPAS,SAN ALBERTO,,5887,,
22744,PASO SANDIALITO,CALAMUCHITA,,5819,,
16078,PASO VIEJO,CRUZ DEL EJE,PASO VIEJO,5284,-30.7670920,-65.1939552
24881,PAUNERO,RIO CUARTO,,5738,-33.8774198,-65.0270320
25295,PAVIN,JUAREZ CELMAN,,6121,-33.6565000,-63.7727682
23126,PEDANIA CANDELARIA SUD,RIO SECO,,5233,,
25305,PEDRO E FUNES,JUAREZ CELMAN,,2671,-33.2590281,-63.2924863
22558,PERMANENTES,RIO CUARTO,,5801,,
24684,PICHANAS,CRUZ DEL EJE,,5284,-30.8168889,-65.1588141
24261,PIEDRA BLANCA,CRUZ DEL EJE,,5285,-31.0405959,-65.0082897
22560,PIEDRA BLANCA,RIO CUARTO,,5801,,
24411,PIEDRA BLANCA,SAN ALBERTO,,5887,-31.4188316,-64.9256739
25656,PIEDRA GRANDE,PUNILLA,,5168,-31.0906633,-64.5287920
25657,PIEDRA MOVEDIZA,PUNILLA,,5174,,
24685,PIEDRAS AMONTONADAS,CRUZ DEL EJE,,5284,-30.8710391,-65.1885765
25401,PIEDRAS ANCHAS,MARCOS JUAREZ,,2645,-33.2673964,-62.2420443
24686,PIEDRAS ANCHAS,CRUZ DEL EJE,,5284,-30.7660473,-65.2710677
25551,PIEDRAS ANCHAS,MINAS,,5291,-31.2149385,-65.1410922
25658,PIEDRAS BLANCAS,PUNILLA,,5174,,
25659,PIEDRAS GRANDES,PUNILLA,,5172,-31.0904343,-64.5286572
25552,PIEDRITA BLANCA,MINAS,,5271,-30.8093995,-65.4287538
25689,PIEDRITAS ROSADAS,POCHO,,5295,-31.3448704,-65.3128950
16228,PILAR,RIO SEGUNDO,PILAR,5972,-31.6850338,-63.8733788
25489,PINAS,MINAS,,2572,-31.1749483,-65.5191311
28438,PINCEN,GENERAL ROCA,PINCEN,6271,-34.8383480,-63.9162070
16210,PIQUILLIN,RIO PRIMERO,PIQUILLIN,5125,-31.3010478,-63.7594047
25371,PISCO HUASI,TULUMBA,,5244,-30.3022979,-63.9798506
24839,PLAYA GRANDE,SAN JUSTO,,5139,-30.9115701,-62.7753741
24843,PLAZA BRUNO,SAN JUSTO,,2436,-31.5381590,-63.1830819
22949,PLAZA DE MERCEDES,RIO PRIMERO,PLAZA DE MERCEDES,5137,-30.9803078,-63.2603085
24121,PLAZA MINETTI,RIO SEGUNDO,,5967,-31.6921632,-63.3101831
24126,PLAZA RODRIGUEZ,RIO SEGUNDO,,5987,-31.7385354,-63.6651347
28449,PLAZA SAN FRANCISCO,SAN JUSTO,SAN FRANCISCO,2401,-31.3700530,-62.1002690
24845,PLUJUNTA,SAN JUSTO,,5141,,
23377,POCITO DEL CAMPO,RIO SECO,,5248,,
16411,PORTEÑA,SAN JUSTO,PORTEÑA,2415,-31.0134735,-62.0627327
24995,POTRERO DE FUNES,SANTA MARIA,,5189,,
28457,POTRERO DE GARAY,SANTA MARIA,POTRERO DE GARAY,5189,-31.7862890,-64.5435140
22747,POTRERO DE LUJAN,CALAMUCHITA,SANTA ROSA DE CALAMUCHITA,5191,-32.0401410,-64.4562610
25000,POTRERO DE TUTZER,SANTA MARIA,,5186,,
25285,POZO CONCA,TOTORAL,,5221,,
25286,POZO CORREA,TOTORAL,,5221,,
23383,POZO DE JUANCHO,RIO SECO,,5246,,
22955,POZO DE LA ESQUINA,RIO PRIMERO,,5133,-31.0813295,-63.4662438
22964,POZO DE LA LOMA,RIO PRIMERO,,5125,-31.2879457,-63.2986788
24374,POZO DE LA PAMPA,SAN ALBERTO,,5871,,
23393,POZO DE LAS OLLAS,RIO SECO,,5249,-30.0179688,-63.0523902
24129,POZO DE LAS YEGUAS,RIO SEGUNDO,,5125,-31.3565546,-63.3157897
23397,POZO DE LOS ARBOLES,RIO SECO,,5249,,
22967,POZO DE LOS TRONCOS,RIO PRIMERO,,5137,,
23402,POZO DE MOLINA,RIO SECO,,5249,-29.9519697,-63.0242207
24846,POZO DEL AVESTRUZ,SAN JUSTO,,5947,,
24847,POZO DEL CHAJA,SAN JUSTO,,2433,-31.2242258,-62.6196477
24849,POZO DEL CHAÑAR,SAN JUSTO,,2435,,
24675,POZO DEL CHAÑAR,SAN JAVIER,,5873,-32.0392716,-65.3080987
24623,POZO DEL MOLLE,SAN JAVIER,,5873,,
16229,POZO DEL MOLLE,RIO SEGUNDO,POZO DEL MOLLE,5913,-32.0192642,-62.9201164
22972,POZO DEL MORO,RIO PRIMERO,,5225,-30.8575015,-63.5778366
23406,POZO DEL SIMBOL,RIO SECO,,5249,-29.8523956,-63.0860781
24687,POZO DEL SIMBOL,CRUZ DEL EJE,ALTO DE LOS QUEBRACHOS,5281,-30.5698310,-65.0768800
24182,POZO DEL TIGRE,COLON,,5145,-31.1076492,-64.1814542
25151,POZO DEL TIGRE,SOBREMONTE,,5209,-29.6914523,-63.9408498
22977,POZO LA PIEDRA,RIO PRIMERO,,5135,,
27687,POZO NUEVO,SOBREMONTE,POZO NUEVO,5209,-29.5788748,-64.1031540
25555,POZO SECO,MINAS,,5285,-31.1702178,-65.3697302
25372,POZO SOLO,TULUMBA,,5244,-30.2591691,-63.9794830
22563,PRETOT FREYRE,RIO CUARTO,,6140,,
24824,PRIMAVERA,SAN JUSTO,,5139,,
22564,PUEBLO ALBERDI,RIO CUARTO,,5800,,
25403,PUEBLO CARLOS SAUVERAN,MARCOS JUAREZ,,2581,-32.9739975,-62.2120822
16333,PUEBLO ITALIANO,UNION,PUEBLO ITALIANO,2651,-33.8807678,-62.8401413
22984,PUEBLO PIANELLI,RIO PRIMERO,,5131,,
25478,PUEBLO VIEJO,UNION,,2555,-32.8478860,-62.8326693
27886,PUENTE DEL CURA,SAN ALBERTO,,5891,-31.6795807,-64.9693998
22566,PUENTE LOS MOLLES,RIO CUARTO,,5809,-32.6778452,-64.0629671
24851,PUENTE RIO PLUJUNTA,SAN JUSTO,,5139,,
22568,PUERTA COLORADA,RIO CUARTO,,5817,-32.4722493,-64.2027118
24375,PUERTA DE LA QUEBRADA,SAN ALBERTO,,5297,,
22987,PUESTO DE AFUERA,RIO PRIMERO,,5131,-31.1338528,-63.5186292
25168,PUESTO DE ARRIBA,ISCHILIN,,5214,,
25170,PUESTO DE BATALLA,ISCHILIN,,5218,,
23442,PUESTO DE CASTRO,RIO SECO,PUESTO DE CASTRO,5233,-30.2700392,-63.4249395
25172,PUESTO DE CERRO,ISCHILIN,,5200,,
22990,PUESTO DE FIERRO,RIO PRIMERO,,5227,-30.5539799,-63.4501839
23450,PUESTO DE LOS ALAMOS,RIO SECO,,5249,,
25171,PUESTO DE LOS RODRIGUEZ,ISCHILIN,,5200,,
23455,PUESTO DE LUNA,RIO SECO,,5233,,
22993,PUESTO DE PUCHETA,RIO PRIMERO,,5225,-30.6943897,-63.3834710
25556,PUESTO DE VERA,MINAS,,5271,,
24688,PUESTO DEL GALLO,CRUZ DEL EJE,,5281,-30.6109058,-64.9693847
25173,PUESTO DEL MEDIO,ISCHILIN,,5117,,
25288,PUESTO DEL ROSARIO,TOTORAL,,5236,-30.7867388,-63.9378100
24377,PUESTO GUZMAN,SAN ALBERTO,,5153,,
25289,PUESTO SAN JOSE,TOTORAL,,5242,-30.5183389,-63.8194193
25376,PUESTO VIEJO,TULUMBA,,5244,-30.3422093,-64.0004858
25660,PUNILLA,PUNILLA,,5184,,
23000,PUNTA DEL AGUA,RIO PRIMERO,,5129,-31.0521231,-63.7003101
22570,PUNTA DEL AGUA,RIO CUARTO,,5839,-33.5869266,-64.0968959
25201,PUNTA DEL AGUA,TERCERO ARRIBA,PUNTA DEL AGUA,5931,-32.5764771,-63.8111334
23462,PUNTA DEL MONTE,RIO SECO,,5249,-29.7208844,-63.5818648
24852,QUEBRACHITOS,SAN JUSTO,,2436,,
16374,QUEBRACHO HERRADO,SAN JUSTO,QUEBRACHO HERRADO,2423,-31.5501976,-62.2282639
16248,QUEBRACHO LADEADO,SAN JAVIER,LA PAZ,5875,-32.2572970,-65.0310470
24379,QUEBRACHO SOLO,SAN ALBERTO,,5871,-31.7830763,-65.4937016
23005,QUEBRACHOS,RIO PRIMERO,,5131,,
24624,QUEBRADA DE LOS POZOS,SAN JAVIER,,5885,-31.9081621,-65.0348810
25661,QUEBRADA DE LUNA,PUNILLA,,5282,-30.7966840,-64.5208454
25174,QUEBRADA DE NONA,ISCHILIN,,5184,,
24382,QUEBRADA DEL HORNO,SAN ALBERTO,,5889,,
16110,QUILINO,ISCHILIN,QUILINO,5214,-30.2165546,-64.4955215
24689,QUILMES,CRUZ DEL EJE,,5270,,
25291,QUISCASACATE,TOTORAL,,5221,,
23469,RACEDO,RIO SECO,,5249,,
16282,RAFAEL GARCIA,SANTA MARIA,RAFAEL GARCIA,5119,-31.6469707,-64.2608871
23010,RAMALLO,RIO PRIMERO,,5225,,
24691,RAMBLON,CRUZ DEL EJE,,5284,,
25557,RAMIREZ,MINAS,,5289,,
24882,RAMON J CARCANO,UNION,,5900,-32.4924173,-63.1019142
23015,RANGEL,RIO PRIMERO,,5131,-31.1211103,-63.7802458
24793,RANQUELES,GENERAL ROCA,RANQUELES,6271,-34.8428987,-64.0999804
25558,RARA FORTUNA,MINAS,,5287,-30.9734489,-65.2267284
23474,RAYO CORTADO,RIO SECO,RAYO CORTADO,5246,-30.0716171,-63.8270988
16122,REDUCCION,JUAREZ CELMAN,REDUCCION,5803,-33.2014556,-63.8622207
24693,REPRESA DE MORALES,CRUZ DEL EJE,,5285,-30.9427449,-64.9941949
28421,RINCON,RIO SEGUNDO,RINCON,5961,-31.5960750,-63.6173020
22751,RINCON DE LUNA,CALAMUCHITA,,5197,,
24385,RIO ARRIBA,SAN ALBERTO,,5887,,
16151,RIO BAMBA,PRESIDENTE ROQUE SAENZ PEÑA,RIOBAMBA,6134,-34.0510292,-63.7310410
16069,RIO CEBALLOS,COLON,RIO CEBALLOS,5111,-31.1653328,-64.3169250
24184,RIO CHICO,COLON,,5221,-31.2729740,-64.0250154
26317,RIO CUARTO,RIO CUARTO,RIO CUARTO,5800,-33.1322937,-64.3536682
24625,RIO DE JAIME,SAN JAVIER,,5875,,
24694,RIO DE LA POBLACION,CRUZ DEL EJE,LA HIGUERA,5280,-30.9436030,-64.8160730
25175,RIO DE LAS MANZANAS,ISCHILIN,,5212,,
25293,RIO DE LOS SAUCES,TOTORAL,,5221,,
16041,RIO DE LOS SAUCES,CALAMUCHITA,RIO DE LOS SAUCES,5821,-32.5268631,-64.5857315
25214,RIO DE LOS TALAS,ISCHILIN,,5221,,
22755,RIO DEL DURAZNO,CALAMUCHITA,,5197,-32.1716033,-64.7704619
23481,RIO DULCE,RIO SECO,,5249,,
25662,RIO GRANDE,PUNILLA,,5172,,
25697,RIO HONDO,POCHO,,5297,-31.3227492,-64.9804999
24626,RIO HONDO,SAN JAVIER,,5875,,
27885,RIO HONDO,SAN ALBERTO,,5891,-31.6855927,-64.9529513
25001,RIO LOS MOLINOS,SANTA MARIA,,5189,,
23484,RIO PEDRO,RIO SECO,,5246,,
25215,RIO PINTO,ISCHILIN,,5221,,
16211,RIO PRIMERO,RIO PRIMERO,RIO PRIMERO,5127,-31.3325233,-63.6187630
23494,RIO SAN MIGUEL,RIO SECO,,5249,,
24695,RIO SECO,CRUZ DEL EJE,,5284,-30.8745219,-65.2109134
22571,RIO SECO,RIO CUARTO,,5801,-32.8250315,-64.5638590
16230,RIO SEGUNDO,RIO SEGUNDO,RIO SEGUNDO,5960,-31.6492596,-63.9131889
16302,RIO TERCERO,TERCERO ARRIBA,RIO TERCERO,5850,-32.1731758,-64.1158829
23500,RIO VIEJO,RIO SECO,,5249,,
25156,RODEITO,SOBREMONTE,,5209,-29.7850757,-64.1361710
22906,RODEO DE LOS CABALLOS,CALAMUCHITA,,5821,-32.4780729,-64.8005778
24627,RODEO DE PIEDRA,SAN JAVIER,,5875,-31.9864936,-65.0024014
22762,RODEO LAS YEGUAS,CALAMUCHITA,,5821,,
22573,RODEO VIEJO,RIO CUARTO,,5801,-32.9327708,-64.7065745
16152,ROSALES,PRESIDENTE ROQUE SAENZ PEÑA,ROSALES,6128,-34.1736984,-63.1527710
25535,RUIZ DIAZ DE GUZMAN,PRESIDENTE ROQUE SAENZ PEÑA,,6120,-33.8752655,-63.4639110
25560,RUMIACO,MINAS,,5289,-30.9052734,-65.2662208
25562,RUMIHUASI,MINAS,,5285,-31.0422353,-65.2209188
16410,SACANTA,SAN JUSTO,SACANTA,5945,-31.6628323,-63.0412025
25698,SAGRADA FAMILIA,POCHO,,5297,-31.3596376,-65.0230037
24628,SAGRADA FAMILIA,SAN JAVIER,,5875,,
16143,SAIRA,MARCOS JUAREZ,SAIRA,2525,-32.4090042,-62.1023979
25216,SAJON,ISCHILIN,,5200,,
16144,SALADILLO,MARCOS JUAREZ,SALADILLO,2587,-32.9324638,-62.3441413
16051,SALDAN,COLON,SALDAN,5149,-31.2969627,-64.3041153
25536,SALGUERO,PRESIDENTE ROQUE SAENZ PEÑA,,6120,-34.2379036,-63.4220583
16146,SALSACATE,POCHO,SALSACATE,5295,-31.3175519,-65.0902193
16070,SALSIPUEDES,COLON,SALSIPUEDES,5113,-31.1385068,-64.2950291
24629,SALTO,SAN JAVIER,,5873,-32.1977791,-65.2246366
16193,SAMPACHO,RIO CUARTO,SAMPACHO,5829,-33.3846474,-64.7156372
16042,SAN AGUSTIN,CALAMUCHITA,SAN AGUSTIN,5191,-31.9757862,-64.3744736
22574,SAN AMBROSIO,RIO CUARTO,,5848,-33.2386867,-64.1436952
25003,SAN ANTONIO,SANTA MARIA,,5121,,
24696,SAN ANTONIO,CRUZ DEL EJE,,5281,-30.3890063,-65.0889742
24631,SAN ANTONIO,SAN JAVIER,,5870,,
16167,SAN ANTONIO DE ARREDONDO,PUNILLA,SAN ANTONIO DE ARREDONDO,5153,-31.4763985,-64.5297089
25294,SAN ANTONIO DE BELLA VISTA,TOTORAL,,5236,,
16334,SAN ANTONIO DE LITIN,UNION,SAN ANTONIO DE LITIN,2559,-32.2151604,-62.6324081
24883,SAN ANTONIO DE YUCAT,GENERAL SAN MARTIN,,5936,-32.3126058,-63.5017110
25007,SAN ANTONIO NORTE,SANTA MARIA,,5119,-31.7611110,-64.2100557
23503,SAN BARTOLO,RIO SECO,,5249,,
22576,SAN BARTOLOME,RIO CUARTO,,5801,-32.7614345,-64.7428679
16194,SAN BASILIO,RIO CUARTO,SAN BASILIO,5841,-33.4954300,-64.3148422
25217,SAN BERNARDO,ISCHILIN,,5201,-30.5199137,-64.4336951
22578,SAN BERNARDO,RIO CUARTO,,5848,-33.1957933,-64.1690460
25663,SAN BUENAVENTURA,PUNILLA,,5164,,
25218,SAN CARLOS,ISCHILIN,,5212,,
16145,SAN CARLOS MINAS,MINAS,SAN CARLOS MINAS,5291,-31.1755904,-65.1017054
16283,SAN CLEMENTE,SANTA MARIA,SAN CLEMENTE,5187,-31.7191868,-64.6324997
16168,SAN ESTEBAN,PUNILLA,SAN ESTEBAN,5182,-30.9237348,-64.5261519
25768,SAN EUSEBIO,UNION,,2561,-32.2374998,-62.4868994
16405,SAN FRANCISCO,SAN JUSTO,SAN FRANCISCO,2400,-31.4320412,-62.0831833
16291,SAN FRANCISCO DEL CHAÑAR,SOBREMONTE,SAN FRANCISCO DEL CHAÑAR,5209,-29.7876759,-63.9433708
25380,SAN GERONIMO,POCHO,SAN GERONIMO,5297,-31.3446581,-64.9191157
28346,SAN HUBERTO,SAN ALBERTO,NONO,5878,-31.8384690,-64.9960830
25664,SAN IGNACIO,PUNILLA,,5182,,
22765,SAN IGNACIO,CALAMUCHITA,SAN IGNACIO,5199,-32.1786942,-64.5151775
23513,SAN IGNACIO,RIO SECO,,5248,-29.8825552,-63.4836618
24697,SAN ISIDRO,CRUZ DEL EJE,,5281,-30.6021726,-64.9406405
24634,SAN ISIDRO,SAN JAVIER,,5875,-32.1468367,-65.1056864
28349,SAN J DE LAS SALINAS,TULUMBA,VILLA TULUMBA,5216,-30.0072440,-64.6246570
24635,SAN JAVIER,SAN JAVIER,SAN JAVIER Y YACANTO,5875,-32.0222216,-65.0298376
32308,SAN JOAQUIN,PRESIDENTE ROQUE SAENZ PEÑA,SAN JOAQUIN,6123,-34.5118530,-63.7134290
25296,SAN JORGE,TOTORAL,,5117,-30.8866144,-64.3321070
25480,SAN JOSE,UNION,,2563,-32.7468052,-63.0565086
25665,SAN JOSE,PUNILLA,,5166,-31.2584264,-64.5449078
25297,SAN JOSE,TOTORAL,,5242,,
24698,SAN JOSE,CRUZ DEL EJE,,5281,,
16249,SAN JOSE,SAN JAVIER,SAN JOSE,5871,-31.9571038,-65.3143960
24150,SAN JOSE,RIO SEGUNDO,,5961,-31.6108426,-63.7729045
16312,SAN JOSE DE LA DORMIDA,TULUMBA,SAN JOSE DE LA DORMIDA,5244,-30.3543949,-63.9456978
25406,SAN JOSE DEL SALTEÑO,MARCOS JUAREZ,,2563,-32.2772925,-62.2748316
23516,SAN JUANCITO,RIO SECO,,5249,,
25298,SAN LORENZO,TOTORAL,,5221,-30.8777567,-64.1988596
28390,SAN LORENZO,SAN ALBERTO,VILLA CURA BROCHERO,5893,-31.6699040,-65.0204980
22580,SAN LUCAS NORTE,RIO CUARTO,,5837,,
16079,SAN MARCOS SIERRAS,CRUZ DEL EJE,SAN MARCOS SIERRAS,5282,-30.7803421,-64.6468515
16335,SAN MARCOS SUD,UNION,SAN MARCOS SUD,2566,-32.6303276,-62.4819713
23522,SAN MARTIN,RIO SECO,,5249,,
25481,SAN MELITON,UNION,,2664,-33.5521718,-62.7342128
25299,SAN MIGUEL,TOTORAL,,5117,,
25219,SAN MIGUEL,ISCHILIN,,5212,-30.3484139,-64.4798895
24649,SAN MIGUEL SAN VICENTE,SAN JAVIER,,5871,,
25220,SAN NICOLAS,ISCHILIN,,5281,,
24655,SAN NICOLAS,SAN JAVIER,,5871,,
23527,SAN PEDRO,RIO SECO,,5249,-29.6971734,-63.5593963
16236,SAN PEDRO,SAN ALBERTO,SAN PEDRO,5871,-31.9366389,-65.2221158
25221,SAN PEDRO DE TOYOS,ISCHILIN,,5201,-30.4539247,-64.4456470
16314,SAN PEDRO NORTE,TULUMBA,SAN PEDRO NORTE,5205,-30.0886288,-64.1539078
25300,SAN PELLEGRINO,TOTORAL,,5221,-30.8151171,-64.2976331
24872,SAN RAFAEL,SAN JUSTO,,5139,,
24388,SAN RAFAEL,SAN ALBERTO,,5871,-31.8371712,-65.5444954
24154,SAN RAFAEL,RIO SEGUNDO,,5960,,
23021,SAN RAMON,RIO PRIMERO,,5137,,
23529,SAN RAMON,RIO SECO,,5249,,
25666,SAN ROQUE,PUNILLA,SAN ROQUE,5149,-31.3523354,-64.4501819
22768,SAN ROQUE,CALAMUCHITA,,5199,-32.2178759,-64.6721518
24660,SAN ROQUE,SAN JAVIER,,5870,,
25384,SAN ROQUE LAS ARRIAS,TULUMBA,,5231,-30.4625080,-63.5580538
23027,SAN SALVADOR,RIO PRIMERO,,5227,,
25667,SAN SALVADOR,PUNILLA,,5282,,
24391,SAN SEBASTIAN,SAN ALBERTO,,5889,-31.9201195,-65.2235972
28345,SAN SEVERO,UNION,CANALS,2650,-33.5392868,-63.0451649
25222,SAN VICENTE,ISCHILIN,,5200,,
24392,SAN VICENTE,SAN ALBERTO,SAN VICENTE,5871,-31.8534707,-65.4304963
24884,SANABRIA,GENERAL SAN MARTIN,,5901,-32.5296927,-63.2503536
25162,SANTA ANA,SOBREMONTE,,5209,-29.8443201,-63.8317559
24699,SANTA ANA,CRUZ DEL EJE,,5284,-30.8005263,-65.1925279
25764,SANTA CATALINA,TOTORAL,,5221,-30.8738902,-64.2333132
23535,SANTA CATALINA,RIO SECO,,5248,-29.9000708,-63.5258625
16195,SANTA CATALINA,RIO CUARTO,SANTA CATALINA,5825,-33.2067000,-64.4335000
25769,SANTA CECILIA,UNION,,2561,-32.3314292,-62.5163949
25539,SANTA CLARA,PRESIDENTE ROQUE SAENZ PEÑA,,6123,-34.3354961,-63.7265906
25541,SANTA CRISTINA,PRESIDENTE ROQUE SAENZ PEÑA,,6134,-33.8699364,-63.6952459
25385,SANTA CRUZ,TULUMBA,,5201,-30.2530671,-64.1734887
24196,SANTA ELENA,COLON,,5131,-31.2595010,-64.0753449
23542,SANTA ELENA,RIO SECO,SANTA ELENA,5246,-30.1183945,-63.8449544
16123,SANTA EUFEMIA,JUAREZ CELMAN,SANTA EUFEMIA,2671,-33.1791267,-63.2849045
23546,SANTA ISABEL,RIO SECO,,5249,-29.7771021,-63.4554198
25673,SANTA ISABEL,PUNILLA,,5282,-30.8382335,-64.5367385
25301,SANTA LUCIA,TOTORAL,,5229,,
24766,SANTA MAGDALENA,GENERAL ROCA,,6127,-34.4992760,-63.9319825
25302,SANTA MARIA,TOTORAL,,5236,-30.7382653,-63.9748904
24416,SANTA MARIA,SAN ALBERTO,,5889,-31.9051523,-65.4399429
16169,SANTA MARIA DE PUNILLA,PUNILLA,SANTA MARIA DE PUNILLA,5164,-31.2703320,-64.4653358
25163,SANTA MARIA DE SOBREMONTE,SOBREMONTE,,5209,-29.6832973,-64.1734319
22772,SANTA MONICA,CALAMUCHITA,,5197,-32.0619057,-64.5787162
24873,SANTA RITA,SAN JUSTO,,2413,,
25021,SANTA RITA,SANTA MARIA,,5189,,
25223,SANTA RITA,ISCHILIN,,5200,,
24394,SANTA RITA,SAN ALBERTO,,5893,-31.5182599,-65.1103565
25674,SANTA ROSA,PUNILLA,,5166,-31.5898932,-64.5644287
24885,SANTA ROSA,GENERAL SAN MARTIN,,5909,-32.2840742,-63.0942019
16043,SANTA ROSA DE CALAMUCHITA,CALAMUCHITA,SANTA ROSA DE CALAMUCHITA,5196,-32.0620461,-64.5388336
25676,SANTA ROSA HUERTA GRANDE,PUNILLA,,5174,,
25303,SANTA SABINA,TOTORAL,,5221,,
24198,SANTA TERESA,COLON,,5221,-31.0537998,-63.9757179
24886,SANTA VICTORIA,GENERAL SAN MARTIN,,2675,-33.0544144,-63.2705303
23552,SANTANILLA,RIO SECO,,5248,,
16231,SANTIAGO TEMPLE,RIO SEGUNDO,SANTIAGO TEMPLE,5125,-31.3875898,-63.4183959
25164,SANTO DOMINGO,SOBREMONTE,,5209,-29.6999846,-64.3801328
24396,SANTO DOMINGO,SAN ALBERTO,,5871,,
16423,SARMIENTO,TOTORAL,SARMIENTO,5212,-30.7732906,-64.1083374
16412,SATURNINO M LASPIUR,SAN JUSTO,SATURNINO MARIA LASPIUR,5943,-31.7033634,-62.4832268
25678,SAUCE ARRIBA,PUNILLA,,5182,,
27682,SAUCE ARRIBA,SAN ALBERTO,SAUCE ARRIBA,5871,-31.9086662,-65.1738891
25224,SAUCE CHIQUITO,ISCHILIN,,5200,-30.3483072,-64.4663575
25494,SAUCE DE LOS QUEVEDOS,MINAS,,5297,-31.2403604,-65.0280351
25225,SAUCE PUNCO,ISCHILIN,,5200,,
16215,SEBASTIAN ELCANO,RIO SECO,SEBASTIAN ELCANO,5231,-30.1614463,-63.5934504
16370,SEEBER,SAN JUSTO,SEEBER,2419,-30.9255009,-61.9736748
22782,SEGUNDA USINA,CALAMUCHITA,SEGUNDA USINA,5857,-32.1689084,-64.3779052
16153,SERRANO,PRESIDENTE ROQUE SAENZ PEÑA,SERRANO,6125,-34.4731178,-63.5357742
16080,SERREZUELA,CRUZ DEL EJE,SERREZUELA,5270,-30.6366386,-65.3863754
22786,SIERRA BLANCA,CALAMUCHITA,,5819,,
25572,SIERRA DE ABREGU,MINAS,,5291,,
25574,SIERRA DE LAS PAREDES,MINAS,,5291,,
16095,SILVIO PELLICO,GENERAL SAN MARTIN,SILVIO PELLICO,5907,-32.2506338,-62.9316501
25304,SIMBOLAR,TOTORAL,SIMBOLAR,5242,-30.4766593,-63.9849460
16307,SINSACATE,TOTORAL,SINSACATE,5220,-30.9427357,-64.0908203
34376,SOCAVONES,SANTA MARIA,BOUWER,5119,-31.5289800,-64.1471600
22791,SOCONCHO,CALAMUCHITA,,5191,-32.0561809,-64.3761872
22795,SOLAR LOS MOLINOS,CALAMUCHITA,,5189,-31.8287519,-64.5214389
23031,SOLEDAD,RIO PRIMERO,,5137,,
22582,SORIA,RIO CUARTO,,5829,,
28442,SUCO,RIO CUARTO,SUCO,5837,-33.4395980,-64.8304700
25575,SUNCHAL,MINAS,,5291,-31.0953826,-65.1737694
25680,SUNCHO HUICO,PUNILLA,,5184,,
24664,TABANILLO,SAN JAVIER,,5870,,
24702,TABAQUILLO,CRUZ DEL EJE,,5281,-30.7702589,-64.9304270
23556,TACO POZO,RIO SECO,,5249,,
23559,TAJAMARES,RIO SECO,,5233,,
25496,TALA CAÑADA,POCHO,TALA CAÑADA,5297,-31.3584986,-64.9703714
22797,TALA CRUZ,CALAMUCHITA,,5859,-32.3570019,-64.7003529
28357,TALA HUASI,PUNILLA,TALA HUASI,5153,-31.4721280,-64.5663660
23034,TALA NORTE,RIO PRIMERO,,5131,,
23038,TALA SUD,RIO PRIMERO,,5127,,
25576,TALAINI,MINAS,TALAINI,5291,-31.2455337,-65.1674638
16303,TANCACHA,TERCERO ARRIBA,TANCACHA,5933,-32.2421646,-63.9806824
16172,TANTI,PUNILLA,TANTI,5155,-31.3581644,-64.5868072
25681,TANTI LOMAS,PUNILLA,,5155,,
25683,TANTI NUEVO,PUNILLA,,5155,,
24398,TARUCA PAMPA,SAN ALBERTO,,5299,,
24399,TASMA,SAN ALBERTO,,5893,-31.6296644,-65.1543019
22587,TEGUA,RIO CUARTO,,5813,-32.6383814,-64.2809351
24205,TEJEDA,COLON,,5125,-31.3885897,-63.9835955
23740,TERCER CUERPO DEL EJERCITO,COLON,,5101,,
16103,TICINO,GENERAL SAN MARTIN,TICINO,5927,-32.6933632,-63.4350128
22802,TIGRE MUERTO,CALAMUCHITA,VILLA YACANTO,5859,-32.2504200,-64.6829960
24668,TILQUICHO,SAN JAVIER,,5873,,
27925,TIMON CRUZ,RIO PRIMERO,SANTA ROSA DE RIO PRIMERO,5129,-30.9947166,-63.4974944
31666,TINOCO,COLON,TINOCO,5131,-31.1242610,-63.8922130
25306,TINTIZACO,TOTORAL,,5229,-30.7236308,-63.7904421
16104,TIO PUJIO,GENERAL SAN MARTIN,TIO PUJIO,5936,-32.2862358,-63.3521385
25226,TODOS LOS SANTOS,ISCHILIN,,5201,-30.7763839,-64.3014159
16052,TOLEDO,SANTA MARIA,TOLEDO,5123,-31.5533123,-64.0099487
24769,TORDILLA NORTE,SAN JUSTO,,2435,,
23041,TORDILLA NORTE,RIO PRIMERO,,5135,,
25227,TORO MUERTO,ISCHILIN,,5200,,
25497,TORO MUERTO,SAN ALBERTO,,5295,-31.6445016,-64.9907218
32324,TORO PUJIO,SAN JUSTO,TORO PUJIO,5139,-31.1090650,-62.9860320
25580,TOSNO,MINAS,TOSNO,5289,-30.9567381,-65.3022684
16196,TOSQUITA,RIO CUARTO,TOSQUITA,6141,-33.8188248,-64.4569327
25582,TOTORA GUASI,MINAS,,5284,-30.9058195,-65.3631807
23045,TOTORAL,RIO PRIMERO,,5229,,
25389,TOTORALEJOS,TULUMBA,VILLA TULUMBA,5216,-29.6388937,-64.8528686
25584,TOTORITAS,MINAS,,5291,,
16407,TRANSITO,SAN JUSTO,TRANSITO,2436,-31.4247775,-63.1960486
24704,TRES ARBOLES,CRUZ DEL EJE,,5285,-30.9346771,-64.9824862
25498,TRES CHAÑARES,POCHO,,5295,-31.3876610,-65.2039948
25585,TRES ESQUINAS,MINAS,,5291,,
25586,TRES LOMAS,MINAS,,5291,-31.1494244,-65.1800091
24857,TRINCHERA,SAN JUSTO,,5909,-31.9442278,-62.8204007
24218,TRONCO POZO,COLON,,5223,-31.0451339,-64.0875174
16426,TUCLAME,CRUZ DEL EJE,TUCLAME,5284,-30.7460638,-65.2378106
25395,TUSCAL,TULUMBA,,5216,,
16124,UCACHA,JUAREZ CELMAN,UCACHA,2677,-33.0315552,-63.5065918
16044,UNIDAD TURISTICA EMBALSE,CALAMUCHITA,EMBALSE,5857,-32.2065077,-64.4006227
16071,UNQUILLO,COLON,UNQUILLO,5109,-31.2349529,-64.3177795
25684,URITORCO,PUNILLA,,5184,,
22807,USINA NUCLEAR EMBALSE,CALAMUCHITA,EMBALSE,5859,-32.2344940,-64.4437640
24858,VACAS BLANCAS,SAN JUSTO,,5143,,
16286,VALLE ANISACATE,SANTA MARIA,VALLE ANIZACATE,5189,-31.7314777,-64.4129622
24246,VALLE DEL SOL,COLON,,5107,-31.2739938,-64.3076064
16173,VALLE HERMOSO,PUNILLA,VALLE HERMOSO,5168,-31.1112175,-64.4865494
24222,VALLE VERDE,COLON,,5115,-31.0042132,-64.2598008
23564,VANGUARDIA,RIO SECO,,5246,,
16336,VIAMONTE,UNION,VIAMONTE,2671,-33.7470670,-63.0989062
16197,VICUÑA MACKENNA,RIO CUARTO,VICUÑA MACKENNA,6140,-33.9182320,-64.3914566
25686,VILLA AHORA,PUNILLA,,5166,,
25228,VILLA ALBERTINA,ISCHILIN,,5221,-30.6919354,-64.3014143
16072,VILLA ALLENDE,COLON,VILLA ALLENDE,5105,-31.2933136,-64.2898399
22819,VILLA ALPINA,CALAMUCHITA,,5194,-31.9597583,-64.8132181
28281,VILLA AMANCAY,CALAMUCHITA,VILLA AMANCAY,5199,-32.1881290,-64.5702490
24402,VILLA ANGELICA,SAN ALBERTO,,5885,,
16304,VILLA ASCASUBI,TERCERO ARRIBA,VILLA ASCASUBI,5935,-32.1634293,-63.8933411
27669,VILLA BERNA,CALAMUCHITA,,5194,-31.9126840,-64.7277974
25688,VILLA BUSTOS,PUNILLA,,5164,,
25690,VILLA CAEIRO,PUNILLA,,5164,,
23120,VILLA CANDELARIA NORTE,RIO SECO,VILLA CANDELARIA NORTE,5249,-29.8147888,-63.3536191
16174,VILLA CARLOS PAZ,PUNILLA,VILLA CARLOS PAZ,5152,-31.4320049,-64.5072250
25027,VILLA CARLOS PELLEGRINI,SANTA MARIA,,5186,,
16073,VILLA CERRO AZUL,COLON,VILLA CERRO AZUL,5107,-31.0914514,-64.3160158
25229,VILLA CERRO NEGRO,ISCHILIN,,5221,,
32442,VILLA CIUDAD DE AMERICA,SANTA MARIA,VILLA CIUDAD DE AMERICA,5189,-31.7911770,-64.5089310
31706,VILLA CIUDAD PQUE,CALAMUCHITA,VILLA CIUDAD PARQUE LOS REARTE,5189,-31.9075300,-64.5506070
24404,VILLA CLODOMIRA,SAN ALBERTO,,5885,,
25231,VILLA COLIMBA,ISCHILIN,,5201,-30.5656166,-64.4066095
16404,VILLA CONCEPCION DEL TIO,SAN JUSTO,VILLA CONCEPCION DEL TIO,2433,-31.3206921,-62.8128242
23236,VILLA CORAZON DE MARIA,COLON,,5101,-31.4440922,-63.9875887
25703,VILLA CUESTA BLANCA,PUNILLA,,5153,,
16238,VILLA CURA BROCHERO,SAN ALBERTO,VILLA CURA BROCHERO,5891,-31.7071056,-65.0191422
16250,VILLA DE LAS ROSAS,SAN JAVIER,VILLA DE LAS ROSAS,5885,-31.9470159,-65.0522068
16216,VILLA DE MARIA,RIO SECO,VILLA DE MARIA,5248,-29.9056473,-63.7236176
25693,VILLA DE POCHO,POCHO,VILLA DE POCHO,5299,-31.4899993,-65.2805783
16081,VILLA DE SOTO,CRUZ DEL EJE,VILLA DE SOTO,5284,-30.8563786,-65.0028839
16045,VILLA DEL DIQUE,CALAMUCHITA,VILLA DEL DIQUE,5862,-32.1740646,-64.4535980
24224,VILLA DEL LAGO,PUNILLA,,5152,-31.4130268,-64.5050735
28454,VILLA DEL PRADO,SANTA MARIA,VILLA DEL PRADO,5186,-31.6187020,-64.3876000
16232,VILLA DEL ROSARIO,RIO SEGUNDO,VILLA DEL ROSARIO,5963,-31.5598278,-63.5397949
22834,VILLA DEL TALA,CALAMUCHITA,,5859,-32.2552502,-64.5847438
16308,VILLA DEL TOTORAL,TOTORAL,VILLA DEL TOTORAL,5236,-30.7019005,-64.0690308
28347,VILLA DEL TRANSITO,SAN JUSTO,TRANSITO,2437,-31.4477290,-63.1940950
24227,VILLA DIAZ,COLON,,5109,-31.2237691,-64.3256300
16251,VILLA DOLORES,SAN JAVIER,VILLA DOLORES,5870,-31.9462891,-65.1902084
22590,VILLA EL CHACAY,RIO CUARTO,VILLA EL CHACAY,5801,-32.8936614,-64.8648022
16287,VILLA EL DESCANSO,SANTA MARIA,ANISACATE,5189,-31.7250460,-64.4190160
27670,VILLA ELISA,MARCOS JUAREZ,VILLA ELISA,2594,-32.8350987,-62.2949834
28353,VILLA FLOR SERRANA,PUNILLA,TANTI,5163,-31.3934960,-64.5923170
16213,VILLA FONTANA,RIO PRIMERO,VILLA FONTANA,5137,-30.8933372,-63.1172447
16046,VILLA GENERAL BELGRANO,CALAMUCHITA,VILLA GENERAL BELGRANO,5194,-31.9677025,-64.5539211
25308,VILLA GENERAL MITRE,TOTORAL,,5236,,
16175,VILLA GIARDINO,PUNILLA,VILLA GIARDINO,5176,-31.0521986,-64.4969480
25696,VILLA GRACIA,PUNILLA,,5153,,
25234,VILLA GUTIERREZ,ISCHILIN,VILLA GUTIERREZ,5212,-30.6778652,-64.1627580
16089,VILLA HUIDOBRO,GENERAL ROCA,VILLA HUIDOBRO,6275,-34.8414192,-64.5873795
25699,VILLA INDEPENDENCIA,PUNILLA,,5153,-31.4647045,-64.5216141
16288,VILLA LA BOLSA,SANTA MARIA,VILLA LA BOLSA,5189,-31.7274703,-64.4350951
28354,VILLA LAGO AZUL,PUNILLA,VILLA SANTA CRUZ DEL LAGO,5171,-31.3731770,-64.4836190
24229,VILLA LEONOR,COLON,,5109,-31.1934134,-64.3641036
24230,VILLA LOS ALTOS,COLON,,5111,-31.1426293,-64.3151591
28404,VILLA LOS AROMOS,SANTA MARIA,VILLA LOS AROMOS,5186,-31.7349260,-64.4386720
24705,VILLA LOS LEONES,CRUZ DEL EJE,LAS PLAYAS,5281,-30.7002160,-64.8492450
27688,VILLA LOS PATOS,UNION,VILLA LOS PATOS,2551,-32.7672148,-62.7277682
23051,VILLA MAR CHIQUITA,RIO PRIMERO,,5137,,
24232,VILLA MARIA,COLON,,5220,,
26303,VILLA MARIA,GENERAL SAN MARTIN,VILLA MARIA,5900,-32.4120026,-63.2398300
24798,VILLA MODERNA,GENERAL ROCA,,6275,-34.6964242,-64.6465677
22850,VILLA NATURALEZA,CALAMUCHITA,VILLA RUMIPAL,5864,-32.1963860,-64.4628810
16106,VILLA NUEVA,GENERAL SAN MARTIN,VILLA NUEVA,5903,-32.4206314,-63.2585487
16285,VILLA PARQUE SANTA ANA,SANTA MARIA,VILLA PARQUE SANTA ANA,5101,-31.5827198,-64.3572311
28071,VILLA PARQUE SIQUIMAN,PUNILLA,VILLA PARQUE SIQUIMAN,5158,-31.3528000,-64.4870000
16112,VILLA QUILINO,ISCHILIN,QUILINO,5214,-30.2084217,-64.4729691
28458,VILLA QUILLINZO,CALAMUCHITA,VILLA QUILLINZO,5859,-32.2673010,-64.5267440
24406,VILLA RAFAEL BENEGAS,SAN ALBERTO,,5885,-31.6418202,-64.9558147
16177,VILLA RIO ICHO CRUZ,PUNILLA,VILLA RIO ICHO CRUZ,5153,-31.4791066,-64.5627474
25391,VILLA ROSARIO DEL SALADILLO,TULUMBA,ROSARIO DEL SALADILLO,5233,-30.4324971,-63.4734544
16154,VILLA ROSSI,PRESIDENTE ROQUE SAENZ PEÑA,VILLA ROSSI,6128,-34.2984924,-63.2674179
16047,VILLA RUMIPAL,CALAMUCHITA,VILLA RUMIPAL,5864,-32.1888008,-64.4791946
28322,VILLA SAN ANTONIO,RIO PRIMERO,OBISPO TREJO,5225,-30.7644773,-63.4269896
24860,VILLA SAN ESTEBAN,SAN JUSTO,VILLA SAN ESTEBAN,5947,-31.6330528,-62.8964744
28406,VILLA SAN ISIDRO,SANTA MARIA,VILLA SAN ISIDRO,5189,-31.8255130,-64.3847620
22865,VILLA SAN JAVIER,CALAMUCHITA,,5199,,
28175,VILLA SAN NICOLAS,SANTA MARIA,MALAGUEÑO,5101,-31.4371530,-64.4555230
16425,VILLA SANTA CRUZ DEL LAGO,PUNILLA,VILLA SANTA CRUZ DEL LAGO,5152,-31.3693229,-64.5205371
28444,VILLA SANTA EUGENIA,RIO CUARTO,ALPA CORRAL,5810,-32.6648653,-64.7411731
16427,VILLA SANTA MARIA,SANTA MARIA,,5186,,
22593,VILLA SANTA RITA,RIO CUARTO,,5801,-32.9251748,-64.4657085
16212,VILLA SANTA ROSA,RIO PRIMERO,SANTA ROSA DE RIO PRIMERO,5133,-31.1574783,-63.3996010
28047,VILLA SARMIENTO,SAN ALBERTO,VILLA SARMIENTO,5871,-31.9349510,-65.1923340
28046,VILLA SARMIENTO,GENERAL ROCA,VILLA SARMIENTO,6273,-34.1228098,-64.7252655
25051,VILLA SATYTA,SANTA MARIA,,5189,,
28174,VILLA SIERRAS DE ORO,SANTA MARIA,MALAGUEÑO,,-31.4626430,-64.4199350
22871,VILLA SIERRAS DEL LAGO,CALAMUCHITA,EMBALSE,5857,-32.2333050,-64.3838170
25700,VILLA SUIZA ARGENTINA,PUNILLA,,5156,,
25501,VILLA TANINGA,POCHO,,5295,-31.3420867,-65.0820244
24238,VILLA TORTOSA,COLON,,5109,-31.2408348,-64.3157720
16315,VILLA TULUMBA,TULUMBA,VILLA TULUMBA,5203,-30.3965073,-64.1212654
16090,VILLA VALERIA,GENERAL ROCA,VILLA VALERIA,6273,-34.3418038,-64.9198655
24862,VILLA VAUDAGNA,SAN JUSTO,,2435,,
24864,VILLA VIEJA,SAN JUSTO,,2426,,
16049,VILLA YACANTO,CALAMUCHITA,VILLA YACANTO,5197,-32.1037825,-64.7541028
25502,VISO,POCHO,,5295,-31.3581918,-65.0978929
22878,VISTA ALEGRE,CALAMUCHITA,,5197,,
25547,VIVERO,PRESIDENTE ROQUE SAENZ PEÑA,,6128,-34.2358915,-62.8347866
16198,WASHINGTON,RIO CUARTO,WASHINGTON,6144,-33.8744392,-64.6875153
24803,WATT,GENERAL ROCA,,6270,-34.9381459,-64.3101740
16337,WENCESLAO ESCALANTE,UNION,WENCESLAO ESCALANTE,2655,-33.1728706,-62.7705727
16252,YACANTO,SAN JAVIER,,5877,-32.0367650,-65.0286282
23567,YANACATO,RIO SECO,,5248,,
22597,YATAY,RIO CUARTO,,5841,,
16163,YCHO CRUZ SIERRAS,PUNILLA,VILLA RIO ICHO CRUZ,5153,-31.4791066,-64.5627474
25236,YERBA BUENA,ISCHILIN,,5200,,
24672,ZAPATA,SAN JAVIER,,5873,,
22601,ZAPOLOCO,RIO CUARTO,,5839,,
