id,nombre,partido,municipio,cp,latitud,longitud
23814,9 DE JULIO,PIRANE,PALO SANTO,3606,-25.5645125,-59.1023264
8365,AGUA VERDE,MATACOS,,3636,-23.6762443,-62.3102325
28462,AIBAL EL SILENCIO,BERMEJO,LAGUNA YEMA,3634,-24.3915763,-61.6964579
17635,ALTO ALEGRE,BERMEJO,,3634,-23.9839361,-60.8249516
8565,APAYEREY,PILAGAS,,3615,-24.9888520,-58.6919301
22148,B DEL RIACHO DE PILAGA,FORMOSA,,3600,-26.0718520,-57.9793605
8367,BAJO HONDO,BERMEJO,LAGUNA YEMA,3630,-24.0332916,-60.7659863
17651,BAJO VERDE,BERMEJO,,3634,-23.9370544,-60.6073043
8415,BANCO PAYAGUA,LAISHI,BANCO PAYAGUA,3601,-26.7069602,-58.3380609
23456,BARRIO SAN MARTIN,PILCOMAYO,LAGUNA NAINECK,3610,-25.2194744,-58.1355950
8473,BARTOLOME DE LAS CASAS,PATIÑO,BARTOLOME DE LAS CASAS,3622,-25.4075002,-59.5701461
8566,BELLA VISTA,PILAGAS,,3615,-25.0992818,-58.5648464
8453,BOLSA DE PALOMO,MATACOS,,3636,-24.1908517,-62.1000067
8368,BUEN LUGAR,BERMEJO,LAGUNA YEMA,3636,-23.6526644,-61.2826580
8567,BUENA VISTA,PILAGAS,BUENA VISTA,3615,-25.0185155,-58.4451833
28574,BUEY MUERTO,PILCOMAYO,CLORINDA,3639,-25.5173315,-57.5858881
8369,CABALLO MUERTO,BERMEJO,POZO DE MAZA,3636,-23.2904360,-61.7183342
8416,CABO ADRIANO AYALA,LAISHI,VILLA ESCOLAR,3526,-26.5149300,-58.8004947
23834,CABO NOROÑA,PIRANE,,3606,-25.9879958,-59.2882227
22900,CACIQUE COQUERO,PATIÑO,,3630,-24.6125530,-60.2986323
22771,CAMPO ALEGRE,PATIÑO,ESTANISLAO DEL CAMPO,3630,-25.1324734,-60.3312879
8476,CAMPO AZCURRA,PATIÑO,,3624,-25.3149893,-59.8635244
28491,CAMPO BANDERA,MATACOS,ING GUILLERMO NICASIO JUAREZ,3636,-24.0013631,-61.8779882
28539,CAMPO DE AVIACION,PATIÑO,COMANDANTE FONTANA,3620,-25.3611563,-59.6089045
8477,CAMPO DEL CIELO,PATIÑO,LAS LOMITAS,3624,-24.4779498,-60.4023670
17678,CAMPO EL SURI,BERMEJO,,3634,-24.2283814,-61.5995729
8454,CAMPO GRANDE,MATACOS,,3636,-24.1045345,-62.2151126
28492,CAMPO LA CRUZ,MATACOS,ING GUILLERMO NICASIO JUAREZ,3636,-24.0635353,-62.0066380
23838,CAMPO RIGONATO,PIRANE,,3606,-25.7578559,-59.3556056
28583,CAMPO SAN RAFAEL,PIRANE,MAYOR VICENTE E VILLAFAÑE,3609,-26.2776314,-59.0166517
22149,CAÑADA DOCE,FORMOSA,,3600,-25.8636646,-58.0878976
28525,CAÑADA RICA,RAMON LISTA,GENERAL MOSCONI,3637,-23.2746382,-62.2592104
8371,CAPITAN JUAN SOLA,BERMEJO,,3634,,
8639,CARLOS SAAVEDRA LAMAS,RAMON LISTA,,3636,,
23840,CASCO CUE,PIRANE,,3606,-25.7680163,-59.1332505
23472,CEIBO TRECE,PILCOMAYO,LAGUNA NAINECK,3610,-25.2329539,-58.2010530
28589,CENTRO FORESTAL PIRANE,PIRANE,PIRANE,3606,-25.7132013,-59.2239532
8418,CHURQUI CUE,LAISHI,HERRADURA,3601,-26.4842593,-58.2797640
8586,CLORINDA,PILCOMAYO,CLORINDA,3610,-25.2829808,-57.7201772
22783,CNIA ABORIGEN BME DE LAS CASAS,PATIÑO,COMANDANTE FONTANA,3630,-25.3475728,-59.6162845
28573,CNIA ABORIGEN MISION TACAAGLE,PILAGAS,MISION TACAAGLE,3614,-24.9589879,-58.8024880
28535,COLONIA 14 DE MAYO,PATIÑO,ESTANISLAO DEL CAMPO,3626,-25.1425694,-60.0498643
28590,COLONIA 15,PIRANE,PALO SANTO,3608,-25.6311176,-59.4928034
28561,COLONIA 20 DE JUNIO,PATIÑO,GENERAL BELGRANO,3616,-24.9084519,-59.1366690
23274,COLONIA 25 DE MAYO,PILAGAS,MISION TACAAGLE,3615,-24.9850417,-58.8884337
23842,COLONIA 5 DE OCTUBRE,PIRANE,PIRANE,3606,-25.8443641,-59.3348173
28624,COLONIA ABORIGEN CHICO DAWAGAN,PATIÑO,POSTA CAMBIO ZALAZAR,3629,-24.1901866,-59.9658916
28538,COLONIA ABORIGEN LA BOMBA,PATIÑO,LAS LOMITAS,3630,-24.6912341,-60.5839653
28582,COLONIA ABORIGEN LA PRIMAVERA,PILCOMAYO,LAGUNA NAINECK,3640,-25.1971803,-58.1978044
8471,COLONIA ALTO ALEGRE,PATIÑO,SUBTENIENTE PERIN,3620,-25.5636411,-59.8453996
8588,COLONIA BOUVIER,PILCOMAYO,CLORINDA,3611,-25.4550454,-57.5975036
22414,COLONIA CANO,LAISHI,GENERAL LUCIO V MANSILLA,3601,-26.8533360,-58.3259923
28554,COLONIA CEFERINO NAMUNCURA,PATIÑO,VILLA GENERAL GUEMES,3621,-24.5901488,-59.5135418
28591,COLONIA COPO BLANCO,PIRANE,PALO SANTO,3608,-25.5603354,-59.2741780
22182,COLONIA DALMACIA,FORMOSA,,3600,-25.8562131,-57.9051349
28552,COLONIA DANTE SANDRELLI,PATIÑO,SAN MARTIN DOS,3627,-24.4651155,-59.8048868
23849,COLONIA EL ALBA,PIRANE,EL COLORADO,3606,-26.3188226,-59.2319843
8480,COLONIA EL CATORCE,PATIÑO,,3624,-25.1834218,-59.9566685
28571,COLONIA EL CEIBO,PILAGAS,EL ESPINILLO,3615,-25.0810818,-58.5818226
28586,COLONIA EL CHAJA,PIRANE,MAYOR VICENTE E VILLAFAÑE,3609,-26.1480420,-58.9523253
28592,COLONIA EL COMIENZO,PIRANE,PALO SANTO,3608,-25.5877064,-59.3511351
28587,COLONIA EL DESAGUADERO,PIRANE,EL COLORADO,3603,-26.3237656,-59.2981547
28609,COLONIA EL DORADO,LAISHI,MISION SAN FRANCISCO DE LAISHI,3605,-26.2439017,-58.6172702
28610,COLONIA EL NARANJITO,LAISHI,MISION SAN FRANCISCO DE LAISHI,3605,-26.2260385,-58.6760867
23855,COLONIA EL OLVIDO,PIRANE,MAYOR VICENTE E VILLAFAÑE,3606,-26.0562975,-58.9634807
22881,COLONIA EL PAVAO,PATIÑO,VILLA GENERAL GUEMES,3630,-24.9370251,-59.5806498
28593,COLONIA EL PIQUETE,PIRANE,PIRANE,3606,-25.5333203,-58.9280300
28594,COLONIA EL PROGRESO,PIRANE,PALO SANTO,3608,-25.5119526,-59.3997881
27777,COLONIA EL RINCON,PIRANE,MAYOR VICENTE E VILLAFAÑE,3601,-26.1100732,-59.0932456
8481,COLONIA EL SILENCIO,PATIÑO,SUBTENIENTE PERIN,3624,-25.3956710,-59.9557310
23856,COLONIA EL ZAPALLITO,PIRANE,VILLA DOS TRECE,3606,-26.1226078,-59.3435959
28547,COLONIA ENSANCHE NORTE,PATIÑO,IBARRETA,3624,-25.1893527,-59.8695317
8479,COLONIA FRANCISCO J MUÑIZ,PATIÑO,,3630,-24.7341185,-60.5481668
8482,COLONIA GUILLERMINA,PATIÑO,,3624,,
23836,COLONIA HARDY,PIRANE,VILLA DOS TRECE,3606,-26.1472242,-59.4938986
22185,COLONIA ISLA DE ORO,FORMOSA,FORMOSA,3600,-26.2081004,-58.1421611
8483,COLONIA ISLA SOLA,PATIÑO,,3624,-25.2392410,-59.9739346
28585,COLONIA ITATI,PIRANE,MAYOR VICENTE E VILLAFAÑE,3609,-26.2182214,-59.0122628
8406,COLONIA ITUZAINGO,FORMOSA,SAN HILARIO,3601,-26.1440006,-58.7161681
27778,COLONIA JOSE M PAZ,PILCOMAYO,,3613,-25.1120005,-58.3645266
8484,COLONIA JUAN B ALBERDI,PATIÑO,,3626,-25.0622557,-60.0658740
8485,COLONIA JUANITA,PATIÑO,IBARRETA,3626,-25.1441116,-59.9207978
8621,COLONIA KILOMETRO 142,PIRANE,MAYOR VICENTE E VILLAFAÑE,3603,-26.3313464,-59.0678727
23859,COLONIA LA DISCIPLINA,PIRANE,,3606,-25.7874680,-59.3084869
22833,COLONIA LA MEDIA LUNA,PATIÑO,SUBTENIENTE PERIN,3634,-25.4413592,-60.0592016
28544,COLONIA LA PREFERIDA,PATIÑO,ESTANISLAO DEL CAMPO,3626,-25.0807156,-60.0409295
23515,COLONIA LA PRIMAVERA,PILCOMAYO,SIETE PALMAS,3610,-25.2045682,-58.2556810
28595,COLONIA LA UNION,PIRANE,VILLA DOS TRECE,3602,-26.1946157,-59.3145174
28545,COLONIA LAGO VERDE,PATIÑO,ESTANISLAO DEL CAMPO,3626,-25.1029936,-60.0085305
28611,COLONIA LAGUNA GOBERNADOR,LAISHI,MISION SAN FRANCISCO DE LAISHI,3605,-26.2118490,-58.6599050
28551,COLONIA LAKA WICHI,PATIÑO,POZO DEL TIGRE,3628,-24.9117030,-60.3544427
28580,COLONIA LOS SANTAFESINOS,PILCOMAYO,LAGUNA NAINECK,3640,-25.2765154,-58.0573375
22787,COLONIA LOS TRES REYES,PATIÑO,VILLA GENERAL GUEMES,3630,-24.8032387,-59.5340264
28560,COLONIA NAPENAY,PATIÑO,COMANDANTE FONTANA,3620,-25.1752344,-59.6890280
28596,COLONIA PAMPA VILLANUEVA,PIRANE,EL COLORADO,3603,-26.2741528,-59.3190236
31572,COLONIA PASTORIL,FORMOSA,FORMOSA,3601,-25.6707720,-58.2611490
8488,COLONIA RECONQUISTA,PATIÑO,,3624,-25.3067189,-59.8632260
28597,COLONIA RODA,PIRANE,PIRANE,3606,-25.9998533,-59.5675946
8579,COLONIA SALVACION,PIRANE,PALO SANTO,3611,-25.2563426,-58.9399692
8445,COLONIA SAN ANTONIO,LAISHI,MISION SAN FRANCISCO DE LAISHI,3601,-26.2077550,-58.6307875
28548,COLONIA SAN ANTONIO,PATIÑO,IBARRETA,3624,-25.3197537,-59.9558318
22413,COLONIA SAN ISIDRO,LAISHI,VILLA ESCOLAR,3526,-26.4703245,-58.8494963
8489,COLONIA SAN ISIDRO,PATIÑO,GENERAL BELGRANO,3630,-24.9245077,-58.9970103
8490,COLONIA SAN JOSE,PATIÑO,SAN MARTIN DOS,3626,-24.5014463,-59.4605524
22792,COLONIA SAN PABLO,PATIÑO,VILLA GENERAL GUEMES,3630,-24.5792084,-59.6569977
28620,COLONIA SAN PEDRO,PATIÑO,SUBTENIENTE PERIN,3619,-25.6927968,-59.9497671
28621,COLONIA SAN ROQUE,PATIÑO,SUBTENIENTE PERIN,3619,-25.4138095,-59.9927801
28598,COLONIA SANTA CRUZ,PIRANE,PIRANE,3606,-25.4654551,-58.6156860
23277,COLONIA SANTA ROSA,PILAGAS,PORTON NEGRO,3615,-24.9256052,-58.7278727
22911,COLONIA SANTA ROSA,PATIÑO,POSTA CAMBIO ZALAZAR,3630,-24.2184506,-60.0521808
17736,COLONIA SANTA ROSA,BERMEJO,LOS CHIRIGUANOS,3634,-23.7880327,-61.4836540
8497,COLONIA SARMIENTO,PATIÑO,COLONIA SARMIENTO,3621,-24.6436505,-59.4332131
28579,COLONIA SARMIENTO,PILCOMAYO,LAGUNA NAINECK,3640,-25.2111169,-58.0748609
22800,COLONIA SIETE QUEBRACHOS,PATIÑO,IBARRETA,3624,-25.2907568,-59.8990943
23459,COLONIA SUDAMERICANA,PILCOMAYO,SIETE PALMAS,3610,-25.2092773,-58.3090984
8554,COLONIA TATANE,PATIÑO,COMANDANTE FONTANA,3601,-25.2560889,-59.7068534
8420,COLONIA TATANE,LAISHI,TATANE,3626,-26.3980075,-58.3537796
8491,COLONIA UNION ESCUELA,PATIÑO,VILLA GENERAL GUEMES,3626,-24.7768512,-59.6860813
22803,COLONIA VILLA RICA,PATIÑO,BARTOLOME DE LAS CASAS,3630,-25.3080569,-59.2645960
28599,COLONIA WEITZEL,PIRANE,VILLA DOS TRECE,3602,-26.1363479,-59.5440810
31586,COLONIA YATAY,LAISHI,TATANE,3645,-26.4143740,-58.5728180
8492,COMANDANTE FONTANA,PATIÑO,COMANDANTE FONTANA,3620,-25.3333081,-59.6795888
28524,COMUNIDAD 7 DE JUNIO,RAMON LISTA,GENERAL MOSCONI,3637,-23.2429985,-62.2224364
28534,COMUNIDAD ABORIGEN WICHI KM 30,RAMON LISTA,GENERAL MOSCONI,3637,-23.4192190,-61.9347602
28550,COMUNIDAD LOTE 21,PATIÑO,POZO DEL TIGRE,3628,-24.8661042,-60.3202569
28532,COMUNIDAD POZO DEL OSO,RAMON LISTA,GENERAL MOSCONI,3637,-23.1653220,-62.2991789
28533,COMUNIDAD WICHI EL COLORADO,RAMON LISTA,EL POTRILLO,3637,-23.0995186,-62.1051286
28531,COMUNIDAD WICHI LAS PALMITAS,RAMON LISTA,GENERAL MOSCONI,3637,-23.0775654,-62.3098504
28530,COMUNIDAD WICHI OBLITAJ,RAMON LISTA,EL POTRILLO,3637,-23.1350443,-62.0465356
8493,CORONEL ARGENTINO LARRABURE,PATIÑO,VILLA GENERAL GUEMES,3620,-24.7649425,-59.2110241
28576,COSTA ALEGRE,PILCOMAYO,LAGUNA BLANCA,3613,-25.1531335,-58.2148370
28584,COSTA RIACHO ALAZAN,PIRANE,MAYOR VICENTE E VILLAFAÑE,3609,-26.3212030,-59.0510436
8514,DESVIO KILOMETRO 1769,PATIÑO,ESTANISLAO DEL CAMPO,3628,-24.9908649,-60.1832493
8614,DESVIO LOS MATACOS,PIRANE,,3608,-25.4986454,-59.4402611
8496,DOCTOR CARLOS MONTAG,PATIÑO,COMANDANTE FONTANA,3624,-25.5406413,-59.7566216
17769,EL ACHERAL,BERMEJO,LOS CHIRIGUANOS,3634,-24.2968755,-61.7149333
17785,EL AIBALITO,BERMEJO,,3634,-24.1177702,-60.9201945
24110,EL ALAMBRADO,RAMON LISTA,GENERAL MOSCONI,3636,-23.2577755,-62.1616439
23871,EL ALGARROBO,PIRANE,,3606,-25.6201476,-59.1382439
28501,EL ALGARROBO,RAMON LISTA,EL POTRILLO,3637,-22.9937513,-62.1432732
8424,EL ANGELITO,LAISHI,,3601,-26.3462731,-58.4412472
8376,EL AZOTADO,BERMEJO,LOS CHIRIGUANOS,3636,-24.2310463,-61.7814449
28463,EL BAJO,BERMEJO,LAGUNA YEMA,3634,-23.8595541,-61.0497688
23825,EL BAÑADERO,PATIÑO,BARTOLOME DE LAS CASAS,3606,-25.9429910,-59.6528173
28555,EL BELLACO,PATIÑO,COMANDANTE FONTANA,3620,-26.1012442,-59.6496487
17800,EL BORDO SANTO,BERMEJO,LOS CHIRIGUANOS,3634,-24.2694895,-61.7639322
28600,EL BOSQUECILLO,PIRANE,PIRANE,3606,-25.7870438,-59.4340778
17807,EL BRAGADO,BERMEJO,LOS CHIRIGUANOS,3634,-24.0413873,-61.7009151
28509,EL BREAL,RAMON LISTA,GENERAL MOSCONI,3637,-22.7215605,-62.3254803
28564,EL CACUY,PATIÑO,VILLA GENERAL GUEMES,3621,-24.6602787,-59.3887740
17813,EL CAÑON,BERMEJO,,3634,-23.9088964,-61.0542976
17825,EL CAVADO,BERMEJO,,3634,-23.5928775,-61.4845343
8498,EL CEIBAL,PATIÑO,SAN MARTIN DOS,3630,-24.3638253,-59.8120285
28464,EL CHAÑARAL,BERMEJO,POZO DE MAZA,3634,-23.5576459,-61.5407131
28523,EL CHIVIL,RAMON LISTA,GENERAL MOSCONI,3637,-23.2387891,-62.2068386
8641,EL CHORRO,RAMON LISTA,GENERAL MOSCONI,3636,-23.1827186,-62.3040685
28465,EL CHURCAL,BERMEJO,POZO DE MAZA,3634,-23.4355726,-61.5904737
28466,EL CHURCALITO,BERMEJO,LAGUNA YEMA,3634,-24.0745909,-60.8523793
22806,EL COATI,PIRANE,PALO SANTO,3630,-25.7223716,-59.6271085
28467,EL COLETO,BERMEJO,LAGUNA YEMA,3634,-24.2160232,-60.6945929
8615,EL COLORADO,PIRANE,EL COLORADO,3603,-26.3069657,-59.3757253
8616,EL CORRALITO,PIRANE,,3606,-25.6860718,-59.0644886
17833,EL CORRALITO,BERMEJO,,3634,-24.2183956,-61.0063278
28542,EL CRUCE,PATIÑO,ESTANISLAO DEL CAMPO,3626,-25.3398324,-60.2651922
28521,EL CRUCE,RAMON LISTA,GENERAL MOSCONI,3637,-23.3225806,-61.9776038
8500,EL DESCANSO,PATIÑO,POSTA CAMBIO ZALAZAR,3630,-24.2140150,-60.4695555
28622,EL DIVISADERO,PATIÑO,SUBTENIENTE PERIN,3619,-25.3932747,-60.0600789
28519,EL DIVISADERO,RAMON LISTA,GENERAL MOSCONI,3637,-23.3932288,-61.9443893
8569,EL ESPINILLO,PILAGAS,EL ESPINILLO,3615,-24.9799888,-58.5537877
28513,EL ESTANQUE,RAMON LISTA,GENERAL MOSCONI,3637,-23.0066089,-62.2965349
28623,EL FAVORITO,RAMON LISTA,EL POTRILLO,3636,-23.1804828,-62.0329883
8617,EL GATO,PIRANE,MAYOR VICENTE E VILLAFAÑE,3601,-26.1681507,-58.9373756
23873,EL GUAJHO,PIRANE,,3606,-25.7231039,-59.1519068
28468,EL LECHERON,BERMEJO,POZO DE MAZA,3634,-23.5025028,-61.5446354
28469,EL LINDERO,BERMEJO,LOS CHIRIGUANOS,3634,-23.7306737,-61.3360231
28493,EL MILAGRO,MATACOS,ING GUILLERMO NICASIO JUAREZ,3636,-23.4975484,-62.0336287
22810,EL MIRADOR,PATIÑO,,3630,-24.6266385,-60.9335856
22542,EL MISTOLAR,MATACOS,,3636,-24.2433242,-61.9409297
8501,EL OCULTO,PATIÑO,,3624,-25.1027181,-59.8178112
23874,EL PALMAR,PIRANE,,3606,-25.8536151,-59.1605603
17842,EL PALO SANTO,BERMEJO,,3634,-23.8615453,-60.9729238
8589,EL PARAISO,PILCOMAYO,LAGUNA NAINECK,3610,-25.1951683,-58.0056277
17845,EL PARAISO,BERMEJO,,3634,-24.0343778,-60.5801258
22815,EL PERDIDO,PATIÑO,BARTOLOME DE LAS CASAS,3630,-25.9136567,-59.7330009
23875,EL POI,PIRANE,VILLA DOS TRECE,3606,-26.0210588,-59.3275393
23278,EL POMBERO,PILAGAS,TRES LAGUNAS,3611,-25.3716704,-58.6667767
8503,EL PORTEÑO,PATIÑO,VILLA GENERAL GUEMES,3620,-24.7273161,-59.5906825
22545,EL POTRERITO,BERMEJO,LOS CHIRIGUANOS,3636,-24.3043291,-61.8160370
28626,EL POTRILLO,RAMON LISTA,EL POTRILLO,3636,-23.1585270,-62.0062390
22820,EL QUEBRACHO,PATIÑO,POSTA CAMBIO ZALAZAR,3630,-24.0437903,-59.9953605
23878,EL QUEBRANTO,PIRANE,,3606,-25.6466559,-58.7546924
8523,EL QUEMADO,PATIÑO,LAS LOMITAS,3624,-24.4743528,-60.2561070
8379,EL QUEMADO,BERMEJO,LAGUNA YEMA,3636,-24.0001074,-60.9851940
28470,EL QUIMIL,BERMEJO,POZO DE MAZA,3634,-23.5166135,-61.7082480
27779,EL RECODO,PILCOMAYO,,3611,-25.2998749,-58.3657696
8504,EL RECREO,PATIÑO,EL RECREO,3626,-25.0394709,-59.2859265
17899,EL REMANSO,BERMEJO,,3634,-23.9869702,-60.4582311
23881,EL RESGUARDO,PIRANE,PALO SANTO,3606,-25.3879041,-59.1705999
24112,EL ROSADO,RAMON LISTA,GENERAL MOSCONI,3636,-22.7385943,-62.2748656
28508,EL ROSARIO,RAMON LISTA,GENERAL MOSCONI,3637,-22.7153604,-62.3186459
28494,EL ROSILLO,MATACOS,ING GUILLERMO NICASIO JUAREZ,3636,-23.6867148,-61.9423467
23954,EL SALADILLO,PIRANE,MAYOR VICENTE E VILLAFAÑE,3620,-26.1000671,-59.0531939
8618,EL SALADO,PIRANE,PIRANE,3606,-25.9007684,-59.2888687
8505,EL SAUCE,PATIÑO,POZO DEL TIGRE,3628,-24.8926296,-60.4061993
28502,EL SILENCIO,RAMON LISTA,EL POTRILLO,3637,-23.1893726,-61.9994963
17904,EL SIMBOLAR,BERMEJO,,3634,-24.2722552,-61.1438827
28503,EL SOL,RAMON LISTA,EL POTRILLO,3637,-23.1112041,-62.0585211
28471,EL SOLITARIO,BERMEJO,POZO DE MAZA,3634,-23.4608090,-61.4703574
17910,EL SOMBRERO NEGRO,BERMEJO,POZO DE MAZA,3634,-23.4929268,-61.5794656
28512,EL TABIQUE,RAMON LISTA,GENERAL MOSCONI,3637,-22.9712738,-62.2064362
28562,EL TIMBO,PATIÑO,VILLA GENERAL GUEMES,3621,-24.5839588,-59.6298227
22825,EL TOTORAL,PATIÑO,,3630,-24.5931476,-60.8205791
8640,EL TOTORAL,RAMON LISTA,GENERAL MOSCONI,3636,-23.3177443,-62.0125519
28495,EL TREBOL,MATACOS,ING GUILLERMO NICASIO JUAREZ,3636,-23.9388125,-61.8725605
28526,EL TRONQUITO,RAMON LISTA,EL POTRILLO,3637,-23.1204579,-62.0115715
27780,EL TUCUMANCITO,RAMON LISTA,GENERAL MOSCONI,3636,-22.8534415,-62.2687763
22826,EL YACARE,PATIÑO,VILLA GENERAL GUEMES,3630,-24.6389138,-59.2331260
28472,EL YACARE,BERMEJO,LAGUNA YEMA,3634,-24.4386311,-61.5820610
28614,EL YACARE,MATACOS,ING GUILLERMO NICASIO JUAREZ,3636,-23.6340912,-62.2487240
28577,ESPERANZA,PILCOMAYO,RIACHO HEHE,3611,-25.3543099,-58.3118203
8506,ESTANISLAO DEL CAMPO,PATIÑO,ESTANISLAO DEL CAMPO,3626,-25.0541810,-60.0932279
8431,ESTERITO,LAISHI,MISION SAN FRANCISCO DE LAISHI,3601,-26.2988951,-58.5409093
23888,ESTERO PATIÑO,PIRANE,PALO SANTO,3608,-25.5836857,-59.3172622
17949,EX POSTA GENERAL LAVALLE,PATIÑO,SUBTENIENTE PERIN,3634,-25.6486658,-60.1259621
8404,FORMOSA,FORMOSA,FORMOSA,3600,-26.1758641,-58.1726270
28616,FORTIN CABO 1RO LUGONES,PATIÑO,SAN MARTIN DOS,3621,-24.2879040,-59.8306130
8385,FORTIN LA SOLEDAD,BERMEJO,LAGUNA YEMA,3630,-24.1490540,-60.6881354
18123,FORTIN NUEVO PILCOMAYO,BERMEJO,LAGUNA YEMA,3630,-23.8706687,-60.8766298
8386,FORTIN PILCOMAYO,BERMEJO,LAGUNA YEMA,3630,-23.8727455,-60.9637224
8508,FORTIN SARGENTO PRIMERO LEYES,PATIÑO,FORTIN SARGENTO 1 LEYES,3621,-24.5554084,-59.3851025
28500,FWINAFWAS,MATACOS,ING GUILLERMO NICASIO JUAREZ,3636,-24.0672824,-62.0300503
8435,GENERAL LUCIO V MANSILLA,LAISHI,GENERAL LUCIO V MANSILLA,3526,-26.6541802,-58.6293215
8592,GOBERNADOR LUNA OLMOS,PILCOMAYO,,3611,,
8405,GRAN GUARDIA,FORMOSA,GRAN GUARDIA,3604,-25.8618497,-58.8894201
8387,GUADALCAZAR,BERMEJO,GUADALCAZAR,3636,-23.6719594,-61.1633263
22159,GUAYCOLEC,FORMOSA,,3600,-25.9892423,-58.1722939
8436,HERRADURA,LAISHI,HERRADURA,3601,-26.4857766,-58.3143107
8510,IBARRETA,PATIÑO,IBARRETA,3624,-25.2133607,-59.8631444
8461,ING GUILLERMO N JUAREZ,MATACOS,ING GUILLERMO NICASIO JUAREZ,3636,-23.8976004,-61.8538220
30252,ISLA 25 DE MAYO,FORMOSA,FORMOSA,3600,-25.7864460,-57.8195100
22161,ISLA 9 DE JULIO,FORMOSA,,3600,-26.2199991,-58.1139033
23493,ISLA APANDO,PILCOMAYO,CLORINDA,3611,-25.4083456,-57.6192084
28568,ISLA AZUL,PILAGAS,EL ESPINILLO,3615,-24.9964935,-58.4872178
22162,ISLA OCA,FORMOSA,,3600,-26.2121117,-58.1900355
8437,ISLA PAYAGUA,LAISHI,,3601,-26.7240026,-58.2745788
8593,ISLA PUEN,PILCOMAYO,LAGUNA NAINECK,3610,-25.1930407,-58.1236555
23904,ISLA TOLDO,PIRANE,PALO SANTO,3606,-25.3905781,-59.0122203
28581,ISLA YOBAI GUAZU,PILCOMAYO,LAGUNA BLANCA,3613,-25.1153873,-58.3330036
8512,JUAN GREGORIO BAZAN,PATIÑO,JUAN G BAZAN,3632,-24.5403146,-60.8357880
8571,JULIO CUE,PILAGAS,PORTON NEGRO,3615,-24.9844551,-58.7350250
28613,KILOMETRO 117,LAISHI,VILLA ESCOLAR,3548,-26.4432308,-58.8692207
22412,KILOMETRO 128,LAISHI,,3608,,
22840,KILOMETRO 15 RN 86,PATIÑO,POSTA CAMBIO ZALAZAR,3630,-24.2881624,-59.9678677
28606,KILOMETRO 210 RP 3,PIRANE,EL COLORADO,3603,-26.2568860,-59.3542145
23921,KILOMETRO 224,PIRANE,VILLA DOS TRECE,3621,-26.1475623,-59.4229655
8515,KILOMETRO 503 RP 24,PATIÑO,,3626,-25.3899098,-60.3010764
28522,LA BREA,RAMON LISTA,EL POTRILLO,3637,-23.2498706,-62.0013725
28618,LA CIERVA,PATIÑO,SUBTENIENTE PERIN,3619,-25.4888361,-60.0770489
8625,LA ESPERANZA,PIRANE,MAYOR VICENTE E VILLAFAÑE,3601,-26.1783991,-58.9770514
28473,LA ESPERANZA,BERMEJO,POZO DE MAZA,3634,-23.5395585,-61.4217566
22577,LA ESQUINITA,MATACOS,ING GUILLERMO NICASIO JUAREZ,3636,-24.1958382,-61.8901769
28553,LA ESTRELLA,PATIÑO,SAN MARTIN DOS,3627,-24.4155256,-59.7591382
22549,LA FLORENCIA,MATACOS,,3636,-24.1854401,-61.9415212
28601,LA FLORESTA,PIRANE,VILLA DOS TRECE,3602,-26.1162952,-59.4612828
8572,LA FRONTERA,PILCOMAYO,RIACHO HEHE,3613,-25.3903770,-58.1770582
22551,LA JUNTA,MATACOS,,3636,-23.5687375,-62.0883023
28474,LA LAGUNITA,BERMEJO,POZO DE MAZA,3634,-23.4237892,-61.7469943
18005,LA LIBERTAD,BERMEJO,,3634,-23.9818578,-60.6111767
28475,LA LINEA,BERMEJO,LAGUNA YEMA,3634,-24.2466465,-60.6912775
28476,LA MADRUGADA,BERMEJO,POZO DE MAZA,3634,-23.4316087,-61.5892200
18010,LA MEDIA LUNA,BERMEJO,,3634,-23.7576093,-61.0191378
28477,LA MOCHA,BERMEJO,POZO DE MAZA,3634,-23.4969442,-61.6309476
28517,LA MOCHA,RAMON LISTA,EL POTRILLO,3637,-23.0576256,-62.0594470
18013,LA NOBLEZA,BERMEJO,,3634,-24.0062625,-60.9772938
28478,LA PALIZADA,BERMEJO,LAGUNA YEMA,3634,-24.3746722,-60.8190153
18028,LA PALMITA,BERMEJO,,3634,-23.4850680,-61.3100762
28557,LA PAMPA,PATIÑO,BARTOLOME DE LAS CASAS,3620,-25.2967195,-59.5668842
28515,LA PAMPA,RAMON LISTA,GENERAL MOSCONI,3637,-22.9885445,-62.1436019
8627,LA PICADITA,PIRANE,MAYOR VICENTE E VILLAFAÑE,3601,-26.0407084,-59.1615445
18031,LA PRIMAVERA SECTOR EL PALOMAR,PILCOMAYO,LAGUNA NAINECK,3634,-25.1914022,-58.1363962
18036,LA REPRESA,BERMEJO,,3634,-23.8160142,-61.2118990
23928,LA SIRENA,PIRANE,VILLA DOS TRECE,3606,-26.1097674,-59.2545583
22860,LA SOLEDAD,PATIÑO,VILLA GENERAL GUEMES,3630,-24.6785798,-59.1593351
28496,LA SOLEDAD,MATACOS,ING GUILLERMO NICASIO JUAREZ,3636,-23.9308868,-62.1087164
28479,LA ZANJA,BERMEJO,LAGUNA YEMA,3634,-24.0720576,-60.6189432
28559,LAGUNA ACEBAL,PATIÑO,BARTOLOME DE LAS CASAS,3620,-25.3176385,-59.6328817
8594,LAGUNA BLANCA,PILCOMAYO,LAGUNA BLANCA,3613,-25.1284551,-58.2474332
8573,LAGUNA GALLO,PILAGAS,LAGUNA GALLO,3611,-25.2690532,-58.7406929
8595,LAGUNA NAINECK,PILCOMAYO,LAGUNA NAINECK,3611,-25.2228707,-58.1228071
28480,LAGUNA TRES PACES,BERMEJO,POZO DE MAZA,3634,-23.3862890,-61.5413758
8391,LAGUNA YEMA,BERMEJO,LAGUNA YEMA,3634,-24.2535199,-61.2477880
18062,LAMADRID,BERMEJO,LAMADRID,3634,-23.8969384,-60.7543143
28536,LAQTASATANYIE,PATIÑO,LAS LOMITAS,3630,-24.6140529,-60.5133664
18066,LAS AVISPAS,BERMEJO,,3634,-23.5990341,-61.5834935
28481,LAS BANDERITAS,BERMEJO,LAGUNA YEMA,3634,-23.9445236,-60.8375572
18070,LAS BOLIVIANAS,BERMEJO,LAGUNA YEMA,3634,-24.3188828,-61.2574850
8629,LAS CAÑITAS,PIRANE,VILLA DOS TRECE,3603,-26.1757263,-59.2228158
22552,LAS CAÑITAS,MATACOS,,3636,-23.6072123,-62.0366409
28505,LAS CAÑITAS,RAMON LISTA,EL POTRILLO,3637,-23.1067880,-62.0740345
8518,LAS CHOYAS,PATIÑO,VILLA GENERAL GUEMES,3626,-24.9172222,-59.7947783
28506,LAS DELICIAS,RAMON LISTA,GENERAL MOSCONI,3637,-22.6238653,-62.2840622
28565,LAS HORQUETAS,PATIÑO,ESTANISLAO DEL CAMPO,3626,-25.1794574,-60.3473357
8520,LAS LOMITAS,PATIÑO,LAS LOMITAS,3630,-24.7067575,-60.6016698
8521,LAS MOCHAS,PATIÑO,VILLA GENERAL GUEMES,3626,-24.8679247,-59.8424192
8524,LEGUA A,PIRANE,VILLA DOS TRECE,3624,-26.1053639,-59.4093973
8525,LOMA CLAVEL,PATIÑO,COMANDANTE FONTANA,3626,-25.4838543,-59.7133974
28608,LOMA DEL QUEBRANTO,PIRANE,PIRANE,3606,-25.6986305,-58.7225615
23499,LOMA HERMOSA,PILCOMAYO,RIACHO HEHE,3610,-25.3190570,-58.3156307
28563,LOMA SAN PABLO,PATIÑO,GENERAL BELGRANO,3616,-24.9213168,-59.0914526
23934,LOMA SENES,PIRANE,,3606,-25.8285064,-59.2354404
8575,LOMA ZAPATU,PILAGAS,,3615,-25.1168110,-58.5807886
28607,LOMAS SENES SUR,PIRANE,PIRANE,3606,-25.8667095,-59.2179822
8576,LORO CUE,PILAGAS,,3615,-24.9674006,-58.6175465
22866,LOS BALDES,PATIÑO,JUAN G BAZAN,3630,-24.5634525,-60.8767787
11434,LOS CHIRIGUANOS,BERMEJO,LOS CHIRIGUANOS,3632,-24.0986835,-61.4675868
28483,LOS CIENEGUITOS,BERMEJO,POZO DE MAZA,3634,-23.6407391,-61.4756954
18077,LOS CLAVELES,BERMEJO,LAGUNA YEMA,3601,-24.1036221,-61.2331827
22868,LOS CLAVELES,PATIÑO,ESTANISLAO DEL CAMPO,3630,-25.0988112,-60.3537398
18082,LOS GALPONES,BERMEJO,LAGUNA YEMA,3634,-24.6224662,-61.2699998
8408,LOS PILAGAS,FORMOSA,,3604,-25.9591448,-58.7564215
18089,LOS POCITOS,BERMEJO,,3634,-23.4629547,-61.7374093
22870,LOS SUSPIROS,PATIÑO,ESTANISLAO DEL CAMPO,3630,-25.1016985,-59.9788447
28511,LOTE 1,RAMON LISTA,GENERAL MOSCONI,3637,-22.8766552,-62.2782489
28605,LOTE 108 LADRILLERIA,PIRANE,EL COLORADO,3603,-26.2871012,-59.3501177
28604,LOTE 11,PIRANE,PIRANE,3606,-25.7852538,-59.4649397
28556,LOTE 20 RURAL,PATIÑO,COMANDANTE FONTANA,3620,-25.3637138,-59.6947618
28588,LOTE 219,PIRANE,EL COLORADO,3603,-26.2306684,-59.3047913
8642,LOTE 8,RAMON LISTA,GENERAL MOSCONI,3636,-22.8454705,-62.2748257
23502,LUCERO CUE,PILCOMAYO,LAGUNA NAINECK,3611,-25.2480256,-58.0506043
8528,MAESTRA BLANCA GOMEZ,PATIÑO,,3624,-25.1610819,-59.7862762
8529,MAESTRO FERMIN BAEZ,PATIÑO,VILLA GENERAL GUEMES,3621,-24.8827611,-59.2444880
8596,MARCA M,PILCOMAYO,SIETE PALMAS,3613,-25.2304703,-58.2524165
8643,MARIA CRISTINA,RAMON LISTA,GENERAL MOSCONI,3636,-22.7319464,-62.2787661
8409,MARIANO BOEDO,FORMOSA,MARIANO BOEDO,3604,-26.1110323,-58.4866437
28575,MARTIN FIERRO,PILCOMAYO,RIACHO HEHE,3611,-25.3176375,-58.2829378
8393,MATIAS GULACSI,BERMEJO,LAGUNA YEMA,3632,-24.6236947,-61.1671325
22716,MAYOR MARCELO T ROJAS,PATIÑO,POZO DEL TIGRE,3620,-25.0183900,-60.4685741
8611,MAYOR VICENTE E VILLAFAÑE,PIRANE,MAYOR VICENTE E VILLAFAÑE,3601,-26.2048682,-59.0780332
8394,MEDIA LUNA,BERMEJO,,3634,-23.7583298,-61.0213934
24113,MEDIA LUNA,RAMON LISTA,EL POTRILLO,3636,-23.0463010,-62.0854469
8631,MERCEDES CUE,PIRANE,MAYOR VICENTE E VILLAFAÑE,3601,-26.2424075,-59.0631496
27781,MISION EL QUEBRACHO,RAMON LISTA,GENERAL MOSCONI,3636,-23.3402150,-61.8733521
28529,MISION SAN ANDRES,RAMON LISTA,EL POTRILLO,3637,-23.1423087,-62.0422083
8577,MISION TACAAGLE,PILAGAS,MISION TACAAGLE,3615,-24.9650354,-58.8314672
24114,MISTOL MARCADO,RAMON LISTA,EL POTRILLO,3636,-23.0511498,-61.9571773
8410,MOJON DE FIERRO,FORMOSA,MOJON DE FIERRO,3600,-26.0386410,-58.0536840
22168,MONTE LINDO,PIRANE,PIRANE,3600,-25.4777441,-58.7588638
28602,MONTE QUEMADO,PIRANE,PIRANE,3606,-25.8680668,-59.2683332
22169,MONTEAGUDO,FORMOSA,FORMOSA,3600,-26.1224809,-58.1066292
23930,MURUA,PATIÑO,BARTOLOME DE LAS CASAS,3608,-25.6911192,-59.6459393
8598,PALMA SOLA,PILCOMAYO,PALMA SOLA,3611,-25.2486167,-57.9823278
18137,PALMA SOLA,BERMEJO,,3636,-23.6306512,-61.3454820
24116,PALMAR LARGO,RAMON LISTA,EL POTRILLO,3636,-23.1950225,-62.0492926
24118,PALMARCITO,RAMON LISTA,GENERAL MOSCONI,3636,-22.9355169,-62.2823622
17835,PALO MARCADO,BERMEJO,LOS CHIRIGUANOS,3634,-23.6818815,-61.2346662
8633,PALO SANTO,PIRANE,PALO SANTO,3608,-25.5648946,-59.3447042
28516,PALO SECO,RAMON LISTA,GENERAL MOSCONI,3637,-23.0000381,-62.1275676
8634,PARA TODO,PIRANE,,3606,-25.4718802,-58.6614262
28558,PARAJE LOS JUBILADOS,PATIÑO,BARTOLOME DE LAS CASAS,3620,-25.3247437,-59.5954540
23508,PARQUE NACIONAL,PILCOMAYO,,3610,-25.0671982,-58.1372304
28578,PASO ANGELITO,PILCOMAYO,LAGUNA NAINECK,3640,-25.2026785,-58.1528885
8395,PASO DE LOS TOBAS,BERMEJO,LAGUNA YEMA,3630,-24.0257059,-60.9062861
8531,PASO NAITE,PATIÑO,SAN MARTIN DOS,3628,-24.5901844,-60.0497976
22880,PASO NALTE,PATIÑO,,3630,,
31585,PASO POLENTA,LAISHI,TATANE,3645,,
27776,PESCADO NEGRO,BERMEJO,POZO DE MAZA,3636,-23.3835050,-61.7764625
23951,PILAGA III,PIRANE,,3606,-25.5111872,-58.9793078
8635,PIRANE,PIRANE,PIRANE,3606,-25.7307848,-59.1133052
18156,PONCHO QUEMADO,BERMEJO,,3634,-24.3467486,-61.6530830
8578,PORTON NEGRO,PILAGAS,PORTON NEGRO,3615,-24.9663729,-58.7409939
8534,POSTA CAMBIO A ZALAZAR,PATIÑO,POSTA CAMBIO ZALAZAR,3632,-24.2109389,-60.1960576
31584,POSTA DEL SALADO,LAISHI,TATANE,3645,,
18158,POSTA LENCINA,PATIÑO,JUAN G BAZAN,3634,-24.3588829,-60.6799349
22886,POSTA SAN MARTIN 2,PATIÑO,,3621,-24.4380102,-59.6464995
8535,POSTA SARGENTO CABRAL,PATIÑO,LAS LOMITAS,3630,-24.3810564,-60.3220286
22404,POTRERO DE LOS CABALLOS,LAISHI,VILLA ESCOLAR,3526,-26.4846052,-58.6073801
28603,POTRERO ÑANDU,PIRANE,PIRANE,3606,-25.8356115,-59.4341351
8636,POTRERO NORTE,PIRANE,PIRANE,3608,-25.7608867,-59.4568761
28520,POZO CABALLO,RAMON LISTA,GENERAL MOSCONI,3637,-23.3810577,-62.0298632
28514,POZO CERCADO,RAMON LISTA,GENERAL MOSCONI,3637,-23.0278693,-62.3358395
28527,POZO CHARATA,RAMON LISTA,EL POTRILLO,3637,-23.1093384,-62.1172752
8465,POZO DE LA YEGUA,MATACOS,,3636,-24.1485463,-62.0005264
22889,POZO DE LOS CHANCHOS,PATIÑO,,3630,-24.6573401,-60.2192020
24122,POZO DE LOS CHANCHOS,RAMON LISTA,GENERAL MOSCONI,3636,-23.2424887,-62.0715690
18162,POZO DE MAZA,BERMEJO,POZO DE MAZA,3634,-23.5717539,-61.7023455
28484,POZO DE MOLINA,BERMEJO,POZO DEL MORTERO,3634,-24.1424407,-60.5115518
23127,POZO DE NAVAGAN,PATIÑO,POSTA CAMBIO ZALAZAR,3630,-24.1652408,-59.9704228
28485,POZO DEL CAJON,BERMEJO,POZO DE MAZA,3634,-23.6060525,-61.2219279
18164,POZO DEL CUCHILLO,BERMEJO,,3634,-24.0284069,-61.2652502
8396,POZO DEL MORTERO,BERMEJO,POZO DEL MORTERO,3632,-24.4069087,-61.0308596
28497,POZO DEL PATO,MATACOS,ING GUILLERMO NICASIO JUAREZ,3636,-24.1154278,-61.9463343
8537,POZO DEL TIGRE,PATIÑO,POZO DEL TIGRE,3628,-24.8989839,-60.3294187
28499,POZO EL YACARE,MATACOS,ING GUILLERMO NICASIO JUAREZ,3636,-23.9774529,-62.2008074
22895,POZO HONDO,PATIÑO,POSTA CAMBIO ZALAZAR,3630,-24.3381760,-60.2416654
28507,POZO LA CHIVA,RAMON LISTA,GENERAL MOSCONI,3637,-22.6787966,-62.3096825
28543,POZO LARGO,PATIÑO,ESTANISLAO DEL CAMPO,3626,-25.2645971,-60.3463123
28486,POZO RAMON,BERMEJO,LAGUNA YEMA,3634,-23.4636193,-61.5775451
28487,POZO SARGENTO,BERMEJO,LAGUNA YEMA,3634,-23.6518849,-61.7974284
8538,POZO VERDE,PATIÑO,,3628,-24.9435861,-60.3626147
8467,POZO VERDE,MATACOS,ING GUILLERMO NICASIO JUAREZ,3636,-23.6293969,-62.0075042
22172,PQUE BOT FORESTAL L TORTORELLI,FORMOSA,,3600,-25.9804287,-58.1575149
23512,PRESIDENTE AVELLANEDA,PILCOMAYO,LAGUNA NAINECK,3611,-25.2219028,-57.9927866
22175,PRESIDENTE YRIGOYEN,FORMOSA,SAN HILARIO,3601,-26.1773290,-58.8435130
28612,PUERTA MISION,LAISHI,MISION SAN FRANCISCO DE LAISHI,3605,-26.2156611,-58.7287827
22176,PUERTO DALMACIA,FORMOSA,,3600,-25.8751858,-57.8734303
8468,PUERTO IRIGOYEN,BERMEJO,POZO DE MAZA,3636,-23.2351518,-61.7574570
8600,PUERTO PILCOMAYO,PILCOMAYO,CLORINDA,3611,-25.3746719,-57.6840401
22898,PUESTO AGUARA,PATIÑO,,3630,-24.4620164,-60.1317749
22897,PUESTO RAMONA,PATIÑO,GENERAL BELGRANO,3630,-24.9642312,-58.9151016
27775,PUNTA DE AGUA,PATIÑO,,3630,-24.3087005,-60.5367905
23519,PUNTA GUIA,PILCOMAYO,LAGUNA NAINECK,3610,-25.2183644,-58.2082846
23288,PUNTA PORA,PILAGAS,TRES LAGUNAS,3611,-25.1880100,-58.5272181
8637,RACEDO ESCOBAR,PIRANE,PIRANE,3603,-26.0242566,-59.6180487
8540,RANERO CUE,PATIÑO,,3626,-25.0318153,-59.9810891
28617,RIACHO DE ORO,PATIÑO,SUBTENIENTE PERIN,3619,-25.5918384,-60.0611786
8601,RIACHO HE HE,PILCOMAYO,RIACHO HEHE,3611,-25.3606214,-58.2803159
22403,RIACHO LINDO,LAISHI,,3601,-26.4256305,-58.5530530
8541,RINCON FLORIDO,PATIÑO,,3620,-25.4588798,-59.7723168
22903,RIO CUE,PATIÑO,VILLA GENERAL GUEMES,3630,,
22054,RIO MUERTO,BERMEJO,,3634,-23.6096742,-61.3167257
23290,RODEO TAPITI,PILCOMAYO,LAGUNA BLANCA,3611,-25.1085752,-58.2820774
22056,SAN ANTONIO,BERMEJO,,3634,-23.5577166,-61.1887792
28570,SAN BLAS,PILAGAS,EL ESPINILLO,3615,-24.9832589,-58.6385864
22058,SAN CAMILO,BERMEJO,LAGUNA YEMA,3606,-24.6078768,-61.3890859
23287,SAN CARLOS,PILAGAS,MISION TACAAGLE,3615,-25.0246510,-58.8556887
28619,SAN CARLOS,PATIÑO,SUBTENIENTE PERIN,3619,-25.6045321,-59.8960796
28488,SAN CAYETANO,BERMEJO,LAGUNA YEMA,3634,-23.8237778,-60.9777954
8447,SAN FRANCISCO DE LAISHI,LAISHI,MISION SAN FRANCISCO DE LAISHI,3601,-26.2434968,-58.6327176
8411,SAN HILARIO,FORMOSA,SAN HILARIO,3604,-26.0269220,-58.6532458
22063,SAN ISIDRO,BERMEJO,POZO DEL MORTERO,3634,-24.4694911,-60.8937690
24124,SAN ISIDRO,RAMON LISTA,GENERAL MOSCONI,3636,-22.9579449,-62.0582510
8602,SAN JUAN,PILCOMAYO,LAGUNA NAINECK,3611,-25.1768139,-57.9417247
8542,SAN LORENZO,PATIÑO,,3626,-25.2632050,-60.3931895
28528,SAN MARTIN,RAMON LISTA,EL POTRILLO,3637,-23.1075986,-62.1098558
22907,SAN MARTIN 1,PATIÑO,SAN MARTIN I,3630,-24.5319050,-59.9020510
8543,SAN MARTIN 2,PATIÑO,SAN MARTIN DOS,3621,-24.4331530,-59.6563519
22909,SAN MIGUEL,PATIÑO,POSTA CAMBIO ZALAZAR,3630,-24.2805073,-60.2388486
22910,SAN RAMON,PATIÑO,ESTANISLAO DEL CAMPO,3630,-25.0790350,-60.2840935
24098,SAN SIMON,PATIÑO,BARTOLOME DE LAS CASAS,3606,-26.0146803,-59.6509620
22177,SANTA CATALINA,FORMOSA,,3600,-25.8431498,-57.8991408
28489,SANTA ISABEL,BERMEJO,LAGUNA YEMA,3634,-24.3538934,-61.5290146
22554,SANTA TERESA,MATACOS,,3636,-24.0435286,-61.8449993
28625,SAUZALITO,RAMON LISTA,EL POTRILLO,3636,-23.1092131,-61.8829821
8645,SELVA MARIA,RAMON LISTA,EL POTRILLO,3636,-23.0334998,-62.0986878
8545,SGTO AYUDANTE V SANABRIA,PATIÑO,,3626,,
8605,SIETE PALMAS,PILCOMAYO,SIETE PALMAS,3613,-25.2028722,-58.3323981
23528,SOL DE MAYO,PILCOMAYO,SIETE PALMAS,3610,-25.1643787,-58.3524913
8547,SOLDADO ALBERTO VILLALBA,PATIÑO,,3636,,
8548,SOLDADO DANTE SALVATIERRA,PATIÑO,,3624,-25.2812497,-60.1184285
22402,SOLDADO EDMUNDO SOSA,LAISHI,VILLA ESCOLAR,3603,-26.3823526,-58.9745299
8549,SOLDADO HERMINDO LUNA,PATIÑO,POSTA CAMBIO ZALAZAR,3630,-24.0341072,-60.0613445
8550,SOLDADO ISMAEL SANCHEZ,PATIÑO,,3624,-25.3525980,-59.9221935
8591,SOLDADO JOSE CORONEL,PILCOMAYO,CLORINDA,3611,-25.3236503,-57.7049494
28615,SUBTENIENTE PERIN,PATIÑO,SUBTENIENTE PERIN,3624,-25.5368430,-60.0188360
8402,SUMAYEN,BERMEJO,,3634,-24.4669925,-61.5638298
22918,TATU PIRE,PATIÑO,BARTOLOME DE LAS CASAS,3630,-25.1389634,-59.4745882
8555,TENIENTE BROWN,PATIÑO,POZO DEL TIGRE,3622,-24.8073916,-60.4512267
22178,TIMBO PORA,FORMOSA,,3600,-25.9995371,-58.0182518
8606,TORO PASO,PILCOMAYO,LAGUNA NAINECK,3611,-25.3412208,-58.0343392
28628,TRES LAGUNAS,PILAGAS,TRES LAGUNAS,3611,-25.2146940,-58.5112240
23294,TRES LAGUNAS,PATIÑO,,3620,,
22179,TRES MARIAS,FORMOSA,,3600,-26.3355834,-58.2086174
8450,TRES MOJONES,LAISHI,,3601,-26.4646118,-58.5143554
28510,TRES PALMAS,RAMON LISTA,GENERAL MOSCONI,3637,-22.8573454,-62.2627025
28498,TRES PALMITAS,MATACOS,ING GUILLERMO NICASIO JUAREZ,3636,-23.9799105,-61.9126018
22066,TRES POZOS,BERMEJO,POZO DEL MORTERO,3634,-24.5275232,-60.8741470
28518,TRES POZOS,RAMON LISTA,GENERAL MOSCONI,3637,-23.3944323,-61.9756131
28490,TRES YUCHAN,BERMEJO,POZO DE MAZA,3634,-23.4775262,-61.5783733
22557,TTE GRAL ROSENDO N FRAGA,MATACOS,,3636,-23.7511886,-62.1524969
22072,VACA PERDIDA,BERMEJO,POZO DE MAZA,3636,-23.4999862,-61.6494585
28504,VILLA DEVOTO,RAMON LISTA,EL POTRILLO,3637,-23.1122623,-62.0525911
16417,VILLA DOS TRECE,PIRANE,VILLA DOS TRECE,3603,-26.1821325,-59.3662484
22181,VILLA EMILIA,FORMOSA,,3600,-25.9886050,-57.8656605
8452,VILLA ESCOLAR,LAISHI,VILLA ESCOLAR,3526,-26.6208504,-58.6733120
8562,VILLA GENERAL GUEMES,PATIÑO,VILLA GENERAL GUEMES,3621,-24.7552842,-59.4865728
8564,VILLA GENERAL URQUIZA,PATIÑO,LAS LOMITAS,3628,-24.6454091,-60.2344285
8563,VILLA GRAL MANUEL BELGRANO,PATIÑO,GENERAL BELGRANO,3615,-24.9388284,-59.0290877
23297,VILLA HERMOSA,PILAGAS,TRES LAGUNAS,3615,-25.2598399,-58.4221231
28549,VILLA MARIN,PATIÑO,POZO DEL TIGRE,3628,-24.9749578,-60.2784969
8584,VILLA REAL,PILAGAS,,3615,-25.0497231,-58.5530872
28572,VILLA RURAL,PILAGAS,EL ESPINILLO,3615,-25.0277513,-58.4372760
28627,VILLA ZAVALETA,RAMON LISTA,GENERAL MOSCONI,3637,-22.5398635,-62.2597603
23532,VIRASOL,PILCOMAYO,RIACHO HEHE,3610,-25.4593461,-58.5672687
28569,VISTA ALEGRE,PILAGAS,EL ESPINILLO,3615,-25.0208082,-58.5752065
23968,ZORRILLA CUE,PIRANE,MAYOR VICENTE E VILLAFAÑE,3606,-26.2381966,-59.0167847
