id,nombre,partido,municipio,cp,latitud,longitud
14103,ABRA VERDE,ROSARIO VERA PEÑALOZA,,5470,-31.3835964,-66.6269531
30194,AGUA BLANCA,CASTRO BARROS,CASTRO BARROS,5301,-28.9646501,-67.0005139
14104,AGUA BLANCA,ROSARIO VERA PEÑALOZA,,5471,-31.7035573,-66.2855435
14043,AGUA COLORADA,GENERAL OCAMPO,,5275,-30.8832590,-66.1958700
13986,AGUA COLORADA,GENERAL BELGRANO,,5383,-30.5589266,-66.1610420
29983,AGUA COLORADA,INDEPENDENCIA,INDEPENDENCIA,5386,-30.0697782,-67.4843356
29979,AGUA DE ABAJO,CORONEL FELIPE VARELA,CORONEL FELIPE VARELA,5361,-29.5849374,-67.7638969
14105,AGUA DE LA PIEDRA,ROSARIO VERA PEÑALOZA,,5475,-31.2554490,-66.3909596
14106,AGUA DE PIEDRA,ROSARIO VERA PEÑALOZA,,5470,,
29982,AGUA DEL MEDIO,INDEPENDENCIA,INDEPENDENCIA,5386,-30.0154240,-67.4932682
29976,AGUA DEL ZAPALLO,CORONEL FELIPE VARELA,CORONEL FELIPE VARELA,5361,-29.3936422,-67.8746329
13892,AGUADA,CASTRO BARROS,,5301,,
30201,AGUADITA,CAPITAL,CAPITAL,5300,-29.8093735,-66.9594207
29970,AGUADITA,CORONEL FELIPE VARELA,CORONEL FELIPE VARELA,5353,-29.3173230,-68.7203946
14010,AGUADITA,GENERAL JUAN FACUNDO QUIROGA,,5385,,
30020,AGUADITA DE LAS VALDECES,GENERAL ANGEL VICENTE PEÑALOZA,GENERAL ANGEL V PEÑALOZA,5385,-30.5177225,-66.8664585
29995,AGUANCO,INDEPENDENCIA,INDEPENDENCIA,5386,-30.4450064,-67.3596415
14077,AGUAYO,GENERAL SAN MARTIN,,5473,-31.6917864,-65.8866351
13928,AICUÑA,CORONEL FELIPE VARELA,,5361,-29.4716281,-67.7755392
13831,AIMOGASTA,ARAUCO,ARAUCO,5310,-28.5604229,-66.8074951
13971,ALCAZAR,GENERAL ANGEL VICENTE PEÑALOZA,,5385,-30.3646947,-66.5472309
20697,ALGARROBO GRANDE,GENERAL SAN MARTIN,,5473,-31.7800411,-65.8990063
30076,ALGARROBO LARGO,GENERAL JUAN FACUNDO QUIROGA,GENERAL JUAN F QUIROGA,5385,-30.8661286,-66.7890094
29952,ALLACAN,ARAUCO,ARAUCO,5311,-28.5261089,-66.9587308
30138,ALMAFUERTE,CHILECITO,CHILECITO,5360,-29.3869842,-67.4220157
14145,ALPASINCHE,SAN BLAS DE LOS SAUCES,,5325,-28.3246614,-67.0582441
14044,ALTILLO DEL MEDIO,GENERAL OCAMPO,,5274,,
14107,ALTO BAYO,ROSARIO VERA PEÑALOZA,,5470,-31.5781378,-66.5086632
13947,ALTO CARRIZAL,FAMATINA,,5361,-28.8665016,-67.5720016
29963,ALTO DEL BUMBON,CORONEL FELIPE VARELA,CORONEL FELIPE VARELA,5369,-29.5245056,-68.0699518
14173,ALTO JAGUE,VINCHINA,,5359,-28.6399973,-68.3497976
29929,ALUMBRERA,GENERAL LAMADRID,GENERAL LAMADRID,5355,-28.6922964,-69.1521199
14097,AMANA,INDEPENDENCIA,,5386,-30.0549710,-67.5034719
14045,AMBIL,GENERAL OCAMPO,,5475,-31.1307692,-66.3435608
13844,AMILGANCHO,CAPITAL,,5300,,
13893,AMINGA,CASTRO BARROS,CASTRO BARROS,5301,-28.8482610,-66.9300480
20322,AMPATA,CAPITAL,,5300,-29.7284784,-66.6102281
30177,AMPIZA DE ARRIBA,CAPITAL,CAPITAL,5300,-29.7758689,-66.9602435
14146,AMUSCHINA,SAN BLAS DE LOS SAUCES,,5329,-28.5731374,-67.1852358
13845,ANCHICO,CAPITAL,,5301,-29.5749327,-66.4362940
21844,ANCHUMBIL,CORONEL FELIPE VARELA,,5361,-29.2651570,-68.1716540
30064,ANDACOY,GENERAL JUAN FACUNDO QUIROGA,GENERAL JUAN F QUIROGA,5385,-30.6164552,-67.2624851
30070,ANDAREOYA,GENERAL JUAN FACUNDO QUIROGA,GENERAL JUAN F QUIROGA,5385,-30.7092439,-66.9725878
14147,ANDOLUCAS,SAN BLAS DE LOS SAUCES,,5329,-28.5000023,-67.1335625
13909,ANGUINAN,CHILECITO,CHILECITO,5363,-29.1977558,-67.4506226
13948,ANGULOS,FAMATINA,,5361,-28.6536819,-67.6552720
13894,ANILLACO,CASTRO BARROS,CASTRO BARROS,5301,-28.8210812,-66.9482727
13895,ANJULLON,CASTRO BARROS,CASTRO BARROS,5303,-28.7189846,-66.9300537
13949,ANTINACO,FAMATINA,FAMATINA,5361,-28.8226299,-67.3029480
14050,ANZULON,GENERAL OCAMPO,GENERAL OCAMPO,5275,-30.8578993,-66.2666698
13832,ARAUCO,ARAUCO,ARAUCO,5311,-28.5553800,-66.8013860
30132,ARGAÑARAZ,CHILECITO,CHILECITO,5360,-29.1811587,-67.6431491
30004,ATILES,GENERAL JUAN FACUNDO QUIROGA,GENERAL JUAN F QUIROGA,5385,-30.7582845,-66.6709194
27650,BAJO CARRIZAL,FAMATINA,FAMATINA,5361,-28.8885937,-67.5647036
20716,BAJO CORRAL DE ISAAC,GENERAL SAN MARTIN,,5473,,
20804,BAJO DE GALLO,INDEPENDENCIA,,5386,,
30027,BAJO DEL GALLO,GENERAL ANGEL VICENTE PEÑALOZA,GENERAL ANGEL V PEÑALOZA,5385,-30.4018841,-66.8660287
13987,BAJO GRANDE,GENERAL BELGRANO,,5383,-30.5714562,-66.1447612
13846,BAJO HONDO,CAPITAL,,5300,-29.7781020,-66.5903395
20699,BAJO HONDO,GENERAL SAN MARTIN,,5473,-31.6863938,-66.0115111
14174,BAJO JAGUE,VINCHINA,,5359,,
30015,BAJO VERDE,GENERAL ANGEL VICENTE PEÑALOZA,GENERAL ANGEL V PEÑALOZA,5385,-30.3798129,-66.5943553
30116,BAJOS DE LUCAS,CHAMICAL,CHAMICAL,5380,-30.3828040,-66.2577893
30115,BALDE DE ARRIBA,CHAMICAL,CHAMICAL,5380,-30.4053050,-66.3226512
20700,BALDE DEL QUEBRACHO,GENERAL SAN MARTIN,,5473,,
20774,BALDE SALADO,GENERAL OCAMPO,,5274,-31.1857735,-65.8370181
13988,BALDE SALADO,GENERAL BELGRANO,,5383,,
20825,BALDE SAN ISIDRO,INDEPENDENCIA,,5386,-30.2963980,-67.4406336
13989,BALDES DE PACHECO,GENERAL BELGRANO,,5276,-30.6624368,-66.0637261
30048,BALDES SUR,GENERAL BELGRANO,GENERAL BELGRANO,5276,-30.6711958,-66.0962964
13833,BAÑADOS DEL PANTANO,ARAUCO,ARAUCO,5310,-28.3828278,-66.8294158
13929,BANDA FLORIDA,CORONEL FELIPE VARELA,CORONEL FELIPE VARELA,5351,-29.3032950,-68.2439876
14108,BARRANQUITAS,ROSARIO VERA PEÑALOZA,,5474,,
14114,BARREAL DE MASCASIN,ROSARIO VERA PEÑALOZA,ROSARIO VERA PEÑALOZA,5470,-31.2070354,-67.0496688
20912,BAYO MUERTO,ROSARIO VERA PEÑALOZA,,5470,-31.1348008,-66.8100241
13847,BAZAN,CAPITAL,,5300,-29.1764764,-66.6614829
13967,BELLA VISTA,CHAMICAL,,5381,-30.5057654,-66.2581695
20984,BOCA DE LA QUEBRADA,VINCHINA,,5359,-28.5104810,-68.5121924
30146,BUENA VISTA,CAPITAL,CAPITAL,5300,-29.0200333,-66.0974317
20968,BUENA VISTA,VINCHINA,,5359,-28.7939836,-68.2309972
30214,BUENA VISTA,FAMATINA,FAMATINA,5361,-28.5414822,-67.6383349
13910,CACHIYUYAL,CHILECITO,,5367,,
29928,CAJON DE LA BREA,GENERAL LAMADRID,GENERAL LAMADRID,5355,-28.6843606,-69.1940528
30024,CALASACAN,GENERAL ANGEL VICENTE PEÑALOZA,GENERAL ANGEL V PEÑALOZA,5385,-30.5529676,-66.5151141
13843,CAMPANAS,FAMATINA,FAMATINA,5361,-28.5521202,-67.6303329
30084,CAMPO BLANCO,GENERAL JUAN FACUNDO QUIROGA,GENERAL JUAN F QUIROGA,5471,-31.0820724,-67.0338832
13848,CAMPO TRES POZOS,CAPITAL,,5301,-29.3916700,-66.5988981
14109,CAÑADA HONDA,ROSARIO VERA PEÑALOZA,,5470,,
14078,CAÑADA VERDE,GENERAL SAN MARTIN,,5471,,
20954,CAPIHUAS,SAN BLAS DE LOS SAUCES,,5327,,
29925,CARNERITO,GENERAL LAMADRID,GENERAL LAMADRID,5355,-28.4164961,-69.1834918
20323,CARRIZAL,CAPITAL,,5306,-28.9949626,-66.6315213
16586,CARRIZAL,GENERAL ANGEL VICENTE PEÑALOZA,GENERAL ANGEL V PEÑALOZA,5385,-30.6466929,-66.6746321
13952,CARRIZALILLO,FAMATINA,,5361,,
20588,CARRIZALILLO,GENERAL JUAN FACUNDO QUIROGA,,5385,,
14175,CASA PINTADA,VINCHINA,,5359,-28.3822373,-68.0003388
20589,CASAGATE,GENERAL JUAN FACUNDO QUIROGA,,5385,,
14012,CASANGATE,GENERAL JUAN FACUNDO QUIROGA,,5385,-30.7678874,-66.4955443
14110,CASAS VIEJAS,ROSARIO VERA PEÑALOZA,,5471,-31.0951990,-66.5095957
15672,CASTRO BARROS,GENERAL BELGRANO,GENERAL BELGRANO,5276,-30.5805705,-65.7286166
13911,CATINZACO,CHILECITO,,5374,-29.6570728,-67.3917175
13912,CATINZACO EMBARCADERO FCGB,CHILECITO,,5374,,
13849,CEBOLLAR,CAPITAL,,5300,-29.0903548,-66.5675236
20955,CERRO NEGRO,SAN BLAS DE LOS SAUCES,,5327,,
14008,CHAMICAL,CHAMICAL,CHAMICAL,5380,-30.3609810,-66.3125687
14047,CHAÑAR,GENERAL BELGRANO,GENERAL BELGRANO,5276,-30.5415554,-65.9581422
30168,CHAÑAR DE VIÑA,CAPITAL,CAPITAL,5300,-29.6093361,-66.7791605
20665,CHAÑARMUYO,FAMATINA,,5361,-28.6049206,-67.5835712
30161,CHANCAY,CAPITAL,CAPITAL,5300,-29.5310369,-66.8106350
30162,CHANCAY GRANDE,CAPITAL,CAPITAL,5300,-29.5704566,-66.8312334
14148,CHAUPIHUASI,SAN BLAS DE LOS SAUCES,,5327,-28.3524818,-67.0775207
20913,CHELCOS,ROSARIO VERA PEÑALOZA,,5475,-31.2455542,-66.3995674
14111,CHEPES,ROSARIO VERA PEÑALOZA,ROSARIO VERA PEÑALOZA,5470,-31.3375778,-66.5925751
20916,CHEPES VIEJO,ROSARIO VERA PEÑALOZA,,5470,-31.2608233,-66.5857346
30196,CHILA,GENERAL ANGEL VICENTE PEÑALOZA,GENERAL ANGEL V PEÑALOZA,5385,-30.4623494,-66.5353813
13913,CHILECITO,CHILECITO,CHILECITO,5360,-29.1615944,-67.4951553
14013,CHIMENEA,GENERAL JUAN FACUNDO QUIROGA,,5385,-30.6844876,-66.3972715
29953,CHIÑICOMAYO,CASTRO BARROS,CASTRO BARROS,5301,-28.7196795,-66.8195001
13901,CHULO,CHAMICAL,,5380,-30.4055081,-66.2625954
20325,CHUMBICHA,CAPITAL,,5300,,
13896,CHUQUIS,CASTRO BARROS,CASTRO BARROS,5301,-28.8842659,-66.9814453
29971,CIENAGA ALTA,CORONEL FELIPE VARELA,CORONEL FELIPE VARELA,5350,-29.1994114,-68.7384716
30200,CIENAGUITA,CORONEL FELIPE VARELA,CORONEL FELIPE VARELA,5353,-29.3312902,-68.8294363
13974,COLONIA ALFREDO,GENERAL ANGEL VICENTE PEÑALOZA,,5380,,
13990,COLONIA EL CISCO,GENERAL BELGRANO,GENERAL BELGRANO,5383,-30.7247613,-66.1809309
30136,COLONIA MALLIGASTA,CHILECITO,CHILECITO,5361,-29.1987229,-67.3976423
14048,COLONIA ORTIZ DE OCAMPO,GENERAL OCAMPO,,5275,-30.9644116,-66.1676090
30140,COLONIA VICHIGASTA,CHILECITO,CHILECITO,5374,-29.4660196,-67.5130003
14049,COMANDANTE LEAL,GENERAL OCAMPO,GENERAL OCAMPO,5272,-30.8840015,-65.7904710
20956,CORDOBITA,SAN BLAS DE LOS SAUCES,,5327,,
30090,CORRAL ALFORJA,CHAMICAL,CHAMICAL,5380,-29.8666867,-65.7999817
29934,CORRAL COLORADO,FAMATINA,,5361,-28.7172976,-67.7007394
14079,CORRAL DE ISAAC,GENERAL SAN MARTIN,,5471,-31.9350331,-66.3634239
30071,CORRAL DE PALO,GENERAL JUAN FACUNDO QUIROGA,GENERAL JUAN F QUIROGA,5385,-30.7433091,-66.9927783
14080,CORTADERAS,GENERAL BELGRANO,,5381,-30.5464255,-66.2389755
20701,CORTADERAS EMBARCADERO FCGB,GENERAL SAN MARTIN,,5474,,
20775,CUATRO ESQUINAS,GENERAL OCAMPO,,5274,,
14081,CUATRO ESQUINAS,GENERAL SAN MARTIN,,5473,-31.8076007,-65.8699754
29942,CUEVA DE PEREZ,FAMATINA,,5361,-28.9977513,-67.7334130
20809,CUEVA DEL CHACHO,INDEPENDENCIA,,5386,,
30142,CUEVA ROMERO,CHILECITO,CHILECITO,5360,-29.0546494,-67.6961720
14149,CUIPAN,SAN BLAS DE LOS SAUCES,,5329,-28.4628186,-67.1222834
30206,DEL ROSARIO,CAPITAL,CAPITAL,5300,-29.6836527,-66.7823027
14112,DESIDERIO TELLO,ROSARIO VERA PEÑALOZA,ROSARIO VERA PEÑALOZA,5474,-31.2116203,-66.3154373
14051,DIQUE LOS SAUCES,GENERAL OCAMPO,,5274,,
20977,DIQUE LOS SAUCES,SANAGASTA,,5300,,
28085,DISTRITO PUEBLO,VINCHINA,VINCHINA,5359,,
30062,DON FELIPE,ROSARIO VERA PEÑALOZA,ROSARIO VERA PEÑALOZA,5470,-31.4939835,-66.5139260
30005,DON FIDEL,GENERAL ANGEL VICENTE PEÑALOZA,GENERAL ANGEL V PEÑALOZA,5385,-29.8557152,-66.8208250
29933,EL ABRA,FAMATINA,,5361,-28.6799212,-67.6587823
20702,EL ABRA,GENERAL SAN MARTIN,,5473,-31.4887986,-66.2641561
30212,EL AGENCAL,FAMATINA,FAMATINA,5361,-28.8192254,-67.7208764
14037,EL ALTILLO,GENERAL LAMADRID,,5355,,
20744,EL ALTO,GENERAL BELGRANO,,5383,,
30014,EL ALTO,GENERAL ANGEL VICENTE PEÑALOZA,GENERAL ANGEL V PEÑALOZA,5385,-30.3677027,-66.5722058
14113,EL ALTO,ROSARIO VERA PEÑALOZA,,5470,,
14082,EL BALDE,GENERAL SAN MARTIN,,5471,,
29990,EL BALDE DE MEDANITO,INDEPENDENCIA,INDEPENDENCIA,5386,-30.2464202,-67.2205006
29964,EL BAÑADO,CORONEL FELIPE VARELA,CORONEL FELIPE VARELA,5369,-29.5482842,-68.1101622
14014,EL BARRANCO,GENERAL JUAN FACUNDO QUIROGA,,5385,,
20326,EL BARREAL,CAPITAL,CAPITAL,5301,-29.6062449,-66.0953641
29988,EL BARREAL,INDEPENDENCIA,INDEPENDENCIA,5386,-30.0026499,-66.9928559
20917,EL BARRIAL,ROSARIO VERA PEÑALOZA,,5471,-31.2515375,-66.7215007
30165,EL BARRIALITO,CAPITAL,CAPITAL,5300,-29.5233455,-66.6523258
13850,EL BAYITO,CAPITAL,,5301,-29.5102213,-66.2442912
30185,EL BOMBILLO,CAPITAL,CAPITAL,5300,-29.5221580,-65.6777073
20745,EL BORDO,GENERAL BELGRANO,,5276,-30.5929550,-65.9790441
30037,EL CADILLO,GENERAL SAN MARTIN,GENERAL SAN MARTIN,5473,-31.8884221,-65.7725734
14083,EL CALDEN,GENERAL SAN MARTIN,,5717,-31.8969555,-65.8265909
20328,EL CANTADERO,CAPITAL,,5300,-29.1841699,-66.8054278
29978,EL CARDON,CORONEL FELIPE VARELA,CORONEL FELIPE VARELA,5361,-29.5055746,-67.7552537
20590,EL CARRIZAL,GENERAL JUAN FACUNDO QUIROGA,,5475,,
14052,EL CARRIZAL,GENERAL OCAMPO,,5475,,
14084,EL CATORCE,GENERAL SAN MARTIN,,5474,,
14053,EL CERCO,GENERAL OCAMPO,,5475,-31.1051026,-66.4309287
30082,EL CHACON,GENERAL JUAN FACUNDO QUIROGA,GENERAL JUAN F QUIROGA,5471,-30.9580482,-67.0666230
30147,EL CHAÑAR,CAPITAL,CAPITAL,5300,-29.0384839,-66.3889351
30023,EL CHAÑAR,GENERAL ANGEL VICENTE PEÑALOZA,GENERAL ANGEL V PEÑALOZA,5385,-30.5702122,-66.7351881
29996,EL CHAÑAR,INDEPENDENCIA,INDEPENDENCIA,5386,-30.4329320,-67.1952245
20811,EL CHIFLON,INDEPENDENCIA,,5386,-30.2101869,-67.5568878
13954,EL CHOCOY,FAMATINA,,5361,,
21845,EL CHUSCHIN,CORONEL FELIPE VARELA,,5361,-29.2746220,-67.8885117
13991,EL CHUSCO,GENERAL BELGRANO,,5276,,
14054,EL CIENAGO,GENERAL OCAMPO,,5275,,
20750,EL CIENAGO,GENERAL BELGRANO,GENERAL BELGRANO,5381,-30.7412887,-66.2245523
14115,EL CINCUENTA,ROSARIO VERA PEÑALOZA,,5470,,
14038,EL CONDADO,GENERAL LAMADRID,,5355,-28.9803324,-68.2139753
20776,EL CONSUELO,GENERAL OCAMPO,,5274,-30.7698623,-66.2037830
13946,EL DIVISADERO,ROSARIO VERA PEÑALOZA,,5470,-31.7265517,-66.7576049
13851,EL DURAZNILLO,CAPITAL,,5300,-29.2604731,-66.8302199
29920,EL DURAZNO,VINCHINA,VINCHINA,5359,-28.4155178,-68.0237536
13852,EL ESCONDIDO,CAPITAL,,5301,,
30166,EL ESTANQUE,CAPITAL,CAPITAL,5300,-29.5583608,-66.7252120
27823,EL ESTANQUITO,CAPITAL,,5301,-29.4201056,-66.5460214
29987,EL ESTANQUITO,INDEPENDENCIA,INDEPENDENCIA,5386,-29.9591874,-66.8965595
14055,EL FRAILE,GENERAL OCAMPO,,5274,-31.0622406,-65.9408378
13930,EL FUERTE,CORONEL FELIPE VARELA,,5351,-29.4171483,-68.2479415
20681,EL GARABATO,CHAMICAL,,5380,-30.2844561,-66.1396354
30057,EL GITANO,ROSARIO VERA PEÑALOZA,ROSARIO VERA PEÑALOZA,5470,-31.2480859,-67.0306525
14167,EL HORNO,VINCHINA,VINCHINA,5357,-28.7403631,-68.2194768
29980,EL JANILLAL,CORONEL FELIPE VARELA,CORONEL FELIPE VARELA,5361,-29.1471339,-68.5364636
30049,EL JARILLAL,GENERAL BELGRANO,GENERAL BELGRANO,5276,-30.7423488,-66.1396634
13955,EL JUMEAL,FAMATINA,,5365,-28.9535960,-67.5159420
20777,EL MEDANITO,GENERAL OCAMPO,,5272,,
20331,EL MEDANO,CAPITAL,,5263,,
30016,EL MILAGRO,GENERAL ANGEL VICENTE PEÑALOZA,GENERAL ANGEL V PEÑALOZA,5385,-30.4304172,-66.7654874
29994,EL MILAGRO,INDEPENDENCIA,INDEPENDENCIA,5386,-30.3637060,-67.5503741
30050,EL MOJONCITO,GENERAL BELGRANO,GENERAL BELGRANO,5383,-30.5357802,-66.0683089
30096,EL MOLINO,CHAMICAL,CHAMICAL,5380,-30.3476105,-65.8483099
14009,EL MOLLAR,CHAMICAL,,5381,-30.4728738,-66.2796820
13931,EL MOLLE,CORONEL FELIPE VARELA,,5350,-29.2887004,-68.2301826
30152,EL OMBU,CAPITAL,CAPITAL,5300,-29.2421189,-66.7399607
30145,EL PALMAR,CAPITAL,CAPITAL,5300,-28.8639612,-66.4241563
30127,EL PARRON,CHILECITO,CHILECITO,5360,-29.0989757,-67.6148178
13956,EL PEDREGAL,FAMATINA,,5361,,
30129,EL PIQUE,CHILECITO,CHILECITO,5360,-29.1487217,-67.6518145
20332,EL PLUMERILLO,CAPITAL,,5300,-29.6898870,-66.6462953
30086,EL PORONGO,GENERAL JUAN FACUNDO QUIROGA,GENERAL JUAN F QUIROGA,5385,-30.9755170,-66.5650241
14015,EL PORTEZUELO,GENERAL JUAN FACUNDO QUIROGA,,5385,-30.8405298,-66.7057868
30186,EL PORVENIR,CAPITAL,CAPITAL,5300,-29.6063583,-65.6429906
20668,EL POTRERILLO,FAMATINA,,5361,-28.3915594,-67.7073361
14016,EL POTRERILLO,GENERAL JUAN FACUNDO QUIROGA,,5385,,
14116,EL POTRERILLO,ROSARIO VERA PEÑALOZA,ROSARIO VERA PEÑALOZA,5475,-31.1439945,-66.4404752
14017,EL POTRERO,GENERAL JUAN FACUNDO QUIROGA,,5385,-30.9208111,-66.6766889
30135,EL POZO,CHILECITO,CHILECITO,5360,-29.2977116,-67.6474391
20957,EL PUEBLITO,SAN BLAS DE LOS SAUCES,,5327,,
29997,EL PUERTO,INDEPENDENCIA,INDEPENDENCIA,5386,-30.4922809,-66.9381543
13975,EL PUESTO,GENERAL ANGEL VICENTE PEÑALOZA,,5385,,
20747,EL QUEBRACHAL,GENERAL BELGRANO,,5383,-30.6614656,-66.1644158
30058,EL QUEBRACHITO,ROSARIO VERA PEÑALOZA,ROSARIO VERA PEÑALOZA,5470,-31.2494261,-66.9141254
20333,EL QUEBRACHO,CAPITAL,,5301,-29.2311981,-65.9687056
13992,EL QUEBRACHO,GENERAL BELGRANO,,5383,,
30169,EL QUEMADO,CAPITAL,CAPITAL,5300,-29.6391508,-66.6699096
20682,EL QUEMADO,CHAMICAL,,5380,,
14056,EL QUEMADO,GENERAL OCAMPO,,5475,-30.9806888,-66.3467830
30141,EL RETAMO,CHILECITO,CHILECITO,5374,-29.5561043,-67.4574498
13902,EL RETAMO,CHAMICAL,,5380,-30.1657682,-65.8694145
30148,EL RETIRO,CAPITAL,CAPITAL,5300,-29.1187868,-66.5932129
14150,EL RETIRO,SAN BLAS DE LOS SAUCES,,5325,-28.2605931,-66.9987334
30109,EL RETIRO,CHAMICAL,CHAMICAL,5380,-30.2322836,-66.3946527
20924,EL RODEO,ROSARIO VERA PEÑALOZA,,5471,-31.2608503,-66.7166704
13853,EL ROSARIO,CAPITAL,,5263,-29.2264904,-65.9142715
29959,EL SECADAL,SANAGASTA,SANAGASTA,5301,-29.3536480,-66.9991993
29975,EL SICILIANO,CORONEL FELIPE VARELA,CORONEL FELIPE VARELA,5361,-29.3788741,-67.7935827
30170,EL SUNCHAL,CAPITAL,CAPITAL,5300,-29.7787158,-66.5902436
14117,EL TALA,ROSARIO VERA PEÑALOZA,,5471,-31.6143899,-66.4250373
13854,EL TALA EX RN 38,CAPITAL,CAPITAL,5304,-29.6214499,-66.8983496
30218,EL TALA RP 5,CAPITAL,CAPITAL,5300,-29.3850878,-66.6324485
30160,EL TOPON,CAPITAL,CAPITAL,5300,-29.5065270,-66.7621266
29941,EL TOTORAL,FAMATINA,,5361,-28.9437731,-67.5672775
20703,EL VALDECITO,GENERAL SAN MARTIN,,5473,,
13855,EL VALLE,CAPITAL,,5301,,
14085,EL VALLECITO,GENERAL SAN MARTIN,,5360,,
30126,EL VALLECITO,CHILECITO,CHILECITO,5360,-29.1237540,-67.6527057
14057,EL VERDE,GENERAL OCAMPO,,5275,-30.8301765,-66.1255215
30069,EL ZORRO,GENERAL JUAN FACUNDO QUIROGA,GENERAL JUAN F QUIROGA,5385,-30.6884180,-66.9005433
30213,ESQUINA,CHAMICAL,CHAMICAL,5380,-30.4237001,-66.0912961
30055,ESQUINA,ROSARIO VERA PEÑALOZA,ROSARIO VERA PEÑALOZA,5470,-31.1551255,-66.8712147
13969,ESQUINA DEL NORTE,CHAMICAL,CHAMICAL,5380,-30.4171350,-66.0807954
13993,ESQUINA DEL SUD,GENERAL BELGRANO,,5383,-30.6582432,-66.1557130
14058,ESQUINA GRANDE,GENERAL OCAMPO,,5275,-30.9492667,-66.0531047
20335,ESTACION 69,CAPITAL,,5300,,
13834,ESTACION MAZAN,ARAUCO,ARAUCO,5313,-28.6715842,-66.4937543
21846,ESTANCIA DE MAIZ,CORONEL FELIPE VARELA,CORONEL FELIPE VARELA,5361,-29.1830327,-68.4568789
13976,FALDA DE CITAN,GENERAL ANGEL VICENTE PEÑALOZA,,5385,-30.6791203,-66.5502801
13957,FAMATINA,FAMATINA,FAMATINA,5365,-28.9211426,-67.5197601
20336,FLAMENCO,CAPITAL,,5300,,
30106,FLAMENCO,CHAMICAL,CHAMICAL,5380,-30.0693851,-66.4010001
14059,FRANCISCO ORTIZ DE OCAMPO,GENERAL OCAMPO,,5275,,
20683,GOBERNADOR GORDILLO,CHAMICAL,,5380,,
13914,GUANCHIN,CHILECITO,CHILECITO,5367,-29.1904939,-67.6380391
16418,GUANDACOL,CORONEL FELIPE VARELA,CORONEL FELIPE VARELA,5353,-29.5098593,-68.5522045
20813,GUAYAPA,INDEPENDENCIA,,5386,,
14162,HUACO,SANAGASTA,SANAGASTA,5301,-29.1704462,-67.0475457
14018,HUAJA,GENERAL JUAN FACUNDO QUIROGA,GENERAL JUAN F QUIROGA,5385,-30.6875036,-66.6807083
20778,HUNQUILLAL,GENERAL OCAMPO,,5274,,
13994,ILIAR,GENERAL BELGRANO,,5381,,
14019,ILLISCA,GENERAL JUAN FACUNDO QUIROGA,GENERAL JUAN F QUIROGA,5471,-31.0318718,-66.7754886
20925,ILLISCA,ROSARIO VERA PEÑALOZA,,5471,,
30139,ISHANCA,CHILECITO,CHILECITO,5360,-29.4180341,-67.5457548
29955,ISMIANGO,SANAGASTA,SANAGASTA,5301,-29.0522338,-67.0131617
13897,ISMIANGO,CASTRO BARROS,,5301,-29.0189171,-66.8885345
14177,JAGUE,VINCHINA,,5359,-28.6602821,-68.3825704
20337,JESUS MARIA,CAPITAL,,5300,-29.2183302,-65.9811831
30211,JUMEAL,CORONEL FELIPE VARELA,CORONEL FELIPE VARELA,5361,-29.7833473,-67.9332524
20779,KILOMETRO 619,GENERAL OCAMPO,,5272,,
20748,KILOMETRO 645,GENERAL BELGRANO,,5276,,
20705,KILOMETRO 682,GENERAL SAN MARTIN,,5275,,
20704,KILOMETRO 732,GENERAL SAN MARTIN,,5717,,
20339,KILOMETRO 861,CAPITAL,,5300,,
20340,KILOMETRO 875,CAPITAL,,5300,,
20208,KILOMETRO 891,ARAUCO,,5313,,
20211,KILOMETRO 921,ARAUCO,,5313,,
14118,LA AGUADA,ROSARIO VERA PEÑALOZA,,5470,-31.1018959,-66.6178368
14061,LA AGUADITA,GENERAL OCAMPO,,5275,-31.1025691,-66.3390387
30158,LA AGUADITA,CAPITAL,CAPITAL,5300,-29.3504645,-66.9029451
30215,LA AGUADITA,CHAMICAL,CHAMICAL,5380,-30.4029348,-66.3673451
30053,LA AGUADITA,GENERAL BELGRANO,GENERAL BELGRANO,5383,-30.6116266,-66.2736014
30025,LA AGUADITA,GENERAL ANGEL VICENTE PEÑALOZA,GENERAL ANGEL V PEÑALOZA,5385,-30.6123190,-66.6654970
20592,LA AGUADITA,GENERAL JUAN FACUNDO QUIROGA,,5385,-30.7913671,-66.4218451
20706,LA AMERICA,GENERAL SAN MARTIN,,5473,,
13857,LA ANTIGUA,CAPITAL,,5301,-29.8055583,-66.0991128
29991,LA ANTIGUA,INDEPENDENCIA,INDEPENDENCIA,5386,-30.2512625,-66.8696622
20985,LA ARMONIA,VINCHINA,,5359,-28.4525433,-68.4305267
14168,LA BANDA,VINCHINA,VINCHINA,5359,-28.8115655,-68.1914230
13958,LA BANDA,FAMATINA,,5365,,
30032,LA BARRERA,GENERAL OCAMPO,GENERAL OCAMPO,5275,-30.7900262,-66.2168783
29968,LA BREA,CORONEL FELIPE VARELA,CORONEL FELIPE VARELA,5353,-29.3536620,-68.6922669
30075,LA BREA MARCADA,GENERAL JUAN FACUNDO QUIROGA,GENERAL JUAN F QUIROGA,5385,-30.8460238,-66.8417670
30006,LA BREITA,GENERAL ANGEL VICENTE PEÑALOZA,GENERAL ANGEL V PEÑALOZA,5385,-29.9100231,-66.8119127
13858,LA BUENA ESTRELLA,CAPITAL,,5301,,
13859,LA BUENA SUERTE,CAPITAL,,5300,,
30155,LA CALERA,CAPITAL,CAPITAL,5300,-29.2875284,-66.8348619
29957,LA CALERA,SANAGASTA,SANAGASTA,5301,-29.0963404,-67.0263829
14119,LA CALERA,ROSARIO VERA PEÑALOZA,,5471,-31.2315255,-66.5582266
14120,LA CALLANA,ROSARIO VERA PEÑALOZA,,5471,-31.6601040,-66.3592975
20926,LA CARRIZANA,ROSARIO VERA PEÑALOZA,,5470,,
30172,LA CHILCA,CAPITAL,CAPITAL,5300,-29.8687734,-66.5524408
20707,LA CHILCA,GENERAL SAN MARTIN,,5473,-31.8335685,-65.8338094
20749,LA CHIMENEA,GENERAL BELGRANO,,5383,,
30056,LA CHUPINA,ROSARIO VERA PEÑALOZA,ROSARIO VERA PEÑALOZA,5470,-31.1951661,-66.8980933
20560,LA CIENAGA,CORONEL FELIPE VARELA,,5350,-29.2147947,-68.7072580
14178,LA CIENAGA,VINCHINA,,5350,-28.2873421,-68.2192917
30171,LA COMPAÑIA,CAPITAL,CAPITAL,5300,-29.8316523,-66.5630700
14121,LA CONSULTA,ROSARIO VERA PEÑALOZA,,5470,-31.6221555,-66.5187103
30110,LA CORTADA,CHAMICAL,CHAMICAL,5380,-30.2500781,-66.4271680
13959,LA CUADRA,FAMATINA,,5361,-28.4667839,-67.6920248
30066,LA CUEVA,GENERAL JUAN FACUNDO QUIROGA,GENERAL JUAN F QUIROGA,5385,-30.6324963,-67.1255019
30035,LA DIANA,GENERAL SAN MARTIN,GENERAL SAN MARTIN,5473,-31.3774828,-66.2543903
14062,LA DORA,GENERAL OCAMPO,,5475,,
29940,LA ENCRUCIJADA,FAMATINA,,5361,-28.9500134,-67.7000221
30074,LA ENVIDIA,GENERAL JUAN FACUNDO QUIROGA,GENERAL JUAN F QUIROGA,5385,-30.8457744,-67.1069211
20708,LA ENVIDIA,GENERAL SAN MARTIN,,5473,,
20928,LA ESCONDIDA,ROSARIO VERA PEÑALOZA,,5471,,
30045,LA ESPERANZA,GENERAL BELGRANO,GENERAL BELGRANO,5276,-30.5751908,-65.8282474
13860,LA ESPERANZA,CAPITAL,,5300,-29.4666656,-66.7500007
30088,LA ESPERANZA,CHAMICAL,CHAMICAL,5380,-29.8608445,-65.6481656
30068,LA ESPERANZA,GENERAL JUAN FACUNDO QUIROGA,GENERAL JUAN F QUIROGA,5385,-30.6917389,-67.0537562
14021,LA ESQUINA,GENERAL JUAN FACUNDO QUIROGA,,5471,,
20709,LA ESQUINA,GENERAL SAN MARTIN,,5473,,
30039,LA ESTRELLA,GENERAL SAN MARTIN,GENERAL SAN MARTIN,5473,-31.9353516,-66.1023157
20341,LA FLOR,CAPITAL,,5300,,
13996,LA FLORIDA,GENERAL BELGRANO,,5276,-30.5345279,-65.8706091
30151,LA GRACIELITA,CAPITAL,CAPITAL,5300,-29.1423186,-66.5928566
29922,LA GREDA,VINCHINA,VINCHINA,5359,-28.1832430,-68.0051419
29956,LA GREDITA,SANAGASTA,SANAGASTA,5301,-29.0693774,-67.0526423
20669,LA HIGUERA,FAMATINA,,5361,,
30163,LA HUELLA,CAPITAL,CAPITAL,5300,-29.5938309,-66.8262396
13997,LA HUERTA,GENERAL BELGRANO,,5383,-30.5549655,-66.2921343
14063,LA IGUALDAD,GENERAL OCAMPO,,5474,,
20684,LA INVERNADA,CHAMICAL,,5380,,
14087,LA ISLA,GENERAL OCAMPO,,5274,-31.2357742,-65.9587863
30036,LA ISLA,GENERAL SAN MARTIN,GENERAL SAN MARTIN,5473,-31.3966040,-65.9538465
30046,LA JARILLA,GENERAL BELGRANO,GENERAL BELGRANO,5276,-30.4707435,-66.0076508
14122,LA JARILLA,ROSARIO VERA PEÑALOZA,,5471,-31.4838713,-66.3943154
29936,LA JUNTA,FAMATINA,,5361,-28.8449003,-67.7711362
14123,LA LAGUNA,ROSARIO VERA PEÑALOZA,,5471,-31.1605472,-66.6539097
20342,LA LANCHA,CAPITAL,,5300,-29.2016917,-66.8059330
20344,LA LATA,CAPITAL,,5300,-29.2195911,-66.0988010
30009,LA LATA,GENERAL ANGEL VICENTE PEÑALOZA,GENERAL ANGEL V PEÑALOZA,5385,-30.1787726,-66.8357463
13861,LA LIBERTAD,CAPITAL,,5263,,
20710,LA LIBERTAD,GENERAL SAN MARTIN,,5473,,
30047,LA LLANURA,GENERAL BELGRANO,GENERAL BELGRANO,5276,-30.4646282,-66.0923433
13977,LA LOMITA,GENERAL ANGEL VICENTE PEÑALOZA,,5385,,
13933,LA MARAVILLA,CORONEL FELIPE VARELA,,5351,-29.4178437,-68.2482298
30031,LA MARUJA,GENERAL OCAMPO,GENERAL OCAMPO,5274,-30.8459540,-66.0604842
13978,LA MERCED,GENERAL ANGEL VICENTE PEÑALOZA,,5385,-30.2666708,-66.5833253
29937,LA MESADA,FAMATINA,,5361,-28.8632068,-67.5649831
30054,LA MORENA,ROSARIO VERA PEÑALOZA,ROSARIO VERA PEÑALOZA,5470,-31.1525755,-67.0559865
30012,LA NOBLEZA,GENERAL ANGEL VICENTE PEÑALOZA,GENERAL ANGEL V PEÑALOZA,5385,-30.2939593,-66.6132955
20970,LA PAMPA,VINCHINA,,5359,,
13934,LA PAMPA,CORONEL FELIPE VARELA,,5361,,
30011,LA PASION,GENERAL ANGEL VICENTE PEÑALOZA,GENERAL ANGEL V PEÑALOZA,5385,-30.3773834,-66.8487624
13935,LA PERLITA,CORONEL FELIPE VARELA,,5350,,
30081,LA PICONINA,GENERAL JUAN FACUNDO QUIROGA,GENERAL JUAN F QUIROGA,5385,-30.9034277,-67.0554602
14124,LA PINTADA,ROSARIO VERA PEÑALOZA,,5470,,
14151,LA PIRGUA,SAN BLAS DE LOS SAUCES,,5325,,
30073,LA PLATA,GENERAL JUAN FACUNDO QUIROGA,GENERAL JUAN F QUIROGA,5385,-30.7831819,-67.0212213
14152,LA PLAZA,SAN BLAS DE LOS SAUCES,,5329,,
30043,LA PORFIA,GENERAL SAN MARTIN,GENERAL SAN MARTIN,5471,-31.9193826,-66.5780310
14125,LA PRIMAVERA,ROSARIO VERA PEÑALOZA,,5470,,
30063,LA PUERTA,ROSARIO VERA PEÑALOZA,ROSARIO VERA PEÑALOZA,5470,-31.5472695,-66.5793413
30134,LA PUNTA,CHILECITO,CHILECITO,5360,-29.2636009,-67.6661755
13916,LA PUNTILLA,CHILECITO,,5367,-29.1617194,-67.4792175
13862,LA RAMADITA,CAPITAL,,5300,-29.5921350,-66.6943915
14126,LA REFORMA,ROSARIO VERA PEÑALOZA,,5471,,
29992,LA RENTERIA,INDEPENDENCIA,INDEPENDENCIA,5386,-30.2720070,-67.0580729
13979,LA REPRESA,GENERAL ANGEL VICENTE PEÑALOZA,,5385,,
20711,LA REPRESA,GENERAL SAN MARTIN,,5471,-31.8461703,-66.5530756
30179,LA REPRESA DE LOS VEGA,CAPITAL,CAPITAL,5300,-29.5593097,-66.6354956
30028,LA REPRESITA,GENERAL ANGEL VICENTE PEÑALOZA,GENERAL ANGEL V PEÑALOZA,5385,-30.3171982,-66.8642938
29984,LA REPRESITA,INDEPENDENCIA,INDEPENDENCIA,5386,-30.1132359,-67.4710775
30044,LA REPRESITA,GENERAL SAN MARTIN,GENERAL SAN MARTIN,5471,-31.8096213,-66.5305007
30092,LA RESISTENCIA,CHAMICAL,CHAMICAL,5380,-30.2294866,-65.6067662
13863,LA RIOJA,CAPITAL,CAPITAL,5300,-29.4132366,-66.8474274
13864,LA ROSILLA,CAPITAL,,5301,,
29926,LA SEPULTURA,GENERAL LAMADRID,GENERAL LAMADRID,5355,-28.4666762,-69.1168301
13903,LA SERENA,CHAMICAL,,5380,-30.2496331,-66.2555970
14022,LA TORDILLA,GENERAL JUAN FACUNDO QUIROGA,,5471,,
14098,LA TORRE,INDEPENDENCIA,,5386,-30.1547114,-67.5726288
13998,LA TRAMPA,GENERAL BELGRANO,,5383,,
30078,LA UNION,GENERAL JUAN FACUNDO QUIROGA,GENERAL JUAN F QUIROGA,5385,-30.8750408,-66.9365632
30000,LA VIUDA PANCHA,INDEPENDENCIA,INDEPENDENCIA,5386,-30.5151469,-67.2402991
14023,LA YESERA,GENERAL JUAN FACUNDO QUIROGA,,5471,,
14039,LAS AGUADITAS,GENERAL LAMADRID,,5355,-29.0800603,-68.0986260
30216,LAS AMOLADERAS,CHAMICAL,CHAMICAL,5380,-30.3864232,-66.3598043
30077,LAS ANGOSTURAS,GENERAL JUAN FACUNDO QUIROGA,GENERAL JUAN F QUIROGA,5385,-30.8916043,-66.8488675
20593,LAS BARRANCAS,GENERAL JUAN FACUNDO QUIROGA,,5471,-30.9670978,-66.8760853
14163,LAS BOMBAS,SANAGASTA,,5301,,
20345,LAS CAÑAS,CAPITAL,,5300,-29.2317806,-66.8211093
13865,LAS CATAS,CAPITAL,,5301,-29.2013557,-66.0200318
29972,LAS CUEVAS,CORONEL FELIPE VARELA,CORONEL FELIPE VARELA,5350,-29.2303494,-68.7079366
29939,LAS CUEVAS,FAMATINA,,5361,-28.9255597,-67.6746565
13960,LAS GREDAS,FAMATINA,,5365,,
13980,LAS HIGUERAS,GENERAL ANGEL VICENTE PEÑALOZA,,5385,,
20347,LAS HIGUERILLAS,CAPITAL,,5300,-29.2826462,-66.8312607
30130,LAS HIGUERITAS,CHILECITO,CHILECITO,5360,-29.1270369,-67.5681544
30153,LAS MESILLAS,CAPITAL,CAPITAL,5300,-29.2499055,-66.7249244
20835,LAS PADERCITAS,GENERAL LAMADRID,,5355,,
14064,LAS PALOMAS,GENERAL OCAMPO,,5275,,
30065,LAS PAMPAS,GENERAL JUAN FACUNDO QUIROGA,GENERAL JUAN F QUIROGA,5385,-30.6127367,-67.0236342
16584,LAS PEÑAS,SANAGASTA,,5301,-29.0852254,-67.0215204
30124,LAS PLACETAS,CHILECITO,CHILECITO,5360,-29.0882949,-67.7107684
14127,LAS SALINAS,ROSARIO VERA PEÑALOZA,,5471,,
13866,LAS SIERRAS BRAVAS,CAPITAL,,5301,,
14153,LAS TALAS,SAN BLAS DE LOS SAUCES,,5329,-28.4430467,-67.1196429
14128,LAS TOSCAS,ROSARIO VERA PEÑALOZA,,5471,-31.7508513,-66.7997256
30040,LAS TRES MARIAS,GENERAL SAN MARTIN,GENERAL SAN MARTIN,5473,-31.9201883,-66.2347166
21848,LAS TUCUMANESAS,CORONEL FELIPE VARELA,,5361,,
20222,LAS TUSCAS,ARAUCO,,5310,-28.2999749,-66.6499953
14129,LAS TUSCAS,ROSARIO VERA PEÑALOZA,,5470,,
13999,LAS VERTIENTES,GENERAL BELGRANO,,5276,,
30051,LOMA ALTA,GENERAL BELGRANO,GENERAL BELGRANO,5383,-30.5327136,-66.0982907
14000,LOMA BLANCA,GENERAL BELGRANO,GENERAL BELGRANO,5381,-30.6446138,-66.2387417
14001,LOMA LARGA,GENERAL BELGRANO,,5383,,
20606,LOMA LARGA,GENERAL JUAN FACUNDO QUIROGA,,5385,-30.7927623,-66.5355781
29998,LOMITA,INDEPENDENCIA,INDEPENDENCIA,5386,-30.4943818,-67.0001728
14154,LOROHUASI,SAN BLAS DE LOS SAUCES,,5325,-28.2624984,-67.0188613
30125,LOS ACACIOS,CHILECITO,CHILECITO,5360,-29.1045284,-67.6844086
30195,LOS AGUIRRES,GENERAL OCAMPO,GENERAL OCAMPO,5274,-30.8045126,-66.0894141
14066,LOS ALANICES,GENERAL OCAMPO,,5275,-30.7591037,-66.0048605
14024,LOS ALGARROBOS,GENERAL JUAN FACUNDO QUIROGA,,5385,-30.9397865,-66.4529056
20814,LOS BALDECITOS,INDEPENDENCIA,,5386,-30.2131195,-67.6915817
30038,LOS BALDECITOS,GENERAL SAN MARTIN,GENERAL SAN MARTIN,5473,-31.8548816,-65.8412593
13836,LOS BALDES,ARAUCO,,5310,,
30094,LOS BALDES,CHAMICAL,CHAMICAL,5380,-30.1458791,-65.8708059
30067,LOS BARREALES,GENERAL JUAN FACUNDO QUIROGA,GENERAL JUAN F QUIROGA,5385,-30.6645935,-67.2163584
14067,LOS BARRIACITOS,GENERAL OCAMPO,,5274,,
30008,LOS BARRIALES,GENERAL ANGEL VICENTE PEÑALOZA,GENERAL ANGEL V PEÑALOZA,5385,-30.1047450,-66.7573656
20780,LOS BARRIALITOS,GENERAL OCAMPO,,5274,-30.9855163,-66.0502202
30182,LOS BAZANES,CAPITAL,CAPITAL,5300,-29.5461642,-66.4749240
29938,LOS BERROS,FAMATINA,,5361,-28.8875507,-67.6948025
30133,LOS BORDOS,CHILECITO,CHILECITO,5360,-29.2163193,-67.6791374
13904,LOS BORDOS,CHAMICAL,,5380,-30.3298979,-66.3653869
29932,LOS CAZADORES,FAMATINA,,5361,-28.3990237,-67.6115362
13867,LOS CERRILLOS,CAPITAL,,5301,,
14099,LOS COLORADOS,INDEPENDENCIA,,5386,-29.8940106,-67.1495141
14130,LOS CORIAS,ROSARIO VERA PEÑALOZA,,5471,,
13961,LOS CORRALES,FAMATINA,,5361,-28.8349617,-67.6366297
29965,LOS DIVISADEROS,CORONEL FELIPE VARELA,CORONEL FELIPE VARELA,5369,-29.5566497,-68.0860979
13936,LOS FRANCES,CORONEL FELIPE VARELA,,5350,,
30159,LOS HAIVAS,CAPITAL,CAPITAL,5300,-29.5014408,-66.7124559
30164,LOS HERRERAS,CAPITAL,CAPITAL,5300,-29.7232827,-66.9100185
30143,LOS MANZANOS,CHILECITO,CHILECITO,5360,-29.2157232,-67.6602754
14068,LOS MISTOLES,GENERAL OCAMPO,,5275,-30.8006049,-66.3176249
20817,LOS MOGOTES COLORADOS,INDEPENDENCIA,,5386,-30.0323390,-67.0860839
13898,LOS MOLINOS,CASTRO BARROS,CASTRO BARROS,5301,-28.7442589,-66.9417419
30097,LOS MONTONEROS,CHAMICAL,CHAMICAL,5380,-30.3599159,-65.9129140
29999,LOS MORALES,INDEPENDENCIA,INDEPENDENCIA,5386,-30.5033071,-67.0894004
14155,LOS OLIVARES,SAN BLAS DE LOS SAUCES,,5327,,
20929,LOS OLMOS,ROSARIO VERA PEÑALOZA,,5470,,
14131,LOS OROS,ROSARIO VERA PEÑALOZA,,5470,-31.3376740,-66.5289857
13938,LOS PALACIOS,CORONEL FELIPE VARELA,CORONEL FELIPE VARELA,5351,-29.3713119,-68.2271328
29977,LOS PASTILLOS,CORONEL FELIPE VARELA,CORONEL FELIPE VARELA,5361,-29.4828376,-67.8296396
30034,LOS POCITOS,GENERAL OCAMPO,GENERAL OCAMPO,5275,-31.1152015,-66.3169240
30042,LOS RANCHOS,GENERAL SAN MARTIN,GENERAL SAN MARTIN,5471,-31.9428484,-66.5605172
14156,LOS ROBLES,SAN BLAS DE LOS SAUCES,SAN BLAS DE LOS SAUCES,5329,-28.4517975,-67.1178979
30117,LOS TALAS,CHAMICAL,CHAMICAL,5380,-30.3823462,-66.3028039
13939,LOS TAMBILLOS,CORONEL FELIPE VARELA,,5361,-29.4183640,-67.8088591
30007,LOS TATAS,GENERAL ANGEL VICENTE PEÑALOZA,GENERAL ANGEL V PEÑALOZA,5385,-30.0638992,-66.8006381
29974,LOS VISCOS,CORONEL FELIPE VARELA,CORONEL FELIPE VARELA,5351,-29.3411031,-68.0422466
13837,MACHIGASTA,ARAUCO,ARAUCO,5311,-28.5414268,-66.7916338
30010,MACHO MUERTO,GENERAL ANGEL VICENTE PEÑALOZA,GENERAL ANGEL V PEÑALOZA,5385,-30.2753259,-66.7453045
29930,MAJADITA,GENERAL LAMADRID,GENERAL LAMADRID,5355,-28.7307823,-69.1604257
14025,MALANZAN,GENERAL JUAN FACUNDO QUIROGA,GENERAL JUAN F QUIROGA,5385,-30.8067748,-66.6027438
13918,MALLIGASTA,CHILECITO,CHILECITO,5361,-29.1648064,-67.4328232
14132,MASCASIN,ROSARIO VERA PEÑALOZA,ROSARIO VERA PEÑALOZA,5471,-31.3920811,-66.9784106
13868,MEDANO,CAPITAL,,5300,,
13869,MESILLAS BLANCAS,CAPITAL,,5301,,
14069,MILAGRO,GENERAL OCAMPO,GENERAL OCAMPO,5274,-31.0098476,-65.9946060
30029,MIRAFLORES,GENERAL OCAMPO,GENERAL OCAMPO,5274,-30.7581227,-65.8065287
13919,MIRANDA,CHILECITO,,5367,-29.3321149,-67.6370656
30033,MOLLACO,GENERAL OCAMPO,GENERAL OCAMPO,5275,-30.9762225,-66.4148686
14026,MOLLACO,GENERAL JUAN FACUNDO QUIROGA,,5385,,
29950,MONSEÑOR ENRIQUE ANGELELLI,SAN BLAS DE LOS SAUCES,SAN BLAS DE LOS SAUCES,5327,-28.3877383,-67.0747100
20752,MONTE GRANDE,GENERAL BELGRANO,,5383,-30.6932359,-65.6304399
29916,MULAS MUERTAS,VINCHINA,VINCHINA,5359,-28.2783835,-68.7619302
30174,MUSITIAN,CAPITAL,CAPITAL,5300,-30.0065597,-66.4562060
14027,NACATE,GENERAL JUAN FACUNDO QUIROGA,,5385,-30.8512557,-66.4245473
29967,NACIMIENTA,CORONEL FELIPE VARELA,CORONEL FELIPE VARELA,5353,-29.5475955,-68.5982502
13937,NACIMIENTO,CORONEL FELIPE VARELA,CORONEL FELIPE VARELA,5353,-29.2002250,-68.6835064
14002,NEPES,GENERAL BELGRANO,,5276,-30.6782614,-66.0054639
13920,NONOGASTA,CHILECITO,CHILECITO,5372,-29.3054485,-67.4960861
14133,ÑOQUEVES,ROSARIO VERA PEÑALOZA,,5471,-31.2054088,-66.7530132
14088,NUEVA ESPERANZA,GENERAL SAN MARTIN,,5473,-31.9207535,-66.2348566
30099,NUEVO,CHAMICAL,CHAMICAL,5380,-30.3552565,-65.9852544
29973,OJO DE AGUA,CORONEL FELIPE VARELA,CORONEL FELIPE VARELA,5353,-29.6105165,-68.9576061
29944,OLCAVIL,FAMATINA,,5361,-28.7122429,-67.3673859
14070,OLPAS,GENERAL OCAMPO,,5275,-30.8049903,-66.2454965
14003,OLTA,GENERAL BELGRANO,GENERAL BELGRANO,5383,-30.6287346,-66.2650146
29961,ORMEÑO,CORONEL FELIPE VARELA,CORONEL FELIPE VARELA,5350,-29.5294728,-68.2383060
13981,PACATALA,GENERAL ANGEL VICENTE PEÑALOZA,,5385,-30.6370484,-66.4389515
14040,PADERCITAS,GENERAL LAMADRID,,5355,,
13940,PAGANCILLO,CORONEL FELIPE VARELA,,5369,-29.5415365,-68.0968785
14100,PAGANZO,INDEPENDENCIA,,5386,-30.2115438,-67.2866620
30184,PALO CRUZ,CAPITAL,CAPITAL,5300,-29.4458210,-66.3530361
20455,PALO LABRADO,CHAMICAL,,5380,,
30059,PAMPA CHICA,ROSARIO VERA PEÑALOZA,ROSARIO VERA PEÑALOZA,5470,-31.3011702,-66.6532366
30085,PAMPA DE ESPECHE,GENERAL JUAN FACUNDO QUIROGA,GENERAL JUAN F QUIROGA,5471,-31.0870793,-66.6289322
29958,PAMPA DE LA VIUDA,SANAGASTA,SANAGASTA,5301,-29.2733546,-67.1434091
26288,PARAJE MONTE GRANDE,GENERAL OCAMPO,,5276,,
20688,PARECITAS,GENERAL LAMADRID,,5355,-28.9963895,-68.2596074
13941,PASO SAN ISIDRO,CORONEL FELIPE VARELA,,5351,-29.4698644,-68.2286475
29924,PASTILLOS,GENERAL LAMADRID,GENERAL LAMADRID,5355,-28.3889575,-69.1283417
20689,PASTOS LARGOS,GENERAL LAMADRID,,5355,-28.5000551,-69.1333373
14101,PATQUIA,INDEPENDENCIA,INDEPENDENCIA,5386,-30.0439644,-66.8819674
29989,PATQUIA VIEJO,INDEPENDENCIA,INDEPENDENCIA,5386,-30.1676288,-66.9442976
14169,PEÑAS BLANCAS,VINCHINA,,5359,,
21850,PIEDRA DE TALAMPAYA,CORONEL FELIPE VARELA,,5361,,
14071,PIEDRA LARGA,GENERAL OCAMPO,,5475,,
21849,PIEDRA PINTADA,CORONEL FELIPE VARELA,,5361,-29.4481373,-67.8259888
13899,PINCHAS,CASTRO BARROS,CASTRO BARROS,5301,-28.9304047,-66.9514160
13962,PITUIL,FAMATINA,FAMATINA,5361,-28.5776482,-67.4417648
13963,PLAZA NUEVA,FAMATINA,,5365,,
13964,PLAZA VIEJA,FAMATINA,,5361,-28.9693117,-67.5155859
13905,POLCO,CHAMICAL,,5380,-30.4190237,-66.3470466
30041,PORTEZUELO DE ARCE,GENERAL SAN MARTIN,GENERAL SAN MARTIN,5471,-31.8959287,-66.3577742
14134,PORTEZUELO DE LOS ARCE,ROSARIO VERA PEÑALOZA,,5471,,
14170,POTRERO GRANDE,VINCHINA,,5359,-28.3106525,-68.2398038
13870,POZO BLANCO,CAPITAL,,5301,,
13871,POZO DE AVILA,CAPITAL,,5300,-29.3666771,-66.7833474
20685,POZO DE LA ORILLA,CHAMICAL,,5380,,
13872,POZO DE LA YEGUA,CAPITAL,,5301,-29.7022184,-65.9827141
30173,POZO DE LOS MEDANOS,CAPITAL,CAPITAL,5300,-29.9245985,-66.4525401
20713,POZO DE PIEDRA,GENERAL SAN MARTIN,,5473,-31.7907352,-66.2059431
14072,POZO DEL MEDIO,GENERAL OCAMPO,,5274,-31.0232811,-65.8893414
30118,POZO DEL MOLLE,CHAMICAL,CHAMICAL,5380,-30.1755981,-66.1644901
20351,POZO ESCONDIDO,CAPITAL,,5300,-29.4238471,-66.3299899
30091,POZO REDONDO,CHAMICAL,CHAMICAL,5380,-30.1411740,-65.5791535
29919,POZUELOS,VINCHINA,VINCHINA,5359,-28.6499673,-68.1166256
29923,PUCHA PUCHA,GENERAL LAMADRID,GENERAL LAMADRID,5355,-28.3494404,-69.2171631
29954,PUERTA DEL CURA,CASTRO BARROS,CASTRO BARROS,5301,-29.0314696,-66.8869626
13874,PUERTO ALEGRE,CAPITAL,,5300,-29.3166522,-66.7666790
13942,PUERTO ALEGRE,CORONEL FELIPE VARELA,,5361,-29.4355716,-67.9051344
13875,PUERTO DEL VALLE,CAPITAL,,5301,-29.7181074,-65.9577082
14090,PUESTO DE CARRIZO,GENERAL SAN MARTIN,,5471,,
14028,PUESTO DE LOS SANCHEZ,GENERAL JUAN FACUNDO QUIROGA,,5471,,
14091,PUESTO DICHOSO,GENERAL SAN MARTIN,,5471,-31.9204168,-66.5382677
30026,PUESTO SANTA CRUZ,GENERAL ANGEL VICENTE PEÑALOZA,GENERAL ANGEL V PEÑALOZA,5385,-30.5395550,-66.3987351
20819,PUESTO TALITA,INDEPENDENCIA,,5386,,
20608,PULUCHAN,GENERAL JUAN FACUNDO QUIROGA,,5385,-30.9825403,-66.6783771
20690,PUNTA DE AGUA,GENERAL LAMADRID,,5355,,
29917,PUNTA DE AGUA,VINCHINA,VINCHINA,5359,-28.6000199,-68.6499696
13982,PUNTA DE LOS LLANOS,GENERAL ANGEL VICENTE PEÑALOZA,GENERAL ANGEL V PEÑALOZA,5384,-30.1520252,-66.5451202
30022,PUNTA DE TAMA,GENERAL ANGEL VICENTE PEÑALOZA,GENERAL ANGEL V PEÑALOZA,5385,-30.5432080,-66.6296943
30199,PUNTA DEL AGUA,VINCHINA,VINCHINA,5359,-28.1226061,-67.9734143
14135,PUNTA DEL CERRO,ROSARIO VERA PEÑALOZA,,5470,,
13876,PUNTA DEL NEGRO,CAPITAL,,5300,-29.0180581,-66.4897312
13906,QUEBRACHAL,CHAMICAL,,5381,-30.4916370,-66.1804907
20686,QUEBRACHO HERRADO,CHAMICAL,,5380,,
27730,QUEBRADA DE LOS CONDORES,GENERAL ANGEL VICENTE PEÑALOZA,,5385,,
14136,QUEBRADA DEL VALLECITO,ROSARIO VERA PEÑALOZA,,5471,,
29927,RANCHILLOS,GENERAL LAMADRID,GENERAL LAMADRID,5355,-28.5948784,-69.1773819
14137,REAL DEL CADILLO,ROSARIO VERA PEÑALOZA,,5471,-31.3561402,-66.8098524
20820,REPRESA DE LA PUNTA,INDEPENDENCIA,,5386,-30.2018271,-67.4547520
30021,REPRESA DEL MONTE,GENERAL ANGEL VICENTE PEÑALOZA,GENERAL ANGEL V PEÑALOZA,5385,-30.4763922,-66.6077429
20931,REPRESA DEL MONTE,ROSARIO VERA PEÑALOZA,,5470,,
14029,RETAMAL,GENERAL JUAN FACUNDO QUIROGA,GENERAL JUAN F QUIROGA,5385,-30.7694106,-66.7986685
14030,RIO DE LAS CAÑAS,GENERAL JUAN FACUNDO QUIROGA,,5385,,
27541,RIOS DE LAS MESADAS,GENERAL ANGEL VICENTE PEÑALOZA,,5385,,
27540,RIOS DE LOS COLCOLES,GENERAL ANGEL VICENTE PEÑALOZA,,5385,,
14041,RIVADAVIA,GENERAL LAMADRID,,5355,-28.9981224,-68.2092922
29921,ROSARIO,VINCHINA,VINCHINA,5359,-28.2668473,-68.1413566
30113,ROSILLO MUERTO,CHAMICAL,CHAMICAL,5380,-30.3261939,-66.4188297
30157,SALADILLO,CAPITAL,CAPITAL,5300,-29.3365995,-66.8848219
30098,SALADO SUR,CHAMICAL,CHAMICAL,5380,-30.2903480,-65.9605637
14031,SALANA,GENERAL JUAN FACUNDO QUIROGA,,5385,-31.0292145,-66.6192808
14157,SALICAS,SAN BLAS DE LOS SAUCES,,5327,-28.3742196,-67.0724089
14102,SALINAS DE BUSTOS,INDEPENDENCIA,,5386,,
21852,SALINAS DEL LEONCITO,CORONEL FELIPE VARELA,,5361,,
13921,SAMAY HUASI,CHILECITO,,5360,,
20353,SAN AGUSTIN,CAPITAL,,5300,,
13877,SAN ANTONIO,CAPITAL,,5301,-29.2400646,-66.1488257
13838,SAN ANTONIO,ARAUCO,ARAUCO,5310,-28.5545515,-66.7890972
30104,SAN ANTONIO,CHAMICAL,CHAMICAL,5380,-30.3056826,-66.1935372
20932,SAN ANTONIO,ROSARIO VERA PEÑALOZA,,5470,-31.7452502,-66.8026920
14032,SAN ANTONIO,GENERAL JUAN FACUNDO QUIROGA,,5471,-31.0864103,-66.7327747
14092,SAN ANTONIO,GENERAL SAN MARTIN,,5473,,
30112,SAN BARTOLO,CHAMICAL,CHAMICAL,5380,-30.2954434,-66.3023524
13878,SAN BERNARDO,CAPITAL,,5301,-29.4475147,-66.0100210
13943,SAN BERNARDO,CORONEL FELIPE VARELA,,5350,-29.5498765,-68.6193643
27971,SAN BLAS,SAN BLAS DE LOS SAUCES,SAN BLAS DE LOS SAUCES,5327,-28.4093177,-67.0927535
30061,SAN CARLOS,ROSARIO VERA PEÑALOZA,ROSARIO VERA PEÑALOZA,5470,-31.4055302,-66.5316194
14073,SAN CRISTOBAL,GENERAL OCAMPO,,5274,-30.8736395,-65.9276221
30180,SAN FRANCISCO,CAPITAL,CAPITAL,5300,-29.5839757,-66.5779826
30019,SAN FRANCISCO,GENERAL ANGEL VICENTE PEÑALOZA,GENERAL ANGEL V PEÑALOZA,5385,-30.5000913,-66.7534048
20354,SAN GUILLERMO,CAPITAL,,5300,,
13879,SAN IGNACIO,CAPITAL,,5301,,
30202,SAN ISIDRO,CAPITAL,CAPITAL,5300,-29.1666697,-66.0166679
30101,SAN ISIDRO,CHAMICAL,CHAMICAL,5380,-30.2464396,-66.0537082
30079,SAN ISIDRO,GENERAL JUAN FACUNDO QUIROGA,GENERAL JUAN F QUIROGA,5385,-30.8887849,-66.9680352
27733,SAN ISIDRO,ROSARIO VERA PEÑALOZA,,5471,-31.7883110,-66.3249301
30203,SAN ISIDRO RP 27,GENERAL JUAN FACUNDO QUIROGA,GENERAL JUAN F QUIROGA,5385,-30.6931357,-67.1520343
20356,SAN JAVIER,CAPITAL,,5300,-29.9769335,-66.4787146
13880,SAN JOSE,CAPITAL,,5301,-29.4896538,-66.2584142
20564,SAN JOSE,CORONEL FELIPE VARELA,,5350,-29.3616047,-67.8012695
30102,SAN JOSE,CHAMICAL,CHAMICAL,5380,-30.2099294,-66.1204220
14138,SAN JOSE,ROSARIO VERA PEÑALOZA,,5471,-31.6986339,-66.4850097
14074,SAN JOSE,GENERAL OCAMPO,,5475,-30.8828938,-66.1954615
20357,SAN JUAN,CAPITAL,,5300,-29.3500269,-66.4498808
13881,SAN LORENZO,CAPITAL,,5301,-29.3382948,-66.3647948
30131,SAN LORENZO,CHILECITO,CHILECITO,5360,-29.1463976,-67.4931743
30149,SAN LUIS,CAPITAL,CAPITAL,5300,-29.1731977,-66.5221391
13882,SAN MARTIN,CAPITAL,,5300,,
30002,SAN MIGUEL,CAPITAL,CAPITAL,5301,-29.6299343,-66.0956664
13922,SAN MIGUEL,CHILECITO,CHILECITO,5361,-29.1846748,-67.4780827
13884,SAN NICOLAS,CAPITAL,,5301,-29.9587993,-66.5760559
13923,SAN NICOLAS,CHILECITO,,5360,-29.1180212,-67.4730815
30114,SAN NICOLAS,CHAMICAL,CHAMICAL,5380,-30.4151242,-66.2815364
20714,SAN NICOLAS,GENERAL SAN MARTIN,,5473,,
30108,SAN NICOLAS DE BARI,CHAMICAL,CHAMICAL,5380,-30.2222239,-66.3256518
30183,SAN PEDRO,CAPITAL,CAPITAL,5300,-29.4943856,-66.4488190
16585,SAN PEDRO,CASTRO BARROS,CASTRO BARROS,5301,-28.6550961,-66.9189529
20609,SAN PEDRO,GENERAL JUAN FACUNDO QUIROGA,,5385,-30.7089930,-67.0911389
13886,SAN RAFAEL,CAPITAL,,5301,-29.5554290,-66.3735928
30103,SAN RAFAEL,CHAMICAL,CHAMICAL,5380,-30.2400915,-66.1880400
14139,SAN RAFAEL,GENERAL SAN MARTIN,,5471,-31.8261279,-66.3766044
20753,SAN RAMON,GENERAL BELGRANO,,5383,-30.5584401,-66.0921182
20610,SAN RAMON,GENERAL JUAN FACUNDO QUIROGA,,5385,-30.6059522,-66.9318144
27731,SAN RAMON,GENERAL ANGEL VICENTE PEÑALOZA,,5385,,
30030,SAN ROQUE,GENERAL OCAMPO,GENERAL OCAMPO,5274,-30.8370356,-66.0780482
30111,SAN ROQUE,CHAMICAL,CHAMICAL,5380,-30.2819412,-66.4386599
20612,SAN ROQUE,GENERAL JUAN FACUNDO QUIROGA,,5385,-30.6116696,-67.2042031
20715,SAN SOLANO,GENERAL SAN MARTIN,,5473,-31.4789007,-65.9207744
29993,SAN VICENTE,INDEPENDENCIA,INDEPENDENCIA,5386,-30.3549424,-66.9905859
20933,SAN VICENTE,ROSARIO VERA PEÑALOZA,,5470,,
30191,SAN VICENTE NORTE,GENERAL JUAN FACUNDO QUIROGA,GENERAL JUAN F QUIROGA,5385,-30.9447809,-66.9555249
30192,SAN VICENTE SUR,GENERAL JUAN FACUNDO QUIROGA,GENERAL JUAN F QUIROGA,5385,-31.0488778,-67.0115066
13924,SAÑOGASTA,CHILECITO,CHILECITO,5367,-29.3209763,-67.6002121
13887,SANTA ANA,CAPITAL,,5301,,
13907,SANTA BARBARA,CHAMICAL,,5381,-30.5110446,-66.3213542
29985,SANTA BARBARA,INDEPENDENCIA,INDEPENDENCIA,5386,-29.9004939,-66.8604833
13944,SANTA CLARA,CORONEL FELIPE VARELA,,5351,-29.5610246,-68.5335013
20431,SANTA CRUZ,CASTRO BARROS,,5301,-28.6670418,-66.9525070
13965,SANTA CRUZ,FAMATINA,,5361,-28.4832117,-67.6944977
30052,SANTA CRUZ,GENERAL BELGRANO,GENERAL BELGRANO,5383,-30.5863283,-66.1930940
14140,SANTA CRUZ,ROSARIO VERA PEÑALOZA,,5470,-31.3150526,-66.4728821
27734,SANTA CRUZ,GENERAL JUAN FACUNDO QUIROGA,,5471,-31.0042300,-66.9267457
21862,SANTA ELENA,CORONEL FELIPE VARELA,,5361,,
13925,SANTA FLORENTINA,CHILECITO,,5360,-29.1357711,-67.5479005
30154,SANTA LUCIA,CAPITAL,CAPITAL,5300,-29.3152327,-66.7297803
27618,SANTA LUCIA,CHAMICAL,,5380,-30.4758486,-66.3405545
30072,SANTA LUCIA,GENERAL JUAN FACUNDO QUIROGA,GENERAL JUAN F QUIROGA,5385,-30.7708775,-66.9597421
30080,SANTA MARIA,GENERAL JUAN FACUNDO QUIROGA,GENERAL JUAN F QUIROGA,5385,-30.9202045,-66.8121455
13970,SANTA RITA DE LA ZANJA,CHAMICAL,,5276,-30.2402816,-65.8483070
20358,SANTA ROSA,CAPITAL,,5300,,
30017,SANTA ROSA,GENERAL ANGEL VICENTE PEÑALOZA,GENERAL ANGEL V PEÑALOZA,5385,-30.4219064,-66.6660046
13888,SANTA TERESA,CAPITAL,,5301,,
30018,SANTA TERESA,GENERAL ANGEL VICENTE PEÑALOZA,GENERAL ANGEL V PEÑALOZA,5385,-30.4787216,-66.6976920
13900,SANTA VERA CRUZ,CASTRO BARROS,CASTRO BARROS,5301,-28.6835042,-66.9654940
20359,SANTO DOMINGO,CAPITAL,,5300,-29.2904475,-66.2795251
13966,SANTO DOMINGO,FAMATINA,,5361,-28.5544859,-67.6725111
30013,SANTO DOMINGO,GENERAL ANGEL VICENTE PEÑALOZA,GENERAL ANGEL V PEÑALOZA,5385,-30.3487950,-66.6645579
14093,SANTO DOMINGO,GENERAL SAN MARTIN,,5473,,
20671,SANTO DOMINGO FAMATINA,FAMATINA,,5361,,
14158,SCHAQUI,SAN BLAS DE LOS SAUCES,,5329,-28.4814623,-67.1301671
20224,SEÑOR DE LA PEÑA,CASTRO BARROS,,5310,-28.8251987,-66.7570236
14094,SIEMPRE VERDE,GENERAL SAN MARTIN,,5473,-31.6610475,-66.2030090
20363,SIERRA BRAVA,CAPITAL,,5301,-29.7260628,-65.7696838
30089,SIERRA BRAVA,CHAMICAL,CHAMICAL,5380,-29.8516076,-65.7755390
27729,SIERRA DE LOS QUINTEROS,GENERAL ANGEL VICENTE PEÑALOZA,,5385,,
14004,SIMBOLAR,GENERAL BELGRANO,,5276,,
14035,SOLCA,GENERAL JUAN FACUNDO QUIROGA,,5385,-30.7641118,-66.4433888
14159,SURIYACO,SAN BLAS DE LOS SAUCES,,5329,-28.5332044,-67.1555153
14005,TALA VERDE,GENERAL BELGRANO,,5383,-30.5236190,-66.1619254
13889,TALAMUYUNA,CAPITAL,,5304,-29.7214928,-66.8537928
14006,TALVA,GENERAL BELGRANO,,5381,-30.7103825,-66.1844125
14141,TAMA,GENERAL ANGEL VICENTE PEÑALOZA,GENERAL ANGEL V PEÑALOZA,5385,-30.5090009,-66.5329563
29918,TAMBILLOS,VINCHINA,VINCHINA,5359,-28.8728054,-67.9497657
13983,TASQUIN,GENERAL ANGEL VICENTE PEÑALOZA,,5385,-30.6288684,-66.5585440
29951,TEMBLEQUE,ARAUCO,ARAUCO,5311,-28.7652086,-66.7688902
20821,TERMAS,INDEPENDENCIA,,5386,,
13839,TERMAS DE SANTA TERESITA,ARAUCO,ARAUCO,5313,-28.5925525,-66.5522161
29931,TIAGUAS,GENERAL LAMADRID,GENERAL LAMADRID,5355,-29.0498137,-68.1001208
30137,TIERRAS RIOJANAS,CHILECITO,CHILECITO,5360,-29.3557511,-67.4399258
13926,TILIMUQUI,CHILECITO,,5361,-29.1437061,-67.4240949
13840,TINOCAN,ARAUCO,ARAUCO,5313,-28.6484815,-66.6015901
14075,TORRECITAS,GENERAL OCAMPO,,5275,-30.9193880,-66.1322537
30083,TOSQUEA,GENERAL JUAN FACUNDO QUIROGA,GENERAL JUAN F QUIROGA,5471,-31.0505642,-66.8484460
14142,TOTORAL,ROSARIO VERA PEÑALOZA,,5471,-31.7097574,-66.4038061
13890,TRAMPA DEL TIGRE,CAPITAL,CAPITAL,5300,-29.4323139,-66.7474467
21855,TRES CERROS,CORONEL FELIPE VARELA,,5361,,
20755,TRES CRUCES,GENERAL BELGRANO,,5383,,
30217,TRES DE MAYO,GENERAL SAN MARTIN,GENERAL SAN MARTIN,5473,-31.8396899,-66.1376250
29935,TRES PIEDRAS,FAMATINA,,5361,-28.8441543,-67.7829157
14036,TUANI,GENERAL JUAN FACUNDO QUIROGA,,5385,-30.9325269,-66.5159790
29986,TUDCUN,INDEPENDENCIA,INDEPENDENCIA,5386,-29.9009064,-66.9720159
13984,TUIZON,GENERAL ANGEL VICENTE PEÑALOZA,,5385,-30.4235980,-66.5390681
14160,TUYUBIL,SAN BLAS DE LOS SAUCES,,5329,-28.5837240,-67.2027032
13841,UDPINANGO,ARAUCO,ARAUCO,5311,-28.6760653,-66.8139687
14095,ULAPES,GENERAL SAN MARTIN,GENERAL SAN MARTIN,5473,-31.5716534,-66.2372971
29943,UYUVIL,FAMATINA,,5361,-28.6728415,-67.3321390
14171,VALLE HERMOSO,VINCHINA,,5359,-28.3824120,-68.0000696
14143,VALLE HERMOSO,ROSARIO VERA PEÑALOZA,,5471,-31.6183668,-66.6022357
14007,VERDE OLIVO,GENERAL BELGRANO,,5276,,
29733,VICHIGASTA,CHILECITO,CHILECITO,5374,-29.4904680,-67.5051160
29981,VILGO,INDEPENDENCIA,INDEPENDENCIA,5386,-29.9361108,-67.3892260
13985,VILLA CASANA,ROSARIO VERA PEÑALOZA,,5471,-31.1144738,-66.5499150
14042,VILLA CASTELLI,GENERAL LAMADRID,GENERAL LAMADRID,5355,-29.0167084,-68.2258530
14144,VILLA CHEPES,ROSARIO VERA PEÑALOZA,,5471,-31.2667198,-66.5477371
29960,VILLA ESTER,CORONEL FELIPE VARELA,CORONEL FELIPE VARELA,5350,-29.3502670,-68.2246655
30060,VILLA MARIA,ROSARIO VERA PEÑALOZA,ROSARIO VERA PEÑALOZA,5470,-31.2750744,-66.5017873
13842,VILLA MAZAN,ARAUCO,ARAUCO,5313,-28.6477833,-66.5326843
14096,VILLA NIDIA,GENERAL SAN MARTIN,,5473,-31.8943196,-66.0930834
30156,VILLA PARISI,CAPITAL,CAPITAL,5300,-29.2948913,-66.8151617
14166,VILLA SANAGASTA,SANAGASTA,SANAGASTA,5301,-29.2812614,-67.0214386
14076,VILLA SANTA RITA,GENERAL OCAMPO,GENERAL OCAMPO,5275,-30.9531850,-66.2245400
13945,VILLA UNION,CORONEL FELIPE VARELA,CORONEL FELIPE VARELA,5350,-29.3227046,-68.2230741
14172,VINCHINA,VINCHINA,VINCHINA,5357,-28.7797111,-68.2060368
30100,YUMIAL,CHAMICAL,CHAMICAL,5380,-30.3606233,-66.1011233
13932,ZAPALLAR,CORONEL FELIPE VARELA,CORONEL FELIPE VARELA,5353,-29.2989142,-68.6633789
