id,nombre,partido,municipio,cp,latitud,longitud
15719,9 DE JULIO,9 DE JULIO,9 DE JULIO,5417,-31.6697509,-68.3900416
18949,ACHANGO,IGLESIA,IGLESIA,5467,,
15833,ADAN QUIROGA,JACHAL,,5409,,
18726,AEROPUERTO SAN JUAN,9 DE JULIO,9 DE JULIO,5417,,
19400,AGUA CERCADA,VALLE FERTIL,,5447,-30.8041577,-67.3662350
19040,AGUA DE LA ZORRA,JACHAL,,5460,-30.5742626,-68.6229935
32312,AGUA DEL GODO,IGLESIA,IGLESIA,5467,-29.2434120,-69.3541270
15835,AGUADA DE LA PEÑA,JACHAL,,5461,,
15907,ALBARRACIN,RAWSON,,5425,,
32225,ALCAPARROSA,CALINGASTA,CALINGASTA,5403,-31.3034720,-69.4133790
32323,ALTO DE MOGNA,JACHAL,JACHAL,5412,-30.8778070,-68.3855880
15953,ALTO DE SIERRA,SANTA LUCIA,SANTA LUCIA,5438,-31.5403423,-68.4424667
15840,ALTO HUACO,JACHAL,,5463,,
15768,AMPACAMA,CAUCETE,,5444,-31.2476921,-67.7616730
16036,ANGUALASTO,IGLESIA,IGLESIA,5467,-30.0549774,-69.1878815
19238,APEADERO QUIROGA,POCITO,,5427,,
18856,ARREQUINTIN,IGLESIA,,5467,,
19047,ASCHICHUSCA,JACHAL,,5460,,
16339,ASTICA,VALLE FERTIL,VALLE FERTIL,5447,-30.9446354,-67.3033142
19362,AURORA,ULLUM,,5409,,
20051,BAJO DE LAS TUMANAS,VALLE FERTIL,VALLE FERTIL,5447,,
15769,BALDE DE LEYES,CAUCETE,,5446,-31.5832710,-67.1778412
15994,BALDE DEL NORTE,VALLE FERTIL,,5449,,
15995,BALDE DEL ROSARIO,VALLE FERTIL,,5449,-30.3207152,-67.6951969
32280,BALDES DE FUNES,VALLE FERTIL,VALLE FERTIL,5447,-31.0748630,-67.1176990
15998,BALDES DE LA CHILCA,VALLE FERTIL,,5449,-30.6418293,-67.4086650
15999,BALDES DEL SUD,VALLE FERTIL,,5449,,
32313,BAÑITOS DE CHOLLAY,IGLESIA,IGLESIA,5467,-29.1975260,-69.6941330
15726,BAÑOS DE LA LAJA,ALBARDON,,5419,,
18858,BAÑOS DE LOS DESPOBLADOS,IGLESIA,,5467,,
19314,BAÑOS DEL CERRO,SARMIENTO,,5431,,
18731,BAÑOS DEL SALADO,ALBARDON,,5419,,
19049,BARRANCA DE LOS LOROS,JACHAL,,5460,,
19051,BARRANCAS BLANCAS,JACHAL,,5460,,
15748,BARREAL,CALINGASTA,CALINGASTA,5405,-31.6464867,-69.4743640
18746,BARRIALITO,CALINGASTA,CALINGASTA,5403,,
32218,BARRIO SAN MARTIN,CAUCETE,CAUCETE,5442,-31.6285300,-68.2417440
32227,BAUCHACETA,IGLESIA,IGLESIA,5467,-30.5108940,-69.4599920
15749,BELLA VISTA,CALINGASTA,,5403,-31.1471653,-69.4647675
15841,BELLA VISTA,JACHAL,JACHAL,5460,-30.2094954,-68.7467328
15809,BELLA VISTA,IGLESIA,,5467,-30.4401532,-69.2447867
32210,BERMEJO,CAUCETE,CAUCETE,5444,-31.5892130,-67.6603580
16341,BOCA DE LA QUEBRADA,JACHAL,JACHAL,5461,-30.1439133,-68.6666870
15946,BOCA DEL TIGRE,SAN MARTIN,SAN MARTIN,5439,-31.4837933,-68.3012543
19315,BODEGA SAN ANTONIO,SARMIENTO,,5431,,
15810,BUENA ESPERANZA,IGLESIA,,5467,,
15751,CALINGASTA,CALINGASTA,CALINGASTA,5403,-31.3318748,-69.4009628
32325,CAMARICO,25 DE MAYO,25 DE MAYO,5445,-32.0453520,-68.0050040
32314,CAMPAMENTO SOBERANO,IGLESIA,IGLESIA,5467,-29.1920530,-69.8727990
15811,CAMPANARIO,IGLESIA,IGLESIA,5467,,
15727,CAMPO AFUERA,ALBARDON,ALBARDON,5419,-31.4165330,-68.5316143
16273,CAMPO DE BATALLA,POCITO,POCITO,5435,-31.7299979,-68.5659152
32291,CAMPO DE BATALLA,ANGACO,ANGACO,5447,-31.4234820,-68.4468960
18911,CAMPO DE CHITA,IGLESIA,IGLESIA,5467,,
15808,CAMPO PISMANTA,IGLESIA,IGLESIA,5465,,
16272,CAÑADA HONDA,SARMIENTO,SARMIENTO,5431,-31.9728985,-68.5496979
19317,CARBOMETAL,SARMIENTO,,5431,,
15888,CARPINTERIA,POCITO,POCITO,5435,-31.8179379,-68.5433426
18862,CARRIZALITO,IGLESIA,IGLESIA,5467,,
32203,CASAS VIEJAS,CAUCETE,CAUCETE,5444,-31.3769770,-67.8028910
15752,CASTAÑO NUEVO,CALINGASTA,,5403,,
15771,CAUCETE,CAUCETE,CAUCETE,5442,-31.6511387,-68.2804114
15889,CENTRO AVIACION CIVIL SAN JUAN,POCITO,,5427,,
18751,CERRO BLANCO,CALINGASTA,,5405,,
32322,CERRO CORONEL,IGLESIA,IGLESIA,5684,-30.5903650,-69.0626870
19322,CERRO DEL MEDIO,SARMIENTO,,5431,,
19652,CERRO PACHACO,ZONDA,,5401,,
19439,CERRO TRES PUNTAS,VALLE FERTIL,,5447,,
19062,CHEPICAL,JACHAL,,5460,,
15802,CHIMBAS,CHIMBAS,CHIMBAS,5413,-31.4955335,-68.5323629
16125,CHUCUMA,VALLE FERTIL,,5447,-31.0688862,-67.2788289
32315,CIENAGAS,JACHAL,JACHAL,5477,-29.9314650,-68.7610830
15967,COCHAGUAL,SARMIENTO,,5435,-31.9262047,-68.3602448
15815,COLANGUIL,IGLESIA,,5467,-30.0286407,-69.2872009
15954,COLL,SAN MARTIN,SAN MARTIN,5438,,
15753,COLON,CALINGASTA,CALINGASTA,5401,-31.4278107,-69.4077964
32215,COLONIA AIBILY,25 DE MAYO,25 DE MAYO,5445,-31.8611150,-68.3243280
19240,COLONIA CANTONI,POCITO,,5427,-31.8388958,-68.5301819
19241,COLONIA CASTRO PADIN,POCITO,,5427,,
15910,COLONIA CENTENARIO,RAWSON,,5421,,
15911,COLONIA EL MOLINO,RAWSON,,5425,,
32342,COLONIA FERNANDEZ,SAN MARTIN,SAN MARTIN,5439,-31.4677210,-68.4447640
32267,COLONIA FIORITO,9 DE JULIO,9 DE JULIO,5417,-31.5547710,-68.4303430
15968,COLONIA FIORITO,SARMIENTO,,5435,,
15969,COLONIA FISCAL SARMIENTO,SARMIENTO,SARMIENTO,5435,-31.9027437,-68.4696589
32353,COLONIA FISCAL SUR,SARMIENTO,SARMIENTO,5450,-31.9441100,-68.4693610
15912,COLONIA FLORIDA,RAWSON,,5425,,
15720,COLONIA GUTIERREZ,SANTA LUCIA,,5438,-31.5173969,-68.4546488
15913,COLONIA JUAN SOLARI,RAWSON,,5425,,
32281,COLONIA LOS VALENCIANOS,VALLE FERTIL,VALLE FERTIL,5449,-30.6134440,-67.4153070
15955,COLONIA RICHET,SANTA LUCIA,SANTA LUCIA,5438,-31.5044050,-68.4866020
15916,COLONIA RODRIGUEZ ZAVALLA,RAWSON,,5425,,
15970,COLONIA SAN ANTONIO,SARMIENTO,,5435,-32.0209141,-68.3927035
15914,COLONIA YORNER,RAWSON,,5425,,
19932,COLONIA ZABALA,RAWSON,,5425,,
15915,COLONIA ZAPATA,SANTA LUCIA,SANTA LUCIA,5436,-31.5099560,-68.4647470
18786,COMPLEJO EL LEONCITO,CALINGASTA,CALINGASTA,5405,,
32271,COSTA DEL LAGO,ULLUM,ULLUM,5414,-31.4422830,-68.6764210
32205,CRUZ DE PIEDRA,CAUCETE,CAUCETE,5444,-31.4390120,-67.8324550
15845,CRUZ DE PIEDRA,JACHAL,,5460,-30.2925816,-68.6991730
15704,CUATRO ESQUINAS,25 DE MAYO,25 DE MAYO,5443,-31.7306325,-68.3450128
19079,DIQUE CAUQUENES,JACHAL,,5460,,
19374,DIQUE EL TAMBOLAR,ULLUM,ULLUM,5409,,
18882,DIQUE LA CUESTA DEL VIENTO,IGLESIA,IGLESIA,5467,,
19328,DIQUE LAS CRUCECITAS,SARMIENTO,,5431,,
19666,DIQUE SOLDANO,ZONDA,,5401,,
15934,DIQUE TOMA,RIVADAVIA,,5407,,
15971,DIVISADERO,SARMIENTO,,5431,-32.0104984,-68.6904861
16346,DIVISORIA,25 DE MAYO,25 DE MAYO,5443,-31.7239143,-68.3154917
15741,DOMINGO DE ORO,ANGACO,,5415,,
15942,DOS ACEQUIAS,SAN MARTIN,SAN MARTIN,5439,-31.4913855,-68.4185298
15737,EL ALAMITO,ANGACO,ANGACO,5415,-31.4567510,-68.3417132
16344,EL BOSQUE,ANGACO,ANGACO,5415,-31.4085005,-68.2991253
15817,EL CARRIZAL,IGLESIA,,5467,,
19380,EL CHILOTE,ULLUM,ULLUM,5409,-31.4733375,-68.7458174
15818,EL CHINGUILLO,IGLESIA,,5467,,
32260,EL ENCON,25 DE MAYO,25 DE MAYO,5421,-32.2152270,-67.7961070
15849,EL FICAL,JACHAL,JACHAL,5461,-30.2202751,-68.6909968
18904,EL LAVADERO,IGLESIA,IGLESIA,5467,,
18785,EL LEONCITO,CALINGASTA,CALINGASTA,5405,,
19090,EL MEDANO,JACHAL,JACHAL,5460,-30.1293832,-68.6791733
18851,EL MOGOTE,CHIMBAS,CHIMBAS,5413,-31.4800263,-68.4821822
15918,EL MOLINO,RAWSON,,5425,,
18813,EL PACHON,CALINGASTA,CALINGASTA,5405,,
32221,EL PRADO,9 DE JULIO,9 DE JULIO,5456,-31.6160230,-68.3910670
18942,EL RETIRO,IGLESIA,,5467,-30.2924919,-69.2590408
32343,EL RINCON,ALBARDON,ALBARDON,5419,-31.4477800,-68.5410520
15796,EL RINCON,CAUCETE,CAUCETE,5442,,
32351,EL SALADO,ALBARDON,ALBARDON,5419,-31.3324720,-68.4217250
15851,EL VOLCAN,JACHAL,,5409,-30.3257013,-68.6971684
15852,ENTRE RIOS,JACHAL,JACHAL,5461,,
18730,EST ALBARDON,ALBARDON,ALBARDON,5419,-31.4289657,-68.4952119
19097,EST NIQUIVIL,JACHAL,,5460,,
19334,ESTANCIA ACEQUION,SARMIENTO,,5431,,
18787,ESTANCIA CASA RIO BLANCO,CALINGASTA,,5405,,
32208,ESTANCIA EL ABRA,CAUCETE,CAUCETE,5442,-31.8682910,-67.2897550
19335,ESTANCIA EL DURAZNO,SARMIENTO,,5431,,
18783,ESTANCIA EL TOTORAL,CALINGASTA,,5405,,
18784,ESTANCIA LA PUNTILLA,CALINGASTA,,5405,,
20138,ESTANCIA MARADONA,ZONDA,ZONDA,5401,,
20075,ESTANCIA SAN ROQUE,VALLE FERTIL,,5447,,
32202,ESTANCIA SAN SALVADOR,CAUCETE,CAUCETE,5446,-31.8520510,-66.9104830
18945,FIERRO NUEVO,IGLESIA,IGLESIA,5467,-29.4442272,-69.4680023
18946,FIERRO VIEJO,IGLESIA,IGLESIA,5467,-29.4520779,-69.4180298
15919,GERMANIA,RAWSON,,5425,,
15854,GRAN CHINA,JACHAL,JACHAL,5461,-30.1225273,-68.7161999
32238,GUALCAMAYO,JACHAL,JACHAL,5477,-29.7541040,-68.7576330
15972,GUANACACHE,SARMIENTO,,5431,-32.0753813,-68.5856951
15819,GUAÑIZUL,IGLESIA,,5465,,
32230,GUARDIA VIEJA,IGLESIA,IGLESIA,5467,-30.3925820,-69.5710340
18839,GUAYAGUAS,CAUCETE,CAUCETE,5442,,
15775,GUAYAMAS,CAUCETE,CAUCETE,5444,,
15754,HILARIO,CALINGASTA,,5401,-31.4784894,-69.4024194
15856,HUACO,JACHAL,JACHAL,5463,-30.1558247,-68.4835663
19385,HUALILAN,ULLUM,ULLUM,5409,,
18951,HUAÑIZUIL,IGLESIA,,5467,-30.2513542,-69.2974396
15857,HUERTA DE GUACHI,JACHAL,,5461,-30.0107746,-68.7498474
15820,IGLESIA,IGLESIA,IGLESIA,5467,-30.4088631,-69.2117615
19101,INDIO MUERTO,JACHAL,JACHAL,5460,,
32355,ING MATIAS SANCHEZ,JACHAL,JACHAL,5409,-30.9277950,-68.6325100
19487,ISCHIGUALASTO,VALLE FERTIL,,5447,,
15708,JOSE MARTI,25 DE MAYO,25 DE MAYO,5443,,
18865,JUNTA DE LOS CHAMPONES,IGLESIA,IGLESIA,5467,,
15943,KILOMETRO 905,CAUCETE,CAUCETE,5439,,
15710,KILOMETRO 936,25 DE MAYO,25 DE MAYO,5443,,
18790,LA ALUMBRERA,CALINGASTA,,5405,-31.4205170,-69.7545853
16266,LA BEBIDA,RIVADAVIA,RIVADAVIA,5407,-31.5302334,-68.6253967
19006,LA BREA,IGLESIA,IGLESIA,5467,,
15897,LA CALLECITA,POCITO,,5421,-31.6230448,-68.5512456
15730,LA CAÑADA,ALBARDON,ALBARDON,5419,-31.4475644,-68.4817213
18962,LA CAÑADA,IGLESIA,,5465,,
32241,LA CAÑADA,JACHAL,JACHAL,5477,-29.9519800,-68.8213180
18791,LA CAPILLA,CALINGASTA,,5405,,
15821,LA CHIGUA,IGLESIA,,5467,,
16347,LA CHIMBERA,25 DE MAYO,25 DE MAYO,5443,-31.8253994,-68.2849197
19368,LA CIENAGA,ULLUM,ULLUM,5409,,
16340,LA CIENAGA,JACHAL,,5463,-30.1511154,-68.5732176
19102,LA CIENAGA DE CUMILLANGO,JACHAL,,5460,,
19320,LA CIENAGUITA,SARMIENTO,SARMIENTO,5431,-32.0763381,-68.6907626
15973,LA CIENEGUITA,SARMIENTO,,5435,,
32356,LA CORTADERA,CAUCETE,CAUCETE,5446,-31.4244480,-67.4115400
15898,LA COSECHERA,POCITO,,5427,,
32209,LA ESPERANZA,CAUCETE,CAUCETE,5442,-31.7029920,-68.2852290
18963,LA ESTRECHURA,IGLESIA,,5467,,
15860,LA FALDA,JACHAL,,5461,-30.1628730,-68.6652633
15920,LA FLORIDA,RAWSON,,5425,,
32236,LA FRONTERA,JACHAL,JACHAL,5477,-30.1010090,-68.7204370
16009,LA HUERTA,VALLE FERTIL,,5447,-31.2431965,-67.2888412
16343,LA ISLA,CALINGASTA,CALINGASTA,5401,-31.3887062,-69.4167557
32226,LA JUNTA,CALINGASTA,CALINGASTA,5403,-31.2660700,-69.4180220
15731,LA LAJA,ALBARDON,,5419,,
16270,LA LEGUA,SANTA LUCIA,SANTA LUCIA,5411,-31.5624400,-68.4571010
32263,LA MAJADITA,9 DE JULIO,9 DE JULIO,5417,-31.6961560,-68.3819770
19500,LA MAJADITA,VALLE FERTIL,,5449,-30.6818862,-67.5054063
16010,LA MESADA,VALLE FERTIL,,5447,,
15921,LA ORILLA,RAWSON,,5425,,
32206,LA PLANTA,CAUCETE,CAUCETE,5446,-31.4775060,-67.3028190
15778,LA PUNTILLA,CAUCETE,CAUCETE,5442,-31.6010791,-68.2904778
32354,LA QUINTA,JACHAL,JACHAL,5460,-30.2024430,-68.7298500
32235,LA REPRESA,JACHAL,JACHAL,5477,-30.0846090,-68.6945910
19504,LA RIPIERA,CAUCETE,CAUCETE,5447,,
32276,LA TOMA,ULLUM,ULLUM,5414,-31.5055690,-68.7849080
32214,LA TRANCA,25 DE MAYO,25 DE MAYO,5421,-32.3110290,-67.2952920
15779,LAGUNA SECA,CAUCETE,,5444,-31.5769623,-67.5260075
15862,LAS AGUADITAS,JACHAL,,5409,-30.4293861,-68.6819373
32320,LAS AMARILLAS,CALINGASTA,CALINGASTA,5405,-31.8985370,-69.7421110
15780,LAS CHACRAS,CAUCETE,CAUCETE,5446,-31.2795715,-67.5324326
15723,LAS CHACRITAS,9 DE JULIO,9 DE JULIO,5417,-31.5935688,-68.4226608
16012,LAS DELICIAS,VALLE FERTIL,,5447,,
15824,LAS FLORES,IGLESIA,IGLESIA,5467,-30.3269539,-69.2108307
18792,LAS HORNILLAS,CALINGASTA,,5405,,
19511,LAS JUNTAS,VALLE FERTIL,,5447,-30.7289559,-67.5867816
15975,LAS LAGUNAS,SARMIENTO,SARMIENTO,5435,-32.0571579,-68.3844244
32242,LAS LAJITAS,JACHAL,JACHAL,5460,-30.1283460,-68.8589630
18841,LAS LIEBRES,CAUCETE,CAUCETE,5442,-31.8886437,-66.8931789
15732,LAS LOMITAS,ALBARDON,,5419,,
15733,LAS PIEDRITAS,ALBARDON,,5419,-31.3780763,-68.4752666
19512,LAS RAMADITAS,VALLE FERTIL,,5447,,
15781,LAS SALINAS,CAUCETE,,5446,,
32207,LAS TALAS,CAUCETE,CAUCETE,5442,-31.5959890,-68.2745160
15742,LAS TAPIAS,ANGACO,ANGACO,5415,-31.4084472,-68.3999430
32350,LAS TAPIAS,ALBARDON,ALBARDON,5419,-31.4568700,-68.5648770
16014,LAS TUMANAS,VALLE FERTIL,,5447,,
32346,LAS TUNAS,VALLE FERTIL,VALLE FERTIL,5447,-30.8182740,-67.3675010
32318,LLANOS DEL LEONCITO,CALINGASTA,CALINGASTA,5403,-30.8783050,-69.4201990
15922,LLOVERAS,RAWSON,,5425,,
19516,LOMA ANCHA,VALLE FERTIL,,5447,,
32347,LOMA NEGRA,CAUCETE,CAUCETE,5444,-31.6487770,-68.2011730
18970,LOMAS BLANCAS,IGLESIA,,5467,,
32317,LOS AZULES,CALINGASTA,CALINGASTA,5405,-31.0942100,-70.2719240
16017,LOS BALDECITOS,VALLE FERTIL,,5449,-30.2241888,-67.7014210
16019,LOS BALDES DE ASTICA,VALLE FERTIL,VALLE FERTIL,5447,,
15976,LOS BERROS,SARMIENTO,SARMIENTO,5431,-31.9478912,-68.6624069
32279,LOS BRETES,VALLE FERTIL,VALLE FERTIL,5447,-30.7660360,-67.4709240
32352,LOS CARACOLES,ZONDA,ZONDA,5451,-31.5173010,-68.9679840
15956,LOS COMPARTOS,SAN MARTIN,SAN MARTIN,5439,,
15782,LOS MEDANOS,CAUCETE,,5443,-31.6267505,-68.2618585
15783,LOS PAPAGAYOS,CAUCETE,,5446,,
19113,LOS PUESTOS,JACHAL,,5460,-30.6822011,-68.3180059
15825,LOS QUILLAYES,IGLESIA,,5417,,
16023,LOS RINCONES,VALLE FERTIL,,5449,,
32246,LOS SOMBREROS,ZONDA,ZONDA,5451,-31.7967450,-68.7936420
32265,LOTEO TORINO,9 DE JULIO,9 DE JULIO,5417,,
18980,MAIPIRINQUI,IGLESIA,,5467,,
18983,MALIMAN ARRIBA,IGLESIA,,5467,,
18984,MALIMAN DE ABAJO,IGLESIA,IGLESIA,5467,-29.9589100,-69.1792228
15789,MARAYES,CAUCETE,CAUCETE,5446,-31.4625162,-67.3516902
16429,MARQUESADO,RIVADAVIA,RIVADAVIA,5407,-31.5174103,-68.6004410
15989,MATAGUSANOS,ULLUM,ULLUM,5419,,
16024,MEDANO COLORADO,VALLE FERTIL,,5449,,
15980,MEDIA AGUA,SARMIENTO,SARMIENTO,5435,-31.9810023,-68.4270029
18986,MINA DE LAS CARACHAS,IGLESIA,IGLESIA,5467,,
19116,MINA EL ALGARROBO,JACHAL,,5460,,
32286,MINA GUALCAMAYO,JACHAL,JACHAL,5477,-29.7232130,-68.5915220
19123,MINA LA DELFINA,JACHAL,,5460,,
19125,MINA LA ESPERANZA,JACHAL,,5460,,
19133,MINA MONTOSA,JACHAL,JACHAL,5460,,
15755,MINA SAN JORGE,CALINGASTA,,5403,,
32316,MINAS DE PINTO,IGLESIA,IGLESIA,5467,-30.4891790,-69.7041080
16109,MOGNA,JACHAL,JACHAL,5409,-30.7021179,-68.3705368
15790,NIKISANGA,CAUCETE,,5444,,
15867,NIQUIVIL,JACHAL,JACHAL,5409,-30.4041309,-68.6857224
15868,NIQUIVIL VIEJO,JACHAL,,5409,-30.4165668,-68.6467590
15791,NUEVA CASTILLA,CAUCETE,,5444,-31.5605679,-67.4444351
32219,OSCAR RAUL GOMEZ,CAUCETE,CAUCETE,5442,-31.6648980,-68.2429010
15869,OTRA BANDA,JACHAL,,5460,-30.2294235,-68.6855774
32239,PACHIMOCO,JACHAL,JACHAL,5460,-30.1976130,-68.8299300
32272,PALMAR DEL LAGO,ULLUM,ULLUM,5414,-31.4386210,-68.6665410
32266,PALMARES,9 DE JULIO,9 DE JULIO,5417,-31.6530440,-68.3928350
15870,PAMPA DEL CHAÑAR,JACHAL,JACHAL,5461,-30.1812210,-68.6796980
15871,PAMPA VIEJA,JACHAL,JACHAL,5461,-30.2175331,-68.6806793
32349,PAMPITA,JACHAL,JACHAL,5477,-30.1283910,-68.7347810
15872,PANACAN,JACHAL,JACHAL,5461,,
32268,PARQUE ALBARDON,ALBARDON,ALBARDON,5426,-31.4042800,-68.5577120
32222,PARQUE INDUSTRIAL 9 DE JULIO,9 DE JULIO,9 DE JULIO,5456,-31.6252030,-68.3957600
19137,PASLEAM,JACHAL,JACHAL,5460,,
19585,PASO DE FERREIRA,VALLE FERTIL,,5447,,
15981,PEDERNAL,SARMIENTO,,5431,-31.9950077,-68.7590875
15960,PEDRO ECHAGUE,SANTA LUCIA,,5436,,
16342,PIE DE PALO,CAUCETE,CAUCETE,5444,-31.6544456,-68.2172928
15744,PINCHAGUAL,ANGACO,ANGACO,5415,,
19003,PIRCAS NEGRAS,IGLESIA,,5467,,
19005,PISMANTA,IGLESIA,IGLESIA,5467,,
15745,PLUMERILLO,ANGACO,,5415,-31.4357281,-68.3669128
15792,POZO DE LOS ALGARROBOS,CAUCETE,,5443,-31.6785528,-68.2310936
15793,POZO DEL SALADO,25 DE MAYO,25 DE MAYO,5442,,
15924,PRIMER CUARTEL,RAWSON,,5425,,
32321,PTO ALVAREZ CONDARCO,CALINGASTA,CALINGASTA,5405,-32.0046480,-69.7415530
19189,PTO LOS POZOS,JACHAL,,5460,,
19176,PTO MAJADITA,JACHAL,JACHAL,5460,,
19177,PTO PANTANITO,JACHAL,,5460,,
19190,PTO PERICO,JACHAL,JACHAL,5460,,
19191,PTO PORTEZUELO HONDO,JACHAL,JACHAL,5460,,
32244,PTO POTRERILLO,IGLESIA,IGLESIA,5467,-30.0532280,-69.2278950
19166,PTO TRAPICHE,JACHAL,,5460,,
19184,PTO VALLECITO,JACHAL,JACHAL,5460,,
16352,PUCHUZUN,CALINGASTA,,5401,-31.1373152,-69.4697802
15961,PUENTE NACIONAL,SANTA LUCIA,,5438,,
15962,PUENTE RIO SAN JUAN,SANTA LUCIA,,5438,,
15963,PUENTE RUFINO,SANTA LUCIA,,5438,,
18844,PUERTO ALEGRE,CAUCETE,,5442,,
19677,PUESTO AGUA DE PINTO,ZONDA,ZONDA,5401,,
19153,PUESTO AGUADITA,JACHAL,,5460,,
19675,PUESTO CORDOVA,ZONDA,ZONDA,5401,,
19168,PUESTO CUMILLANGO,JACHAL,,5460,,
20027,PUESTO DE ARRIBA,SARMIENTO,,5431,,
32357,PUESTO EL DIVISADERO,JACHAL,JACHAL,5460,-30.1238720,-68.8672360
19171,PUESTO EL SARCO,JACHAL,JACHAL,5460,,
19172,PUESTO EL TORO,JACHAL,JACHAL,5460,,
32254,PUESTO GERONIMO,25 DE MAYO,25 DE MAYO,5445,-31.9799410,-68.2842850
32216,PUESTO ICAZATI,25 DE MAYO,25 DE MAYO,5445,-31.9376970,-68.3146440
19159,PUESTO LA REPRESA,JACHAL,JACHAL,5460,,
19160,PUESTO LA VIRGENCITA,JACHAL,JACHAL,5460,,
20032,PUESTO SANTA ROSA,SARMIENTO,,5431,,
15875,PUNTA DE AGUA,JACHAL,,5463,,
15713,PUNTA DEL AGUA,25 DE MAYO,25 DE MAYO,5443,,
19352,PUNTA DEL MEDANO,SARMIENTO,,5435,-31.8946043,-68.4183105
16345,PUNTA DEL MONTE,ANGACO,ANGACO,5415,-31.3823376,-68.3868332
32277,PUNTA NEGRA,ULLUM,ULLUM,5414,-31.5160840,-68.8110140
15947,PUNTILLA BLANCA,SAN MARTIN,,5439,,
15948,PUNTILLA NEGRA,SAN MARTIN,,5439,,
32273,QUEBRADA DE ULLUM,ULLUM,ULLUM,5414,-31.4735660,-68.6476450
19018,QUILINQUIL,IGLESIA,,5467,,
15900,QUINTO CUARTEL,POCITO,POCITO,5427,-31.6138630,-68.5961685
15983,RAMBLON,SARMIENTO,,5435,-32.3061066,-68.6575775
15929,RAWSON,RAWSON,RAWSON,5421,-31.5837186,-68.5410817
15984,RETAMITO,SARMIENTO,,5435,,
32220,RINCON CERCADO,9 DE JULIO,9 DE JULIO,5456,-31.6206220,-68.3798860
19616,RINCON CHICO,VALLE FERTIL,VALLE FERTIL,5447,-30.2890511,-67.7192230
15902,RINCONADA,POCITO,POCITO,5429,-31.6952379,-68.5923026
15936,RIVADAVIA,RIVADAVIA,RIVADAVIA,5400,-31.5447521,-68.6067352
15829,RODEO,IGLESIA,IGLESIA,5465,-30.2094492,-69.1302592
19624,SAN AGUSTIN DEL VALLE FERTIL,VALLE FERTIL,VALLE FERTIL,5449,-30.6367085,-67.4650599
16027,SAN ANTONIO,VALLE FERTIL,,5449,-30.3518448,-67.6969223
15985,SAN CARLOS,SARMIENTO,,5435,-32.1022275,-68.4595344
15949,SAN ISIDRO,SAN MARTIN,SAN MARTIN,5439,-31.4870993,-68.3251343
32232,SAN ISIDRO,JACHAL,JACHAL,5461,-30.1431190,-68.7044470
16271,SAN JOSE DE JACHAL,JACHAL,JACHAL,5460,-30.2427673,-68.7454935
15761,SAN JUAN,CAPITAL,SAN JUAN,5400,-31.5189323,-68.5111542
15950,SAN MARTIN,SAN MARTIN,SAN MARTIN,5439,-31.5167620,-68.3526471
15878,SAN ROQUE,JACHAL,JACHAL,5409,-30.2867851,-68.7130814
15903,SANCHEZ DE LORIA,POCITO,,5427,,
15925,SANTA CLARA,RAWSON,,5425,,
19353,SANTA CLARA,SARMIENTO,,5431,,
15964,SANTA LUCIA,SANTA LUCIA,SANTA LUCIA,5411,-31.5361713,-68.4689572
19621,SARMIENTO,VALLE FERTIL,,5447,,
15926,SEGUNDO CUARTEL,RAWSON,,5425,,
32345,SEGUNDO CUARTEL,POCITO,POCITO,5427,-31.6279930,-68.5853380
16029,SIERRA DE CHAVEZ,VALLE FERTIL,,5449,-30.8763294,-67.5334702
16030,SIERRA DE ELIZONDO,VALLE FERTIL,,5447,-30.9498024,-67.4420013
16031,SIERRA DE RIVERO,VALLE FERTIL,,5449,,
16351,SOROCAYENSE,CALINGASTA,,5401,-31.5575903,-69.4424918
15990,TALACASTO,ULLUM,ULLUM,5400,-31.0991554,-68.6439362
15757,TAMBERIAS,CALINGASTA,CALINGASTA,5401,-31.4586143,-69.4213943
32237,TAMBERIAS,JACHAL,JACHAL,5461,-30.1807220,-68.7251740
18846,TAPONES DE MAYO,CAUCETE,,5442,,
15735,TERMA LA LAJA,ALBARDON,,5419,,
19199,TERMAS AGUA HEDIONDA,JACHAL,,5460,,
19200,TERMAS DE AGUA NEGRA,JACHAL,,5460,,
18739,TIERRA ADENTRO,ALBARDON,,5419,-31.3677169,-68.4395123
18811,TIRA LARGA,CALINGASTA,,5405,-31.1860065,-69.4624786
19030,TOCOTA,IGLESIA,IGLESIA,5467,-30.6558743,-69.4405060
15986,TRES ESQUINAS,SARMIENTO,,5435,-32.0601050,-68.4300597
15883,TUCUNUCO,JACHAL,,5409,-30.5934544,-68.6153564
15832,TUDCUM,IGLESIA,IGLESIA,5467,-30.1916304,-69.2799599
15716,TUPELI,25 DE MAYO,25 DE MAYO,5443,-31.8390316,-68.3573941
15991,ULLUM,ULLUM,ULLUM,5409,-31.4659385,-68.7353338
16028,USNO,VALLE FERTIL,VALLE FERTIL,5449,-30.5640054,-67.5403271
15799,VALLECITO,CAUCETE,CAUCETE,5443,-31.7403745,-67.9885246
32229,VELADERO,IGLESIA,IGLESIA,5467,-29.3551230,-69.9394630
19279,VILLA 20 DE JUNIO,SANTA LUCIA,,5411,,
32264,VILLA 9 DE JULIO,9 DE JULIO,9 DE JULIO,5482,-31.7097910,-68.3707400
15904,VILLA ABERASTAIN,POCITO,POCITO,5427,-31.6573869,-68.5785895
15905,VILLA BARBOZA,POCITO,,5427,-31.5921800,-68.5723924
32253,VILLA BERETTA,25 DE MAYO,25 DE MAYO,5443,-31.8300700,-68.3314110
19270,VILLA BERMEJITO,SANTA LUCIA,,5411,,
15711,VILLA BORJAS,25 DE MAYO,25 DE MAYO,5443,-31.8097730,-68.3277870
32256,VILLA CARIÑO,25 DE MAYO,25 DE MAYO,5452,,
16350,VILLA CORRAL,CALINGASTA,,5401,-31.2515058,-69.4459154
15746,VILLA DEL SALVADOR,ANGACO,ANGACO,5415,-31.4454020,-68.4176402
19260,VILLA DOMINGUITO,SAN MARTIN,,5439,-31.5591210,-68.2976447
15951,VILLA DON BOSCO,SAN MARTIN,SAN MARTIN,5439,-31.5522070,-68.3312150
32212,VILLA EL TANGO,25 DE MAYO,25 DE MAYO,5452,-31.7492590,-68.2338660
19272,VILLA ESTEVEZ,SANTA LUCIA,,5411,,
15927,VILLA FLEURY,RAWSON,,5425,,
15928,VILLA FRANCA,RAWSON,,5425,,
19253,VILLA GENERAL ACHA,RAWSON,,5425,,
15736,VILLA GENERAL SAN MARTIN,ALBARDON,ALBARDON,5419,-31.4397670,-68.5208619
19282,VILLA GOBERNADOR CHAVEZ,SANTA LUCIA,,5411,,
32270,VILLA INDEPENDENCIA,CAUCETE,CAUCETE,5443,-31.6244850,-68.3151520
19286,VILLA J C SARMIENTO,SANTA LUCIA,,5411,,
15930,VILLA LAPRIDA,RAWSON,,5425,,
15931,VILLA LERGA,RAWSON,,5424,,
15952,VILLA LUGANO,SAN MARTIN,,5439,,
19289,VILLA LUZ DEL MUNDO,SANTA LUCIA,,5411,,
32234,VILLA MERCEDES,JACHAL,JACHAL,5461,-30.1091550,-68.7014530
15805,VILLA MORRONES,CHIMBAS,,5413,,
19273,VILLA MUÑOZ,SANTA LUCIA,,5411,,
19300,VILLA N LARRAIN,SANTA LUCIA,,5411,,
15906,VILLA NACUSI,POCITO,,5427,-31.6219384,-68.5359580
16349,VILLA NUEVA,CALINGASTA,,5401,-31.0545470,-69.4935878
15937,VILLA OBRERA,CHIMBAS,,5407,-31.5017831,-68.5981338
32217,VILLA PALACIOS,CAUCETE,CAUCETE,5442,-31.6971060,-68.2994180
19295,VILLA PATRICIAS SANJUANINAS,SANTA LUCIA,,5411,,
19277,VILLA PUEYRREDON,SANTA LUCIA,,5411,,
15932,VILLA RACHEL,RAWSON,,5425,,
19298,VILLA RUFINO GOMEZ,SANTA LUCIA,,5411,,
15718,VILLA SANTA ROSA,25 DE MAYO,25 DE MAYO,5443,-31.7454783,-68.3149528
19275,VILLA SARGENTO CABRAL,SANTA LUCIA,,5411,,
32290,VILLA SEFAIR TALACASTO,ANGACO,ANGACO,5447,-31.4433000,-68.4422000
32252,VILLA TACU,ZONDA,ZONDA,5401,-31.5271050,-68.7029520
32213,VILLA YANELLO,25 DE MAYO,25 DE MAYO,5452,-31.7338220,-68.2516750
15886,VOLCAN,JACHAL,,5460,-30.3228054,-68.6991882
15933,ZAVALLA,RAWSON,,5425,,
32292,ZOE BUSTOS,ANGACO,ANGACO,5447,,
16338,ZONDA,ZONDA,ZONDA,5401,-31.5438789,-68.7407759
32228,ZONDA,IGLESIA,IGLESIA,5684,-30.3927920,-69.2044150
