id,nombre,partido,municipio,cp,latitud,longitud
26540,ASERRADERO ARROYO,RIO GRANDE,,9420,,
26464,BAHIA LAPATAIA,USHUAIA,,9410,-54.8424035,-68.5690318
26568,BASE AERONAVAL PIONEROS,RIO GRANDE,RIO GRANDE,9411,,
27627,BASE ANTARTICA CARLINI,ANTARTIDA ARGENTINA,AREA SIN GOBIERNO,9411,-62.2380361,-58.6671492
28217,BASE ANTARTICA DECEPCION,ANTARTIDA ARGENTINA,AREA SIN GOBIERNO,9411,-62.9756540,-60.6976974
5034,BASE ANTARTICA MELCHIOR,ANTARTIDA ARGENTINA,AREA SIN GOBIERNO,9411,-64.3256002,-62.9761161
27629,BASE BELGRANO 2,ANTARTIDA ARGENTINA,AREA SIN GOBIERNO,9411,-77.8741840,-34.6268227
5035,BASE BROWN,ANTARTIDA ARGENTINA,AREA SIN GOBIERNO,9411,-64.8953719,-62.8705085
28216,BASE CAMARA,ANTARTIDA ARGENTINA,AREA SIN GOBIERNO,9411,-62.5944404,-59.9189207
5028,BASE ESPERANZA,ANTARTIDA ARGENTINA,AREA SIN GOBIERNO,9411,-63.3978477,-56.9973350
5027,BASE MARAMBIO,ANTARTIDA ARGENTINA,AREA SIN GOBIERNO,9411,-64.2413185,-56.6263025
5026,BASE MATIENZO,ANTARTIDA ARGENTINA,AREA SIN GOBIERNO,9411,-64.9757546,-60.0713021
27628,BASE ORCADAS,ANTARTIDA ARGENTINA,AREA SIN GOBIERNO,9411,-60.7379649,-44.7379241
28218,BASE PETREL,ANTARTIDA ARGENTINA,AREA SIN GOBIERNO,9411,-63.4783338,-56.2288789
5032,BASE PRIMAVERA,ANTARTIDA ARGENTINA,AREA SIN GOBIERNO,9411,-64.1557312,-60.9550673
5031,BASE SAN MARTIN,ANTARTIDA ARGENTINA,AREA SIN GOBIERNO,9411,-68.1299426,-67.1009204
26542,CABAÑA RUBY,RIO GRANDE,RIO GRANDE,9422,-53.9687582,-67.6950910
26551,CABO SAN PABLO,TOLHUIN,TOLHUIN,9420,,
26554,CAMPAMENTO LOS CHORRILLOS,RIO GRANDE,RIO GRANDE,9420,-53.3310376,-68.2617158
28317,CAMPAMENTO RANCHO GRANDE,USHUAIA,USHUAIA,9411,-54.7418640,-67.8310192
28261,CAÑADON ALFA,RIO GRANDE,RIO GRANDE,9421,-52.7393976,-68.5689754
28318,CERRO CASTOR,USHUAIA,USHUAIA,9411,-54.7243632,-68.0157209
28260,EL MURTILLAR,RIO GRANDE,RIO GRANDE,9421,-53.6075106,-67.9717316
5042,EL PARAMO,RIO GRANDE,RIO GRANDE,9420,-53.0596428,-68.2537613
28262,ESTACION CONTROL TRAF MARITIMO,RIO GRANDE,RIO GRANDE,9421,-52.6596280,-68.6062880
26580,ESTANCIA AURELIA,RIO GRANDE,RIO GRANDE,9420,-53.9086094,-68.3843510
28263,ESTANCIA BOQUERON,TOLHUIN,TOLHUIN,9412,-54.3365177,-68.1807079
26588,ESTANCIA BUENOS AIRES,RIO GRANDE,RIO GRANDE,9420,-54.1617433,-67.6467001
26591,ESTANCIA CARMEN,TOLHUIN,TOLHUIN,9420,-54.3965441,-67.8864461
26595,ESTANCIA CAUCHICOL,RIO GRANDE,RIO GRANDE,9420,-53.8812221,-67.9282086
26601,ESTANCIA CULLEN,RIO GRANDE,RIO GRANDE,9420,-52.8854309,-68.4496756
26749,ESTANCIA DESPEDIDA,RIO GRANDE,RIO GRANDE,9420,-53.9535470,-68.2577372
26604,ESTANCIA DOS HERMANAS,RIO GRANDE,RIO GRANDE,9420,,
26608,ESTANCIA EL ROBLE,RIO GRANDE,RIO GRANDE,9420,-54.0721585,-67.6815246
26613,ESTANCIA EL RODEO,RIO GRANDE,RIO GRANDE,9420,-54.0737310,-67.9911150
26616,ESTANCIA EL SALVADOR,RIO GRANDE,RIO GRANDE,9420,-53.6599026,-68.5352451
26620,ESTANCIA GUAZU CUE,RIO GRANDE,RIO GRANDE,9420,,
26467,ESTANCIA HARBERTON,USHUAIA,USHUAIA,9410,-54.8755666,-67.3309821
26625,ESTANCIA HERMINITA,RIO GRANDE,RIO GRANDE,9420,-54.0242290,-67.9883700
26626,ESTANCIA INES,RIO GRANDE,RIO GRANDE,9420,,
26628,ESTANCIA JOSE MENENDEZ,RIO GRANDE,RIO GRANDE,9420,-53.8621008,-67.7813023
26598,ESTANCIA LA CONSTANCIA,RIO GRANDE,RIO GRANDE,9420,,
26632,ESTANCIA LA CRIOLLA,TOLHUIN,TOLHUIN,9420,-54.2155716,-67.5081354
26640,ESTANCIA LA FUEGUINA,TOLHUIN,TOLHUIN,9420,-54.3898788,-66.6014366
26644,ESTANCIA LA INDIANA,TOLHUIN,TOLHUIN,9420,-54.3478006,-67.4222915
26646,ESTANCIA LA PORTEÑA,RIO GRANDE,RIO GRANDE,9420,-54.0918448,-67.5487042
26648,ESTANCIA LAS HIJAS,TOLHUIN,TOLHUIN,9420,-54.2106519,-67.2775909
26651,ESTANCIA LAS VIOLETAS,RIO GRANDE,RIO GRANDE,9420,,
26653,ESTANCIA LAURA,RIO GRANDE,RIO GRANDE,9420,-54.1569398,-68.3091120
26658,ESTANCIA LIBERTAD,RIO GRANDE,RIO GRANDE,9420,,
26661,ESTANCIA LOS CERROS,TOLHUIN,TOLHUIN,9420,-54.3409315,-67.8499772
26662,ESTANCIA LOS FLAMENCOS,RIO GRANDE,RIO GRANDE,9420,-53.6828225,-68.1173976
26666,ESTANCIA MARIA BEHETY,RIO GRANDE,RIO GRANDE,9420,-53.7853075,-67.9370482
26668,ESTANCIA MARIA CRISTINA,TOLHUIN,TOLHUIN,9420,-54.3599995,-67.2470915
26674,ESTANCIA MARIA LUISA,TOLHUIN,TOLHUIN,9420,-54.4884626,-66.4425639
26680,ESTANCIA MARINA,TOLHUIN,TOLHUIN,9420,-54.1848382,-68.3573380
26684,ESTANCIA MIRAMONTE,TOLHUIN,TOLHUIN,9420,-54.2102452,-67.7454559
26686,ESTANCIA PIRINAICA,TOLHUIN,TOLHUIN,9420,-54.2599682,-66.9111863
26692,ESTANCIA POLICARPO,USHUAIA,USHUAIA,9420,,
28320,ESTANCIA PUNTA SEGUNDA,USHUAIA,USHUAIA,9411,-54.8445002,-68.0333657
28321,ESTANCIA REMOLINO,USHUAIA,USHUAIA,9411,-54.8596446,-67.8586444
28264,ESTANCIA RIO APEN,TOLHUIN,TOLHUIN,9412,-54.2084812,-68.1575568
26695,ESTANCIA RIO CLARO,TOLHUIN,TOLHUIN,9420,-54.3554847,-67.9232394
26699,ESTANCIA RIO EWAN,TOLHUIN,TOLHUIN,9420,-54.2342691,-67.2131414
26700,ESTANCIA RIO IRIGOYEN,TOLHUIN,TOLHUIN,9420,-54.4251396,-66.5608915
26704,ESTANCIA RIVADAVIA,TOLHUIN,TOLHUIN,9420,-54.3546733,-67.5393010
26708,ESTANCIA ROLITO,TOLHUIN,TOLHUIN,9420,-54.2849694,-67.0557544
26711,ESTANCIA ROSITA,RIO GRANDE,RIO GRANDE,9420,,
26713,ESTANCIA RUBY,RIO GRANDE,,9420,-54.1572083,-67.7224424
26728,ESTANCIA SAN JOSE,RIO GRANDE,RIO GRANDE,9420,,
26731,ESTANCIA SAN JULIO,RIO GRANDE,RIO GRANDE,9420,-53.6669288,-68.4644603
26735,ESTANCIA SAN JUSTO,RIO GRANDE,RIO GRANDE,9420,-54.0334873,-68.5457716
26737,ESTANCIA SAN MARTIN,RIO GRANDE,RIO GRANDE,9420,,
26738,ESTANCIA SAN PABLO,TOLHUIN,TOLHUIN,9420,-54.2676693,-66.8069209
26740,ESTANCIA SANTA ANA,TOLHUIN,TOLHUIN,9420,-54.2871152,-66.7565648
26743,ESTANCIA SARA,RIO GRANDE,RIO GRANDE,9420,-53.4334403,-68.1837856
28265,ESTANCIA SIERRA NEVADA,TOLHUIN,TOLHUIN,9412,-54.2442742,-68.3637706
26744,ESTANCIA TEPI,TOLHUIN,TOLHUIN,9420,-54.2513851,-67.1524041
28319,ESTANCIA TUNEL,USHUAIA,USHUAIA,9411,-54.8198980,-68.1497195
26746,ESTANCIA VIAMONTE,RIO GRANDE,RIO GRANDE,9420,,
26533,HOSTERIA KAIKEN,USHUAIA,USHUAIA,9410,,
5047,ISLA DE LOS ESTADOS,USHUAIA,USHUAIA,9410,-54.8115632,-64.3708869
5040,ISLA GRAN MALVINA,ISLAS DEL ATLANTICO SUR,AREA SIN GOBIERNO,9409,-51.6080106,-59.5401075
5036,ISLA JOINVILLE,ANTARTIDA ARGENTINA,AREA SIN GOBIERNO,9411,-63.3591519,-56.2183988
5037,ISLA SHETLAND DEL SUR,ANTARTIDA ARGENTINA,AREA SIN GOBIERNO,9411,-62.4931257,-59.6444390
5041,ISLA SOLEDAD,ISLAS DEL ATLANTICO SUR,AREA SIN GOBIERNO,9409,-51.6950660,-57.8532448
5038,ISLAS GEORGIAS DEL SUR,ISLAS DEL ATLANTICO SUR,AREA SIN GOBIERNO,9411,-54.2808021,-36.5088335
5039,ISLAS ORCADAS DEL SUR,ANTARTIDA ARGENTINA,AREA SIN GOBIERNO,9411,-60.6569632,-45.2756699
27631,ISLAS SANDWICH DEL SUR,ISLAS DEL ATLANTICO SUR,AREA SIN GOBIERNO,9411,-59.4334120,-27.3549415
27956,LAGUNA ESCONDIDA,USHUAIA,USHUAIA,9410,-54.6377058,-67.7617377
28316,LAS VERTIENTES,RIO GRANDE,RIO GRANDE,9422,-53.9875739,-67.6809805
27796,MISION SALESIANA MÑOR FAGNANO,RIO GRANDE,RIO GRANDE,9420,-53.7186562,-67.8075583
28259,PARQUE INDUSTRIAL LAS VIOLETAS,RIO GRANDE,RIO GRANDE,9421,-53.6601582,-67.9272595
28315,PLANTA RIO CULLEN,RIO GRANDE,RIO GRANDE,9421,-52.9013717,-68.3623178
28215,PUERTO ALMANZA,USHUAIA,USHUAIA,9411,-54.8699590,-67.5594377
28266,PUESTO ASTRID,TOLHUIN,TOLHUIN,9412,-54.2711713,-68.0041496
28268,PUESTO FRONTERIZO BELLA VISTA,RIO GRANDE,RIO GRANDE,9422,-54.0020675,-68.5898906
26754,PUNTA MARIA,RIO GRANDE,,9420,,
28258,RAFAELA ISHTON,TOLHUIN,TOLHUIN,9412,-54.5745897,-67.1367014
5043,RIO GRANDE,RIO GRANDE,RIO GRANDE,9420,-53.7894859,-67.7084808
5044,SAN SEBASTIAN,RIO GRANDE,RIO GRANDE,9420,-53.2990627,-68.4570898
5045,SANTA INES,RIO GRANDE,,9420,,
28267,SARMIENTO,TOLHUIN,TOLHUIN,9412,-54.3308060,-68.1814090
26757,SECCION AVILES ESTANCIA SAN J,RIO GRANDE,,9420,,
5046,TOLHUIN,TOLHUIN,TOLHUIN,9420,-54.4986536,-67.1857146
5048,USHUAIA,USHUAIA,USHUAIA,9410,-54.8158264,-68.3291321
