{
    "iso_3166_2": "AR-N",
    "provincia": "Misiones",
    "localidades": [
        {
            "id": 9374,
            "nombre": "1 DE MAYO",
            "partido": "CAINGUAS",
            "municipio": null,
            "cp": "3362",
            "latitud": "-27.1713990",
            "longitud": "-55.0248332"
        },
        {
            "id": 29107,
            "nombre": "11 DE SEPTIEMBRE",
            "partido": "SAN JAVIER",
            "municipio": "FLORENTINO AMEGHINO",
            "cp": "3360",
            "latitud": "-27.6363862",
            "longitud": "-55.1348837"
        },
        {
            "id": 29573,
            "nombre": "12 DE OCTUBRE",
            "partido": "IGUAZU",
            "municipio": "PUERTO ESPERANZA",
            "cp": "3378",
            "latitud": "-26.1386799",
            "longitud": "-54.5120419"
        },
        {
            "id": 27564,
            "nombre": "17 DE AGOSTO",
            "partido": "GUARANI",
            "municipio": "EL SOBERBIO",
            "cp": "3338",
            "latitud": "-27.2876837",
            "longitud": "-54.2994024"
        },
        {
            "id": 27556,
            "nombre": "2 DE ABRIL",
            "partido": "GUARANI",
            "municipio": "EL SOBERBIO",
            "cp": "3338",
            "latitud": "-27.0701983",
            "longitud": "-54.2246255"
        },
        {
            "id": 9367,
            "nombre": "2 DE MAYO",
            "partido": "CAINGUAS",
            "municipio": "2 DE MAYO",
            "cp": "3364",
            "latitud": "-27.0197080",
            "longitud": "-54.6844610"
        },
        {
            "id": 29408,
            "nombre": "20 DE JUNIO",
            "partido": "SAN IGNACIO",
            "municipio": "CORPUS",
            "cp": "3327",
            "latitud": "-27.1493062",
            "longitud": "-55.4650196"
        },
        {
            "id": 9506,
            "nombre": "22 DE DICIEMBRE",
            "partido": "IGUAZU",
            "municipio": null,
            "cp": "3378",
            "latitud": null,
            "longitud": null
        },
        {
            "id": 9308,
            "nombre": "25 DE MAYO",
            "partido": "25 DE MAYO",
            "municipio": "25 DE MAYO",
            "cp": "3363",
            "latitud": "-27.3776321",
            "longitud": "-54.7440910"
        },
        {
            "id": 29565,
            "nombre": "28 DE DICIEMBRE",
            "partido": "GENERAL MANUEL BELGRANO",
            "municipio": "ANDRESITO",
            "cp": "3385",
            "latitud": "-25.7988737",
            "longitud": "-53.9017962"
        },
        {
            "id": 9560,
            "nombre": "3 DE MAYO",
            "partido": "LIBERTADOR GRAL SAN MARTIN",
            "municipio": "GARUHAPE",
            "cp": "3334",
            "latitud": "-26.7927035",
            "longitud": "-54.9016060"
        },
        {
            "id": 29385,
            "nombre": "9 DE JULIO KILOMETRO 20",
            "partido": "ELDORADO",
            "municipio": "9 DE JULIO",
            "cp": "3380",
            "latitud": "-26.4163220",
            "longitud": "-54.4982300"
        },
        {
            "id": 27550,
            "nombre": "ADOLFO J POMAR",
            "partido": "CAINGUAS",
            "municipio": null,
            "cp": "3337",
            "latitud": "-27.1809842",
            "longitud": "-54.5782803"
        },
        {
            "id": 29657,
            "nombre": "AGUAI POTY",
            "partido": "ELDORADO",
            "municipio": "COLONIA DELICIA",
            "cp": "3382",
            "latitud": "-26.2046651",
            "longitud": "-54.5888065"
        },
        {
            "id": 29656,
            "nombre": "AGUARAY MINI",
            "partido": "ELDORADO",
            "municipio": "COLONIA DELICIA",
            "cp": "3382",
            "latitud": "-26.2087884",
            "longitud": "-54.5912311"
        },
        {
            "id": 9310,
            "nombre": "ALBA POSSE",
            "partido": "25 DE MAYO",
            "municipio": "ALBA POSSE",
            "cp": "3363",
            "latitud": "-27.5698490",
            "longitud": "-54.6817055"
        },
        {
            "id": 29662,
            "nombre": "ALDEA GUAPOY",
            "partido": "IGUAZU",
            "municipio": "PUERTO LIBERTAD",
            "cp": "3374",
            "latitud": "-25.8646190",
            "longitud": "-54.5553301"
        },
        {
            "id": 29653,
            "nombre": "ALECRIN",
            "partido": "SAN PEDRO",
            "municipio": "SAN PEDRO",
            "cp": "3352",
            "latitud": "-26.4824659",
            "longitud": "-54.1357271"
        },
        {
            "id": 20452,
            "nombre": "ALTA UNION",
            "partido": "25 DE MAYO",
            "municipio": "COLONIA AURORA",
            "cp": "3364",
            "latitud": "-27.2700908",
            "longitud": "-54.4091422"
        },
        {
            "id": 29604,
            "nombre": "AMBAY POTY",
            "partido": "LIBERTADOR GRAL SAN MARTIN",
            "municipio": "RUIZ DE MONTOYA",
            "cp": "3330",
            "latitud": "-27.0517230",
            "longitud": "-55.0581923"
        },
        {
            "id": 29681,
            "nombre": "ANA POTY",
            "partido": "CANDELARIA",
            "municipio": "SANTA ANA",
            "cp": "3316",
            "latitud": "-27.3558134",
            "longitud": "-55.5916296"
        },
        {
            "id": 29674,
            "nombre": "ANDRES GUACURARI",
            "partido": "IGUAZU",
            "municipio": "PUERTO LIBERTAD",
            "cp": "3374",
            "latitud": "-25.7697255",
            "longitud": "-54.5388553"
        },
        {
            "id": 9605,
            "nombre": "APARICIO CUE",
            "partido": "SAN IGNACIO",
            "municipio": null,
            "cp": "3322",
            "latitud": "-27.3088686",
            "longitud": "-55.4512506"
        },
        {
            "id": 9334,
            "nombre": "APOSTOLES",
            "partido": "APOSTOLES",
            "municipio": "APOSTOLES",
            "cp": "3350",
            "latitud": "-27.9151306",
            "longitud": "-55.7543144"
        },
        {
            "id": 9361,
            "nombre": "ARISTOBULO DEL VALLE",
            "partido": "CAINGUAS",
            "municipio": "ARISTOBULO DEL VALLE",
            "cp": "3364",
            "latitud": "-27.0973663",
            "longitud": "-54.8940315"
        },
        {
            "id": 9442,
            "nombre": "ARRECHEA",
            "partido": "CONCEPCION",
            "municipio": null,
            "cp": "3355",
            "latitud": null,
            "longitud": null
        },
        {
            "id": 29823,
            "nombre": "ARROYO DEL MEDIO",
            "partido": "LEANDRO N ALEM",
            "municipio": "ARROYO DEL MEDIO",
            "cp": "3814",
            "latitud": "-27.6991370",
            "longitud": "-55.4044430"
        },
        {
            "id": 9577,
            "nombre": "ARROYO FEDOR",
            "partido": "SAN JAVIER",
            "municipio": null,
            "cp": "3360",
            "latitud": "-27.6247994",
            "longitud": "-55.0848204"
        },
        {
            "id": 29644,
            "nombre": "ARROYO ISLA",
            "partido": "MONTECARLO",
            "municipio": "MONTECARLO",
            "cp": "3384",
            "latitud": "-26.5841515",
            "longitud": "-54.4449717"
        },
        {
            "id": 9376,
            "nombre": "ARROYO MAGDALENA",
            "partido": "CANDELARIA",
            "municipio": null,
            "cp": "3317",
            "latitud": "-27.4174519",
            "longitud": "-55.4673124"
        },
        {
            "id": 29431,
            "nombre": "ARROYO MORENO",
            "partido": "LIBERTADOR GRAL SAN MARTIN",
            "municipio": "GARUHAPE",
            "cp": "3396",
            "latitud": "-26.9056823",
            "longitud": "-54.9168366"
        },
        {
            "id": 29640,
            "nombre": "ARROYO NUEVE",
            "partido": "MONTECARLO",
            "municipio": "CARAGUATAY",
            "cp": "3372",
            "latitud": "-26.8531087",
            "longitud": "-54.5258434"
        },
        {
            "id": 9377,
            "nombre": "ARROYO PASTORA",
            "partido": "CANDELARIA",
            "municipio": null,
            "cp": "3316",
            "latitud": "-27.3701779",
            "longitud": "-55.5354162"
        },
        {
            "id": 9444,
            "nombre": "ARROYO SANTA MARIA",
            "partido": "CONCEPCION",
            "municipio": null,
            "cp": "3353",
            "latitud": "-27.8902064",
            "longitud": "-55.4254188"
        },
        {
            "id": 29692,
            "nombre": "ARROYO TACUARA",
            "partido": "SAN IGNACIO",
            "municipio": "SANTO PIPO",
            "cp": "3326",
            "latitud": "-27.2595174",
            "longitud": "-55.2573375"
        },
        {
            "id": 9378,
            "nombre": "ARROYO TOMAS",
            "partido": "LEANDRO N ALEM",
            "municipio": "CERRO AZUL",
            "cp": "3309",
            "latitud": "-27.6245635",
            "longitud": "-55.6081790"
        },
        {
            "id": 29571,
            "nombre": "ARROYO VERDE",
            "partido": "GENERAL MANUEL BELGRANO",
            "municipio": "ANDRESITO",
            "cp": "3385",
            "latitud": "-25.6432155",
            "longitud": "-53.9303132"
        },
        {
            "id": 9606,
            "nombre": "ARROYO YABEBIRI",
            "partido": "SAN IGNACIO",
            "municipio": null,
            "cp": "3322",
            "latitud": null,
            "longitud": null
        },
        {
            "id": 9336,
            "nombre": "AZARA",
            "partido": "APOSTOLES",
            "municipio": "AZARA",
            "cp": "3351",
            "latitud": "-28.0595875",
            "longitud": "-55.6765747"
        },
        {
            "id": 29494,
            "nombre": "BAJO PEPIRI",
            "partido": "GENERAL MANUEL BELGRANO",
            "municipio": "BERNARDO DE IRIGOYEN",
            "cp": "3366",
            "latitud": "-26.3239012",
            "longitud": "-53.6770625"
        },
        {
            "id": 29114,
            "nombre": "BAÑADO CHICO",
            "partido": "LEANDRO N ALEM",
            "municipio": "LEANDRO N ALEM",
            "cp": "3315",
            "latitud": "-27.5774849",
            "longitud": "-55.3661907"
        },
        {
            "id": 9379,
            "nombre": "BAÑADO GRANDE",
            "partido": "LEANDRO N ALEM",
            "municipio": "ALMAFUERTE",
            "cp": "3317",
            "latitud": "-27.5207587",
            "longitud": "-55.4344941"
        },
        {
            "id": 29544,
            "nombre": "BARBACUA",
            "partido": "GENERAL MANUEL BELGRANO",
            "municipio": "SAN ANTONIO",
            "cp": "3383",
            "latitud": "-26.0799338",
            "longitud": "-53.8152580"
        },
        {
            "id": 20348,
            "nombre": "BARRA BONITA",
            "partido": "25 DE MAYO",
            "municipio": null,
            "cp": "3357",
            "latitud": "-27.6015685",
            "longitud": "-54.8451660"
        },
        {
            "id": 9445,
            "nombre": "BARRA CONCEPCION",
            "partido": "CONCEPCION",
            "municipio": null,
            "cp": "3355",
            "latitud": "-28.1130809",
            "longitud": "-55.5642514"
        },
        {
            "id": 29452,
            "nombre": "BARRA GRANDE",
            "partido": "25 DE MAYO",
            "municipio": "25 DE MAYO",
            "cp": "3379",
            "latitud": "-27.3516449",
            "longitud": "-54.7112589"
        },
        {
            "id": 9674,
            "nombre": "BARRACON",
            "partido": "SAN PEDRO",
            "municipio": null,
            "cp": "3364",
            "latitud": null,
            "longitud": null
        },
        {
            "id": 9477,
            "nombre": "BARRACON",
            "partido": "GENERAL MANUEL BELGRANO",
            "municipio": null,
            "cp": "3366",
            "latitud": null,
            "longitud": null
        },
        {
            "id": 9562,
            "nombre": "BARRANCON",
            "partido": "MONTECARLO",
            "municipio": null,
            "cp": "3384",
            "latitud": null,
            "longitud": null
        },
        {
            "id": 9579,
            "nombre": "BAYO TRONCHO",
            "partido": "OBERA",
            "municipio": null,
            "cp": "3360",
            "latitud": "-27.5822999",
            "longitud": "-55.0153240"
        },
        {
            "id": 9380,
            "nombre": "BELLA VISTA",
            "partido": "CANDELARIA",
            "municipio": "CERRO CORA",
            "cp": "3309",
            "latitud": "-27.5175991",
            "longitud": "-55.5512161"
        },
        {
            "id": 29511,
            "nombre": "BELLO HORIZONTE",
            "partido": "SAN PEDRO",
            "municipio": "SAN PEDRO",
            "cp": "3352",
            "latitud": "-26.7462177",
            "longitud": "-54.2326561"
        },
        {
            "id": 29688,
            "nombre": "BERNARDINO RIVADAVIA",
            "partido": "CAINGUAS",
            "municipio": "2 DE MAYO",
            "cp": "3397",
            "latitud": "-27.0130590",
            "longitud": "-54.6083870"
        },
        {
            "id": 9478,
            "nombre": "BERNARDO DE IRIGOYEN",
            "partido": "GENERAL MANUEL BELGRANO",
            "municipio": "BERNARDO DE IRIGOYEN",
            "cp": "3366",
            "latitud": "-26.2522961",
            "longitud": "-53.6470550"
        },
        {
            "id": 29094,
            "nombre": "BLANES",
            "partido": "SAN JAVIER",
            "municipio": "ITACARUARE",
            "cp": "3353",
            "latitud": "-27.9021333",
            "longitud": "-55.2529847"
        },
        {
            "id": 29098,
            "nombre": "BOLOROLE",
            "partido": "SAN JAVIER",
            "municipio": "SAN JAVIER",
            "cp": "3357",
            "latitud": "-27.8481363",
            "longitud": "-55.0430992"
        },
        {
            "id": 9381,
            "nombre": "BONPLAND",
            "partido": "CANDELARIA",
            "municipio": "BONPLAND",
            "cp": "3317",
            "latitud": "-27.4843655",
            "longitud": "-55.4763832"
        },
        {
            "id": 29088,
            "nombre": "CAA GUAZU",
            "partido": "CONCEPCION",
            "municipio": "SANTA MARIA",
            "cp": "3355",
            "latitud": "-27.8524027",
            "longitud": "-55.3918876"
        },
        {
            "id": 27766,
            "nombre": "CAA YARI",
            "partido": "LEANDRO N ALEM",
            "municipio": "CAA YARI",
            "cp": "3315",
            "latitud": "-27.4851531",
            "longitud": "-55.2988390"
        },
        {
            "id": 9384,
            "nombre": "CAAPORA",
            "partido": "CANDELARIA",
            "municipio": null,
            "cp": "3316",
            "latitud": null,
            "longitud": null
        },
        {
            "id": 9479,
            "nombre": "CABUREI",
            "partido": "GENERAL MANUEL BELGRANO",
            "municipio": "ANDRESITO",
            "cp": "3371",
            "latitud": "-25.6816877",
            "longitud": "-54.1428605"
        },
        {
            "id": 9363,
            "nombre": "CAINGUAS",
            "partido": "CAINGUAS",
            "municipio": null,
            "cp": "3364",
            "latitud": "-27.1896439",
            "longitud": "-54.5504459"
        },
        {
            "id": 9385,
            "nombre": "CAMPIÑA DE BONPLAND",
            "partido": "CANDELARIA",
            "municipio": null,
            "cp": "3317",
            "latitud": "-27.4669204",
            "longitud": "-55.4257905"
        },
        {
            "id": 20439,
            "nombre": "CAMPIÑAS DE AMERICA",
            "partido": "GENERAL MANUEL BELGRANO",
            "municipio": null,
            "cp": "3366",
            "latitud": "-26.2773983",
            "longitud": "-53.7064699"
        },
        {
            "id": 20444,
            "nombre": "CAMPO ALEGRE",
            "partido": "GENERAL MANUEL BELGRANO",
            "municipio": "SAN ANTONIO",
            "cp": "3366",
            "latitud": "-25.9796878",
            "longitud": "-53.8242005"
        },
        {
            "id": 29083,
            "nombre": "CAMPO GENTILINI",
            "partido": "APOSTOLES",
            "municipio": "SAN JOSE",
            "cp": "3307",
            "latitud": "-27.7920885",
            "longitud": "-55.7167469"
        },
        {
            "id": 9364,
            "nombre": "CAMPO GRANDE",
            "partido": "CAINGUAS",
            "municipio": "CAMPO GRANDE",
            "cp": "3362",
            "latitud": "-27.2081127",
            "longitud": "-54.9795418"
        },
        {
            "id": 9580,
            "nombre": "CAMPO RAMON",
            "partido": "OBERA",
            "municipio": "CAMPO RAMON",
            "cp": "3361",
            "latitud": "-27.4597759",
            "longitud": "-55.0278931"
        },
        {
            "id": 9581,
            "nombre": "CAMPO VIERA",
            "partido": "OBERA",
            "municipio": "CAMPO VIERA",
            "cp": "3362",
            "latitud": "-27.3322182",
            "longitud": "-55.0504913"
        },
        {
            "id": 9387,
            "nombre": "CANDELARIA",
            "partido": "CANDELARIA",
            "municipio": "CANDELARIA",
            "cp": "3308",
            "latitud": "-27.4613724",
            "longitud": "-55.7476082"
        },
        {
            "id": 9536,
            "nombre": "CAPIOVI",
            "partido": "LIBERTADOR GRAL SAN MARTIN",
            "municipio": "CAPIOVI",
            "cp": "3332",
            "latitud": "-26.9287071",
            "longitud": "-55.0598183"
        },
        {
            "id": 29826,
            "nombre": "CAPIOVICITO",
            "partido": "LIBERTADOR GRAL SAN MARTIN",
            "municipio": "CAPIOVI",
            "cp": "3816",
            "latitud": "-26.8914000",
            "longitud": "-55.0714000"
        },
        {
            "id": 9487,
            "nombre": "CAPITAN ANTONIO MORALES",
            "partido": "GUARANI",
            "municipio": null,
            "cp": "3364",
            "latitud": "-26.9028039",
            "longitud": "-54.4165548"
        },
        {
            "id": 29554,
            "nombre": "CAPITAN PEDRO GIACHINO",
            "partido": "GENERAL MANUEL BELGRANO",
            "municipio": "SAN ANTONIO",
            "cp": "3383",
            "latitud": "-25.9687341",
            "longitud": "-53.8951656"
        },
        {
            "id": 9538,
            "nombre": "CAPIVU",
            "partido": "LIBERTADOR GRAL SAN MARTIN",
            "municipio": null,
            "cp": "3332",
            "latitud": null,
            "longitud": null
        },
        {
            "id": 29553,
            "nombre": "CARACOL",
            "partido": "GENERAL MANUEL BELGRANO",
            "municipio": "SAN ANTONIO",
            "cp": "3383",
            "latitud": "-26.0013841",
            "longitud": "-53.8796831"
        },
        {
            "id": 9563,
            "nombre": "CARAGUATAY",
            "partido": "MONTECARLO",
            "municipio": "CARAGUATAY",
            "cp": "3386",
            "latitud": "-26.6571991",
            "longitud": "-54.7384905"
        },
        {
            "id": 29638,
            "nombre": "CARAMELITO",
            "partido": "GUARANI",
            "municipio": "EL SOBERBIO",
            "cp": "3338",
            "latitud": null,
            "longitud": null
        },
        {
            "id": 9493,
            "nombre": "CATARATAS DEL IGUAZU",
            "partido": "IGUAZU",
            "municipio": null,
            "cp": "3372",
            "latitud": "-25.6811750",
            "longitud": "-54.4481101"
        },
        {
            "id": 9339,
            "nombre": "CENTINELA",
            "partido": "APOSTOLES",
            "municipio": null,
            "cp": "3306",
            "latitud": "-27.7824110",
            "longitud": "-55.8185307"
        },
        {
            "id": 9511,
            "nombre": "CERRO AZUL",
            "partido": "LEANDRO N ALEM",
            "municipio": "CERRO AZUL",
            "cp": "3313",
            "latitud": "-27.6361961",
            "longitud": "-55.4933090"
        },
        {
            "id": 29610,
            "nombre": "CERRO AZUL",
            "partido": "LIBERTADOR GRAL SAN MARTIN",
            "municipio": "GARUHAPE",
            "cp": "3396",
            "latitud": "-27.0223286",
            "longitud": "-54.9374586"
        },
        {
            "id": 9389,
            "nombre": "CERRO CORA",
            "partido": "CANDELARIA",
            "municipio": "CERRO CORA",
            "cp": "3309",
            "latitud": "-27.5112074",
            "longitud": "-55.6061760"
        },
        {
            "id": 9446,
            "nombre": "CERRO MARTIRES",
            "partido": "CONCEPCION",
            "municipio": "SANTA MARIA",
            "cp": "3355",
            "latitud": "-27.8198819",
            "longitud": "-55.4136512"
        },
        {
            "id": 29437,
            "nombre": "CERRO MONJE",
            "partido": "CAINGUAS",
            "municipio": "ARISTOBULO DEL VALLE",
            "cp": "3364",
            "latitud": "-27.0127031",
            "longitud": "-54.8361926"
        },
        {
            "id": 29542,
            "nombre": "CERRO SIETE",
            "partido": "GENERAL MANUEL BELGRANO",
            "municipio": "SAN ANTONIO",
            "cp": "3383",
            "latitud": "-26.1310620",
            "longitud": "-53.7292716"
        },
        {
            "id": 29091,
            "nombre": "CERRO VOLCAN",
            "partido": "SAN JAVIER",
            "municipio": "ITACARUARE",
            "cp": "3353",
            "latitud": "-27.8031878",
            "longitud": "-55.3433341"
        },
        {
            "id": 29677,
            "nombre": "CHAPA I",
            "partido": "SAN IGNACIO",
            "municipio": "SAN IGNACIO",
            "cp": "3322",
            "latitud": "-27.2448157",
            "longitud": "-55.5219056"
        },
        {
            "id": 29103,
            "nombre": "CHICO ALFEREZ",
            "partido": "SAN JAVIER",
            "municipio": "FLORENTINO AMEGHINO",
            "cp": "3360",
            "latitud": "-27.7516579",
            "longitud": "-55.0086324"
        },
        {
            "id": 9341,
            "nombre": "CHIRIMAY",
            "partido": "APOSTOLES",
            "municipio": null,
            "cp": "3350",
            "latitud": "-28.0922794",
            "longitud": "-55.6901935"
        },
        {
            "id": 29100,
            "nombre": "CINCO MIL",
            "partido": "SAN JAVIER",
            "municipio": "MOJON GRANDE",
            "cp": "3325",
            "latitud": "-27.7500183",
            "longitud": "-55.0711203"
        },
        {
            "id": 20495,
            "nombre": "CITRUS",
            "partido": "MONTECARLO",
            "municipio": null,
            "cp": "3384",
            "latitud": null,
            "longitud": null
        },
        {
            "id": 17003,
            "nombre": "COLONIA 9 DE JULIO",
            "partido": "25 DE MAYO",
            "municipio": "ALBA POSSE",
            "cp": "3363",
            "latitud": "-27.5472233",
            "longitud": "-54.7615159"
        },
        {
            "id": 29589,
            "nombre": "COLONIA ABORIGEN EL CHAPA",
            "partido": "SAN IGNACIO",
            "municipio": "SAN IGNACIO",
            "cp": "3322",
            "latitud": null,
            "longitud": null
        },
        {
            "id": 9309,
            "nombre": "COLONIA ACARAGUA",
            "partido": "25 DE MAYO",
            "municipio": "ALBA POSSE",
            "cp": "3361",
            "latitud": "-27.4805739",
            "longitud": "-54.8494201"
        },
        {
            "id": 9512,
            "nombre": "COLONIA ALBERDI",
            "partido": "LEANDRO N ALEM",
            "municipio": "OLEGARIO VICTOR ANDRADE",
            "cp": "3311",
            "latitud": "-27.6041360",
            "longitud": "-55.5357524"
        },
        {
            "id": 9582,
            "nombre": "COLONIA ALBERDI",
            "partido": "OBERA",
            "municipio": "COLONIA ALBERDI",
            "cp": "3361",
            "latitud": "-27.3569656",
            "longitud": "-55.2326586"
        },
        {
            "id": 29450,
            "nombre": "COLONIA ALBORADA",
            "partido": "25 DE MAYO",
            "municipio": "25 DE MAYO",
            "cp": "3379",
            "latitud": "-27.5161232",
            "longitud": "-54.6376381"
        },
        {
            "id": 9390,
            "nombre": "COLONIA ALEMANA",
            "partido": "LEANDRO N ALEM",
            "municipio": "OLEGARIO VICTOR ANDRADE",
            "cp": "3309",
            "latitud": "-27.5510610",
            "longitud": "-55.5391675"
        },
        {
            "id": 9312,
            "nombre": "COLONIA ALICIA",
            "partido": "25 DE MAYO",
            "municipio": "COLONIA AURORA",
            "cp": "3363",
            "latitud": "-27.3801235",
            "longitud": "-54.3537799"
        },
        {
            "id": 29461,
            "nombre": "COLONIA ALICIA BAJA",
            "partido": "25 DE MAYO",
            "municipio": "COLONIA AURORA",
            "cp": "3363",
            "latitud": "-27.4364184",
            "longitud": "-54.3551780"
        },
        {
            "id": 9513,
            "nombre": "COLONIA ALMAFUERTE",
            "partido": "LEANDRO N ALEM",
            "municipio": "ALMAFUERTE",
            "cp": "3317",
            "latitud": "-27.5062138",
            "longitud": "-55.4018892"
        },
        {
            "id": 29590,
            "nombre": "COLONIA ANDRESITO",
            "partido": "SAN IGNACIO",
            "municipio": "SAN IGNACIO",
            "cp": "3322",
            "latitud": "-27.2704320",
            "longitud": "-55.4932254"
        },
        {
            "id": 27769,
            "nombre": "COLONIA APARECIDA",
            "partido": "25 DE MAYO",
            "municipio": "COLONIA AURORA",
            "cp": "3363",
            "latitud": "-27.2787208",
            "longitud": "-54.4590608"
        },
        {
            "id": 9342,
            "nombre": "COLONIA APOSTOLES",
            "partido": "APOSTOLES",
            "municipio": null,
            "cp": "3350",
            "latitud": "-27.9960699",
            "longitud": "-55.7490665"
        },
        {
            "id": 9391,
            "nombre": "COLONIA ARISTOBULO DEL VALLE",
            "partido": "CANDELARIA",
            "municipio": null,
            "cp": "3317",
            "latitud": null,
            "longitud": null
        },
        {
            "id": 29782,
            "nombre": "COLONIA AURORA",
            "partido": "25 DE MAYO",
            "municipio": "COLONIA AURORA",
            "cp": "3363",
            "latitud": "-27.4740110",
            "longitud": "-54.5239850"
        },
        {
            "id": 29482,
            "nombre": "COLONIA BARRA CHAFARIZ",
            "partido": "25 DE MAYO",
            "municipio": "COLONIA AURORA",
            "cp": "3363",
            "latitud": "-27.3967760",
            "longitud": "-54.3183061"
        },
        {
            "id": 29487,
            "nombre": "COLONIA BERNARDINO RIVADAVIA",
            "partido": "GUARANI",
            "municipio": "SAN VICENTE",
            "cp": "3356",
            "latitud": "-27.0197496",
            "longitud": "-54.5504792"
        },
        {
            "id": 9514,
            "nombre": "COLONIA CAAGUAZU",
            "partido": "LEANDRO N ALEM",
            "municipio": null,
            "cp": "3315",
            "latitud": "-27.7441168",
            "longitud": "-55.3830107"
        },
        {
            "id": 29415,
            "nombre": "COLONIA CARLOSCAR",
            "partido": "SAN IGNACIO",
            "municipio": "SANTO PIPO",
            "cp": "3326",
            "latitud": "-27.2222185",
            "longitud": "-55.3220558"
        },
        {
            "id": 29433,
            "nombre": "COLONIA CARRIL",
            "partido": "LIBERTADOR GRAL SAN MARTIN",
            "municipio": "EL ALCAZAR",
            "cp": "3390",
            "latitud": "-27.0230980",
            "longitud": "-54.7752907"
        },
        {
            "id": 20453,
            "nombre": "COLONIA CHAFARIZ",
            "partido": "GUARANI",
            "municipio": null,
            "cp": "3364",
            "latitud": "-27.1573667",
            "longitud": "-54.4084637"
        },
        {
            "id": 9654,
            "nombre": "COLONIA CUMANDAY",
            "partido": "SAN JAVIER",
            "municipio": null,
            "cp": "3357",
            "latitud": null,
            "longitud": null
        },
        {
            "id": 29537,
            "nombre": "COLONIA DELICIA",
            "partido": "ELDORADO",
            "municipio": "COLONIA DELICIA",
            "cp": "3382",
            "latitud": "-26.2378370",
            "longitud": "-54.6032990"
        },
        {
            "id": 9608,
            "nombre": "COLONIA DOMINGO SAVIO",
            "partido": "SAN IGNACIO",
            "municipio": "SAN IGNACIO",
            "cp": "3322",
            "latitud": "-27.3546876",
            "longitud": "-55.3368345"
        },
        {
            "id": 29414,
            "nombre": "COLONIA EL CEDRAL",
            "partido": "SAN IGNACIO",
            "municipio": "SANTO PIPO",
            "cp": "3326",
            "latitud": "-27.2169254",
            "longitud": "-55.1476166"
        },
        {
            "id": 9315,
            "nombre": "COLONIA EL PROGRESO",
            "partido": "25 DE MAYO",
            "municipio": null,
            "cp": "3363",
            "latitud": "-27.3983467",
            "longitud": "-54.4490017"
        },
        {
            "id": 9400,
            "nombre": "COLONIA FINLANDESA",
            "partido": "LEANDRO N ALEM",
            "municipio": "CAA YARI",
            "cp": "3317",
            "latitud": null,
            "longitud": null
        },
        {
            "id": 9515,
            "nombre": "COLONIA FINLANDESA",
            "partido": "OBERA",
            "municipio": "SAN MARTIN",
            "cp": "3317",
            "latitud": "-27.4632643",
            "longitud": "-55.3369644"
        },
        {
            "id": 29421,
            "nombre": "COLONIA FLORA",
            "partido": "LIBERTADOR GRAL SAN MARTIN",
            "municipio": "PUERTO LEONI",
            "cp": "3333",
            "latitud": "-26.9959847",
            "longitud": "-55.1452737"
        },
        {
            "id": 29516,
            "nombre": "COLONIA FLORIDA",
            "partido": "GUARANI",
            "municipio": "SAN VICENTE",
            "cp": "3356",
            "latitud": "-27.0548630",
            "longitud": "-54.3921436"
        },
        {
            "id": 20514,
            "nombre": "COLONIA FLORIDA",
            "partido": "OBERA",
            "municipio": null,
            "cp": "3384",
            "latitud": null,
            "longitud": null
        },
        {
            "id": 20522,
            "nombre": "COLONIA FORTALEZA",
            "partido": "SAN PEDRO",
            "municipio": "SAN PEDRO",
            "cp": "3364",
            "latitud": "-26.7284491",
            "longitud": "-54.1877119"
        },
        {
            "id": 20523,
            "nombre": "COLONIA GRAMADO",
            "partido": "SAN PEDRO",
            "municipio": null,
            "cp": "3364",
            "latitud": "-26.5759398",
            "longitud": "-54.0552929"
        },
        {
            "id": 29102,
            "nombre": "COLONIA GUARANI",
            "partido": "SAN JAVIER",
            "municipio": "MOJON GRANDE",
            "cp": "3325",
            "latitud": "-27.6511996",
            "longitud": "-55.1542905"
        },
        {
            "id": 20443,
            "nombre": "COLONIA ITATI",
            "partido": "SAN PEDRO",
            "municipio": "POZO AZUL",
            "cp": "3366",
            "latitud": "-26.2730128",
            "longitud": "-53.8266662"
        },
        {
            "id": 9609,
            "nombre": "COLONIA JAPONESA",
            "partido": "SAN IGNACIO",
            "municipio": null,
            "cp": "3328",
            "latitud": "-27.2557430",
            "longitud": "-55.4680061"
        },
        {
            "id": 20524,
            "nombre": "COLONIA JUANITA",
            "partido": "SAN PEDRO",
            "municipio": null,
            "cp": "3364",
            "latitud": "-26.3799169",
            "longitud": "-53.8962728"
        },
        {
            "id": 29141,
            "nombre": "COLONIA JULIO MARTIN",
            "partido": "OBERA",
            "municipio": "CAMPO VIERA",
            "cp": "3375",
            "latitud": "-27.2983708",
            "longitud": "-55.1169821"
        },
        {
            "id": 29495,
            "nombre": "COLONIA LA FLOR",
            "partido": "GUARANI",
            "municipio": "EL SOBERBIO",
            "cp": "3338",
            "latitud": "-27.0440117",
            "longitud": "-54.1625547"
        },
        {
            "id": 20527,
            "nombre": "COLONIA LA GRUTA",
            "partido": "SAN PEDRO",
            "municipio": null,
            "cp": "3364",
            "latitud": null,
            "longitud": null
        },
        {
            "id": 9539,
            "nombre": "COLONIA LA OTILIA",
            "partido": "LIBERTADOR GRAL SAN MARTIN",
            "municipio": null,
            "cp": "3332",
            "latitud": null,
            "longitud": null
        },
        {
            "id": 20528,
            "nombre": "COLONIA LA POLACA",
            "partido": "SAN PEDRO",
            "municipio": null,
            "cp": "3364",
            "latitud": null,
            "longitud": null
        },
        {
            "id": 9610,
            "nombre": "COLONIA LEIVA",
            "partido": "SAN IGNACIO",
            "municipio": null,
            "cp": "3326",
            "latitud": null,
            "longitud": null
        },
        {
            "id": 9545,
            "nombre": "COLONIA LOS TEALES",
            "partido": "SAN IGNACIO",
            "municipio": "JARDIN AMERICA",
            "cp": "3328",
            "latitud": "-27.0613920",
            "longitud": "-55.1009555"
        },
        {
            "id": 29429,
            "nombre": "COLONIA LUJAN",
            "partido": "LIBERTADOR GRAL SAN MARTIN",
            "municipio": "GARUHAPE",
            "cp": "3396",
            "latitud": "-26.6938900",
            "longitud": "-54.8959288"
        },
        {
            "id": 27558,
            "nombre": "COLONIA MANUEL BELGRANO",
            "partido": "GUARANI",
            "municipio": "SAN VICENTE",
            "cp": "3338",
            "latitud": "-27.1263140",
            "longitud": "-54.4600383"
        },
        {
            "id": 9393,
            "nombre": "COLONIA MARTIRES",
            "partido": "CANDELARIA",
            "municipio": "MARTIRES",
            "cp": "3318",
            "latitud": "-27.4059419",
            "longitud": "-55.3353285"
        },
        {
            "id": 9320,
            "nombre": "COLONIA MAYBAU",
            "partido": "25 DE MAYO",
            "municipio": "25 DE MAYO",
            "cp": "3363",
            "latitud": "-27.4799498",
            "longitud": "-54.6490099"
        },
        {
            "id": 27552,
            "nombre": "COLONIA MILAGRO",
            "partido": "CAINGUAS",
            "municipio": "2 DE MAYO",
            "cp": "3337",
            "latitud": "-27.1175008",
            "longitud": "-54.5114703"
        },
        {
            "id": 9611,
            "nombre": "COLONIA ÑACANGAZU",
            "partido": "SAN IGNACIO",
            "municipio": null,
            "cp": "3328",
            "latitud": "-27.0733893",
            "longitud": "-55.2857551"
        },
        {
            "id": 27767,
            "nombre": "COLONIA NUEVA",
            "partido": "GUARANI",
            "municipio": "EL SOBERBIO",
            "cp": "3364",
            "latitud": "-26.8512980",
            "longitud": "-54.2226185"
        },
        {
            "id": 9540,
            "nombre": "COLONIA ORO VERDE",
            "partido": "LIBERTADOR GRAL SAN MARTIN",
            "municipio": null,
            "cp": "3334",
            "latitud": "-26.8737542",
            "longitud": "-55.1085311"
        },
        {
            "id": 29145,
            "nombre": "COLONIA PICAZA",
            "partido": "OBERA",
            "municipio": "COLONIA ALBERDI",
            "cp": "3393",
            "latitud": "-27.3545037",
            "longitud": "-55.1262783"
        },
        {
            "id": 9612,
            "nombre": "COLONIA POLANA",
            "partido": "SAN IGNACIO",
            "municipio": "COLONIA POLANA",
            "cp": "3326",
            "latitud": "-26.9797040",
            "longitud": "-55.3217467"
        },
        {
            "id": 29517,
            "nombre": "COLONIA PRIMAVERA",
            "partido": "SAN IGNACIO",
            "municipio": "JARDIN AMERICA",
            "cp": "3328",
            "latitud": "-27.1119880",
            "longitud": "-55.1366567"
        },
        {
            "id": 29518,
            "nombre": "COLONIA PRIMAVERA",
            "partido": "SAN PEDRO",
            "municipio": "SAN PEDRO",
            "cp": "3352",
            "latitud": "-26.7082938",
            "longitud": "-54.0602761"
        },
        {
            "id": 20454,
            "nombre": "COLONIA PRIMAVERA",
            "partido": "GUARANI",
            "municipio": "EL SOBERBIO",
            "cp": "3364",
            "latitud": "-27.1723137",
            "longitud": "-54.1360332"
        },
        {
            "id": 20533,
            "nombre": "COLONIA PUERTO ROSALES",
            "partido": "SAN PEDRO",
            "municipio": null,
            "cp": "3364",
            "latitud": null,
            "longitud": null
        },
        {
            "id": 29489,
            "nombre": "COLONIA RIO VICTORIA",
            "partido": "GUARANI",
            "municipio": "SAN VICENTE",
            "cp": "3356",
            "latitud": "-26.9697548",
            "longitud": "-54.4353837"
        },
        {
            "id": 9613,
            "nombre": "COLONIA ROCA",
            "partido": "SAN IGNACIO",
            "municipio": null,
            "cp": "3327",
            "latitud": null,
            "longitud": null
        },
        {
            "id": 9556,
            "nombre": "COLONIA SAN ALBERTO",
            "partido": "LIBERTADOR GRAL SAN MARTIN",
            "municipio": "PUERTO RICO",
            "cp": "3334",
            "latitud": "-26.8004926",
            "longitud": "-54.9839101"
        },
        {
            "id": 9615,
            "nombre": "COLONIA SAN IGNACIO",
            "partido": "SAN IGNACIO",
            "municipio": null,
            "cp": "3322",
            "latitud": null,
            "longitud": null
        },
        {
            "id": 9450,
            "nombre": "COLONIA SANTA MARIA",
            "partido": "CONCEPCION",
            "municipio": "SANTA MARIA",
            "cp": "3353",
            "latitud": "-27.9362940",
            "longitud": "-55.4065063"
        },
        {
            "id": 20496,
            "nombre": "COLONIA SANTA TERESA",
            "partido": "MONTECARLO",
            "municipio": null,
            "cp": "3384",
            "latitud": "-26.4946950",
            "longitud": "-54.5874843"
        },
        {
            "id": 20534,
            "nombre": "COLONIA SIETE ESTRELLAS",
            "partido": "SAN PEDRO",
            "municipio": "SAN PEDRO",
            "cp": "3364",
            "latitud": "-26.6455267",
            "longitud": "-53.9913980"
        },
        {
            "id": 29422,
            "nombre": "COLONIA SOL DE MAYO",
            "partido": "SAN IGNACIO",
            "municipio": "JARDIN AMERICA",
            "cp": "3328",
            "latitud": "-27.0992083",
            "longitud": "-55.1974635"
        },
        {
            "id": 29119,
            "nombre": "COLONIA TARANCO",
            "partido": "APOSTOLES",
            "municipio": "SAN JOSE",
            "cp": "3350",
            "latitud": null,
            "longitud": null
        },
        {
            "id": 29120,
            "nombre": "COLONIA TARANCO CHICO",
            "partido": "LEANDRO N ALEM",
            "municipio": "CERRO AZUL",
            "cp": "3313",
            "latitud": "-27.6792873",
            "longitud": "-55.5327781"
        },
        {
            "id": 20492,
            "nombre": "COLONIA TARANCO ESTE",
            "partido": "LEANDRO N ALEM",
            "municipio": null,
            "cp": "3315",
            "latitud": "-27.6974957",
            "longitud": "-55.4682167"
        },
        {
            "id": 9465,
            "nombre": "COLONIA VICTORIA",
            "partido": "ELDORADO",
            "municipio": "COLONIA VICTORIA",
            "cp": "3382",
            "latitud": "-26.3293114",
            "longitud": "-54.6199684"
        },
        {
            "id": 9584,
            "nombre": "COLONIA YABEBIRI",
            "partido": "OBERA",
            "municipio": null,
            "cp": "3316",
            "latitud": "-27.4378902",
            "longitud": "-55.2951354"
        },
        {
            "id": 29521,
            "nombre": "COLONIA YABOTY",
            "partido": "SAN PEDRO",
            "municipio": "SAN PEDRO",
            "cp": "3352",
            "latitud": "-26.7038796",
            "longitud": "-53.8701481"
        },
        {
            "id": 9616,
            "nombre": "COLONIA YACUTINGA",
            "partido": "SAN IGNACIO",
            "municipio": null,
            "cp": "3317",
            "latitud": "-27.2399427",
            "longitud": "-55.3452248"
        },
        {
            "id": 29476,
            "nombre": "COLONIAS UNIDAS",
            "partido": "GUARANI",
            "municipio": "SAN VICENTE",
            "cp": "3356",
            "latitud": "-27.2069905",
            "longitud": "-54.4979825"
        },
        {
            "id": 9476,
            "nombre": "COMANDANTE ANDRESITO",
            "partido": "GENERAL MANUEL BELGRANO",
            "municipio": "ANDRESITO",
            "cp": "3366",
            "latitud": "-25.6674361",
            "longitud": "-54.0456435"
        },
        {
            "id": 30224,
            "nombre": "COMUNIDAD ABORIGEN GUAVIRAMI",
            "partido": "MONTECARLO",
            "municipio": "MONTECARLO",
            "cp": "3384",
            "latitud": "-26.5914518",
            "longitud": "-54.4251737"
        },
        {
            "id": 9453,
            "nombre": "COMUNIDAD ABORIGEN OJO DE AGUA",
            "partido": "CONCEPCION",
            "municipio": "SANTA MARIA",
            "cp": "3328",
            "latitud": "-27.8902386",
            "longitud": "-55.4254192"
        },
        {
            "id": 29647,
            "nombre": "COMUNIDAD ABORIGEN POZO AZUL",
            "partido": "SAN PEDRO",
            "municipio": "POZO AZUL",
            "cp": "3364",
            "latitud": null,
            "longitud": null
        },
        {
            "id": 29596,
            "nombre": "COMUNIDAD ABORIGEN YACUTINGA",
            "partido": "SAN IGNACIO",
            "municipio": "GOBERNADOR ROCA",
            "cp": "3324",
            "latitud": "-27.2573676",
            "longitud": "-55.3048770"
        },
        {
            "id": 9451,
            "nombre": "CONCEPCION DE LA SIERRA",
            "partido": "CONCEPCION",
            "municipio": "CONCEPCION DE LA SIERRA",
            "cp": "3355",
            "latitud": "-27.9785080",
            "longitud": "-55.5204391"
        },
        {
            "id": 9331,
            "nombre": "CORONEL PRINGLES",
            "partido": "25 DE MAYO",
            "municipio": "ALBA POSSE",
            "cp": "3363",
            "latitud": "-27.4941063",
            "longitud": "-54.6799234"
        },
        {
            "id": 9617,
            "nombre": "CORPUS",
            "partido": "SAN IGNACIO",
            "municipio": "CORPUS",
            "cp": "3327",
            "latitud": "-27.1270237",
            "longitud": "-55.5077553"
        },
        {
            "id": 29097,
            "nombre": "CORREDERA",
            "partido": "SAN JAVIER",
            "municipio": "SAN JAVIER",
            "cp": "3357",
            "latitud": "-27.8423724",
            "longitud": "-55.1007570"
        },
        {
            "id": 9676,
            "nombre": "CRUCE CABALLERO",
            "partido": "SAN PEDRO",
            "municipio": null,
            "cp": "3364",
            "latitud": "-26.5443847",
            "longitud": "-53.9413605"
        },
        {
            "id": 20456,
            "nombre": "CRUCE LONDERO",
            "partido": "GUARANI",
            "municipio": null,
            "cp": "3364",
            "latitud": "-27.1770047",
            "longitud": "-54.4561533"
        },
        {
            "id": 9372,
            "nombre": "CRUCE PINDAYTI",
            "partido": "CAINGUAS",
            "municipio": null,
            "cp": "3364",
            "latitud": "-27.1281767",
            "longitud": "-54.7246705"
        },
        {
            "id": 9541,
            "nombre": "CUÑA PIRU",
            "partido": "LIBERTADOR GRAL SAN MARTIN",
            "municipio": null,
            "cp": "3334",
            "latitud": "-27.0506814",
            "longitud": "-55.0368649"
        },
        {
            "id": 20465,
            "nombre": "CUÑA PORA",
            "partido": "GUARANI",
            "municipio": null,
            "cp": "3364",
            "latitud": null,
            "longitud": null
        },
        {
            "id": 29582,
            "nombre": "DELICIA KILOMETRO 22",
            "partido": "ELDORADO",
            "municipio": "COLONIA DELICIA",
            "cp": "3382",
            "latitud": "-26.1930418",
            "longitud": "-54.4429358"
        },
        {
            "id": 29455,
            "nombre": "DOMINGO FAUSTINO SARMIENTO",
            "partido": "25 DE MAYO",
            "municipio": "25 DE MAYO",
            "cp": "3379",
            "latitud": "-27.3714537",
            "longitud": "-54.7903130"
        },
        {
            "id": 29822,
            "nombre": "DOS ARROYOS",
            "partido": "LEANDRO N ALEM",
            "municipio": "DOS ARROYOS",
            "cp": "3815",
            "latitud": "-27.6995610",
            "longitud": "-55.2514140"
        },
        {
            "id": 29686,
            "nombre": "DOS HERMANAS",
            "partido": "GENERAL MANUEL BELGRANO",
            "municipio": "BERNARDO DE IRIGOYEN",
            "cp": "3366",
            "latitud": "-26.2937260",
            "longitud": "-53.7571270"
        },
        {
            "id": 29531,
            "nombre": "DURAN",
            "partido": "SAN PEDRO",
            "municipio": "POZO AZUL",
            "cp": "3364",
            "latitud": "-26.3437318",
            "longitud": "-54.0127956"
        },
        {
            "id": 9618,
            "nombre": "EL 26",
            "partido": "SAN IGNACIO",
            "municipio": "SANTO PIPO",
            "cp": "3326",
            "latitud": "-27.1483278",
            "longitud": "-55.3689776"
        },
        {
            "id": 9542,
            "nombre": "EL ALCAZAR",
            "partido": "LIBERTADOR GRAL SAN MARTIN",
            "municipio": "EL ALCAZAR",
            "cp": "3384",
            "latitud": "-26.7158360",
            "longitud": "-54.8139488"
        },
        {
            "id": 29462,
            "nombre": "EL ANTA",
            "partido": "25 DE MAYO",
            "municipio": "COLONIA AURORA",
            "cp": "3363",
            "latitud": "-27.3451129",
            "longitud": "-54.3588508"
        },
        {
            "id": 29444,
            "nombre": "EL BARRERITO",
            "partido": "25 DE MAYO",
            "municipio": "ALBA POSSE",
            "cp": "3363",
            "latitud": "-27.5248079",
            "longitud": "-54.7736048"
        },
        {
            "id": 29501,
            "nombre": "EL CEIBO",
            "partido": "GUARANI",
            "municipio": "EL SOBERBIO",
            "cp": "3338",
            "latitud": "-27.1300664",
            "longitud": "-54.1515960"
        },
        {
            "id": 29549,
            "nombre": "EL CENTRAL",
            "partido": "GENERAL MANUEL BELGRANO",
            "municipio": "SAN ANTONIO",
            "cp": "3383",
            "latitud": "-26.0493550",
            "longitud": "-53.8711996"
        },
        {
            "id": 9583,
            "nombre": "EL CHAPA",
            "partido": "OBERA",
            "municipio": "COLONIA ALBERDI",
            "cp": "3361",
            "latitud": "-27.3078513",
            "longitud": "-55.1670942"
        },
        {
            "id": 9518,
            "nombre": "EL CHATON",
            "partido": "LEANDRO N ALEM",
            "municipio": null,
            "cp": "3315",
            "latitud": "-27.6159719",
            "longitud": "-55.2254872"
        },
        {
            "id": 29500,
            "nombre": "EL CRISTAL",
            "partido": "GUARANI",
            "municipio": "EL SOBERBIO",
            "cp": "3338",
            "latitud": "-27.1576730",
            "longitud": "-54.1864326"
        },
        {
            "id": 29081,
            "nombre": "EL CRUCE",
            "partido": "APOSTOLES",
            "municipio": "APOSTOLES",
            "cp": "3350",
            "latitud": "-27.8748479",
            "longitud": "-55.6951056"
        },
        {
            "id": 9619,
            "nombre": "EL DESTIERRO",
            "partido": "SAN IGNACIO",
            "municipio": null,
            "cp": "3326",
            "latitud": "-27.0754662",
            "longitud": "-55.4435005"
        },
        {
            "id": 27553,
            "nombre": "EL DORADITO",
            "partido": "CAINGUAS",
            "municipio": "2 DE MAYO",
            "cp": "3337",
            "latitud": "-27.2361983",
            "longitud": "-54.5622347"
        },
        {
            "id": 29641,
            "nombre": "EL DORADITO",
            "partido": "MONTECARLO",
            "municipio": "CARAGUATAY",
            "cp": "3372",
            "latitud": "-26.8638361",
            "longitud": "-54.5883925"
        },
        {
            "id": 29469,
            "nombre": "EL GRAPIA",
            "partido": "GUARANI",
            "municipio": "EL SOBERBIO",
            "cp": "3338",
            "latitud": "-27.3408347",
            "longitud": "-54.2598497"
        },
        {
            "id": 29525,
            "nombre": "EL LISO",
            "partido": "SAN PEDRO",
            "municipio": "SAN PEDRO",
            "cp": "3352",
            "latitud": "-26.6410533",
            "longitud": "-53.9389305"
        },
        {
            "id": 29479,
            "nombre": "EL LUCERO",
            "partido": "GUARANI",
            "municipio": "SAN VICENTE",
            "cp": "3356",
            "latitud": "-27.1987330",
            "longitud": "-54.4367665"
        },
        {
            "id": 29466,
            "nombre": "EL PALMITAL",
            "partido": "25 DE MAYO",
            "municipio": "COLONIA AURORA",
            "cp": "3363",
            "latitud": "-27.2982717",
            "longitud": "-54.4991519"
        },
        {
            "id": 29082,
            "nombre": "EL PARAISO",
            "partido": "APOSTOLES",
            "municipio": "APOSTOLES",
            "cp": "3350",
            "latitud": "-27.9827464",
            "longitud": "-55.7498592"
        },
        {
            "id": 29557,
            "nombre": "EL PARQUE",
            "partido": "GENERAL MANUEL BELGRANO",
            "municipio": "SAN ANTONIO",
            "cp": "3383",
            "latitud": "-25.9680740",
            "longitud": "-53.9735186"
        },
        {
            "id": 29605,
            "nombre": "EL POCITO",
            "partido": "LIBERTADOR GRAL SAN MARTIN",
            "municipio": "CAPIOVI",
            "cp": "3332",
            "latitud": "-26.9206974",
            "longitud": "-55.0797058"
        },
        {
            "id": 29439,
            "nombre": "EL PORTON",
            "partido": "CAINGUAS",
            "municipio": "2 DE MAYO",
            "cp": "3337",
            "latitud": "-27.2631996",
            "longitud": "-54.5466056"
        },
        {
            "id": 29426,
            "nombre": "EL PORVENIR",
            "partido": "LIBERTADOR GRAL SAN MARTIN",
            "municipio": "CAPIOVI",
            "cp": "3332",
            "latitud": "-26.9531323",
            "longitud": "-55.0232954"
        },
        {
            "id": 29416,
            "nombre": "EL PUEBLITO",
            "partido": "SAN IGNACIO",
            "municipio": "SANTO PIPO",
            "cp": "3326",
            "latitud": "-27.1535949",
            "longitud": "-55.3914384"
        },
        {
            "id": 29418,
            "nombre": "EL PUERTO",
            "partido": "SAN IGNACIO",
            "municipio": "SANTO PIPO",
            "cp": "3326",
            "latitud": "-27.1023924",
            "longitud": "-55.4431383"
        },
        {
            "id": 9318,
            "nombre": "EL SALTIÑO",
            "partido": "25 DE MAYO",
            "municipio": null,
            "cp": "3363",
            "latitud": "-27.4557172",
            "longitud": "-54.6023587"
        },
        {
            "id": 9319,
            "nombre": "EL SALTITO",
            "partido": "25 DE MAYO",
            "municipio": null,
            "cp": "3363",
            "latitud": "-27.2006261",
            "longitud": "-54.6549532"
        },
        {
            "id": 9489,
            "nombre": "EL SOBERBIO",
            "partido": "GUARANI",
            "municipio": "EL SOBERBIO",
            "cp": "3364",
            "latitud": "-27.2977850",
            "longitud": "-54.1989117"
        },
        {
            "id": 20466,
            "nombre": "EL SOCORRO",
            "partido": "GUARANI",
            "municipio": null,
            "cp": "3364",
            "latitud": "-26.8463904",
            "longitud": "-54.3669331"
        },
        {
            "id": 29577,
            "nombre": "EL SUSTO",
            "partido": "IGUAZU",
            "municipio": "WANDA",
            "cp": "3376",
            "latitud": "-25.9885843",
            "longitud": "-54.2911510"
        },
        {
            "id": 29587,
            "nombre": "EL TAKUARAL",
            "partido": "SAN IGNACIO",
            "municipio": "SAN IGNACIO",
            "cp": "3322",
            "latitud": "-27.2726352",
            "longitud": "-55.5452627"
        },
        {
            "id": 9368,
            "nombre": "EL TIGRE",
            "partido": "CAINGUAS",
            "municipio": "CAMPO GRANDE",
            "cp": "3364",
            "latitud": "-27.2730575",
            "longitud": "-54.9542134"
        },
        {
            "id": 29569,
            "nombre": "EL TIGRE",
            "partido": "CONCEPCION",
            "municipio": "CONCEPCION DE LA SIERRA",
            "cp": "3371",
            "latitud": "-27.9443460",
            "longitud": "-55.4833163"
        },
        {
            "id": 29568,
            "nombre": "EL TIGRE",
            "partido": "GENERAL MANUEL BELGRANO",
            "municipio": "ANDRESITO",
            "cp": "3385",
            "latitud": "-25.7656026",
            "longitud": "-53.9185814"
        },
        {
            "id": 9620,
            "nombre": "EL TRIUNFO",
            "partido": "SAN IGNACIO",
            "municipio": "SAN IGNACIO",
            "cp": "3322",
            "latitud": "-27.2109102",
            "longitud": "-55.5473376"
        },
        {
            "id": 9466,
            "nombre": "ELDORADO",
            "partido": "ELDORADO",
            "municipio": "ELDORADO",
            "cp": "3380",
            "latitud": "-26.4086212",
            "longitud": "-54.6238428"
        },
        {
            "id": 29520,
            "nombre": "ESMERALDA",
            "partido": "SAN PEDRO",
            "municipio": "SAN PEDRO",
            "cp": "3352",
            "latitud": "-26.7233932",
            "longitud": "-53.9194296"
        },
        {
            "id": 9346,
            "nombre": "ESTACION APOSTOLES",
            "partido": "APOSTOLES",
            "municipio": "APOSTOLES",
            "cp": "3358",
            "latitud": "-27.9113483",
            "longitud": "-55.8081169"
        },
        {
            "id": 9621,
            "nombre": "ESTACION EXPERIMENTAL DE LORET",
            "partido": "SAN IGNACIO",
            "municipio": null,
            "cp": "3322",
            "latitud": null,
            "longitud": null
        },
        {
            "id": 20373,
            "nombre": "ESTANCIA ITAEMBE",
            "partido": "CAPITAL",
            "municipio": null,
            "cp": "3300",
            "latitud": null,
            "longitud": null
        },
        {
            "id": 20497,
            "nombre": "ESTANCIA SANTA RITA",
            "partido": "MONTECARLO",
            "municipio": null,
            "cp": "3384",
            "latitud": null,
            "longitud": null
        },
        {
            "id": 29424,
            "nombre": "EVA PERON",
            "partido": "SAN IGNACIO",
            "municipio": "HIPOLITO YRIGOYEN",
            "cp": "3335",
            "latitud": "-27.1098707",
            "longitud": "-55.3445666"
        },
        {
            "id": 29547,
            "nombre": "FABRICA VIEJA",
            "partido": "GENERAL MANUEL BELGRANO",
            "municipio": "SAN ANTONIO",
            "cp": "3383",
            "latitud": "-26.0577635",
            "longitud": "-53.7722878"
        },
        {
            "id": 9421,
            "nombre": "FACHINAL",
            "partido": "CAPITAL",
            "municipio": "FACHINAL",
            "cp": "3304",
            "latitud": "-27.6300000",
            "longitud": "-55.7038890"
        },
        {
            "id": 29540,
            "nombre": "FACUNDO QUIROGA",
            "partido": "GENERAL MANUEL BELGRANO",
            "municipio": "BERNARDO DE IRIGOYEN",
            "cp": "3366",
            "latitud": "-26.1508986",
            "longitud": "-53.7061504"
        },
        {
            "id": 29458,
            "nombre": "FLOR DE MAYO",
            "partido": "25 DE MAYO",
            "municipio": "COLONIA AURORA",
            "cp": "3363",
            "latitud": "-27.4249120",
            "longitud": "-54.5148512"
        },
        {
            "id": 9585,
            "nombre": "FLORENTINO AMEGHINO",
            "partido": "SAN JAVIER",
            "municipio": "FLORENTINO AMEGHINO",
            "cp": "3361",
            "latitud": "-27.6336984",
            "longitud": "-55.0824356"
        },
        {
            "id": 29666,
            "nombre": "FORTIN MBORORE",
            "partido": "IGUAZU",
            "municipio": "PUERTO IGUAZU",
            "cp": "3370",
            "latitud": "-25.6246742",
            "longitud": "-54.5691799"
        },
        {
            "id": 9490,
            "nombre": "FRACRAN",
            "partido": "GUARANI",
            "municipio": "FRACRAN",
            "cp": "3364",
            "latitud": "-26.7424168",
            "longitud": "-54.2954731"
        },
        {
            "id": 27571,
            "nombre": "FRAGA CUE",
            "partido": "SAN JAVIER",
            "municipio": null,
            "cp": "3353",
            "latitud": "-27.8341350",
            "longitud": "-55.2290107"
        },
        {
            "id": 29394,
            "nombre": "FRANCISCO MORENO",
            "partido": "OBERA",
            "municipio": "LOS HELECHOS",
            "cp": "3361",
            "latitud": "-27.5948412",
            "longitud": "-55.1284116"
        },
        {
            "id": 27565,
            "nombre": "FRAY LUIS BELTRAN",
            "partido": "GUARANI",
            "municipio": null,
            "cp": "3338",
            "latitud": "-27.3761127",
            "longitud": "-54.2763191"
        },
        {
            "id": 27551,
            "nombre": "FRIGO",
            "partido": "CAINGUAS",
            "municipio": null,
            "cp": "3337",
            "latitud": null,
            "longitud": null
        },
        {
            "id": 9543,
            "nombre": "GARUHAPE",
            "partido": "LIBERTADOR GRAL SAN MARTIN",
            "municipio": "GARUHAPE",
            "cp": "3334",
            "latitud": "-26.8167858",
            "longitud": "-54.9570885"
        },
        {
            "id": 9422,
            "nombre": "GARUPA",
            "partido": "CAPITAL",
            "municipio": "GARUPA",
            "cp": "3304",
            "latitud": "-27.4809265",
            "longitud": "-55.8288193"
        },
        {
            "id": 9586,
            "nombre": "GENERAL ALVEAR",
            "partido": "OBERA",
            "municipio": "GENERAL ALVEAR",
            "cp": "3361",
            "latitud": "-27.4261259",
            "longitud": "-55.1690533"
        },
        {
            "id": 29703,
            "nombre": "GENERAL URQUIZA",
            "partido": "SAN IGNACIO",
            "municipio": "GENERAL URQUIZA",
            "cp": "3318",
            "latitud": "-27.1064470",
            "longitud": "-55.3760100"
        },
        {
            "id": 9495,
            "nombre": "GOBERNADOR LANUSSE",
            "partido": "IGUAZU",
            "municipio": null,
            "cp": "3376",
            "latitud": "-25.9814561",
            "longitud": "-54.2633402"
        },
        {
            "id": 29821,
            "nombre": "GOBERNADOR LOPEZ",
            "partido": "LEANDRO N ALEM",
            "municipio": "GOBERNADOR LOPEZ",
            "cp": "3315",
            "latitud": "-27.6667440",
            "longitud": "-55.2131080"
        },
        {
            "id": 9622,
            "nombre": "GOBERNADOR ROCA",
            "partido": "SAN IGNACIO",
            "municipio": "GOBERNADOR ROCA",
            "cp": "3324",
            "latitud": "-27.1920749",
            "longitud": "-55.4698875"
        },
        {
            "id": 9519,
            "nombre": "GRAL GUEMES",
            "partido": "LEANDRO N ALEM",
            "municipio": "CERRO AZUL",
            "cp": "3313",
            "latitud": "-27.6469183",
            "longitud": "-55.5573367"
        },
        {
            "id": 29445,
            "nombre": "GRANADERO CHEPOYA",
            "partido": "25 DE MAYO",
            "municipio": "ALBA POSSE",
            "cp": "3363",
            "latitud": "-27.4881446",
            "longitud": "-54.7434580"
        },
        {
            "id": 29597,
            "nombre": "GUAPORAITY",
            "partido": "SAN IGNACIO",
            "municipio": "HIPOLITO YRIGOYEN",
            "cp": "3335",
            "latitud": "-27.1118823",
            "longitud": "-55.2948985"
        },
        {
            "id": 9587,
            "nombre": "GUARANI",
            "partido": "OBERA",
            "municipio": "GUARANI",
            "cp": "3361",
            "latitud": "-27.5041256",
            "longitud": "-55.1732368"
        },
        {
            "id": 29646,
            "nombre": "GUAVIRA POTY",
            "partido": "GUARANI",
            "municipio": "SAN VICENTE",
            "cp": "3364",
            "latitud": "-26.6387323",
            "longitud": "-54.2730656"
        },
        {
            "id": 29612,
            "nombre": "GUAVIRAVI",
            "partido": "LIBERTADOR GRAL SAN MARTIN",
            "municipio": "GARUHAPE",
            "cp": "3396",
            "latitud": "-27.0103733",
            "longitud": "-54.9514478"
        },
        {
            "id": 9588,
            "nombre": "GUAYABERA",
            "partido": "OBERA",
            "municipio": null,
            "cp": "3361",
            "latitud": "-27.3926818",
            "longitud": "-55.1225780"
        },
        {
            "id": 29660,
            "nombre": "GUAYAIVI PO",
            "partido": "IGUAZU",
            "municipio": "WANDA",
            "cp": "3376",
            "latitud": "-26.0666819",
            "longitud": "-54.1970218"
        },
        {
            "id": 9657,
            "nombre": "GUERRERO",
            "partido": "SAN JAVIER",
            "municipio": null,
            "cp": "3357",
            "latitud": "-27.8163510",
            "longitud": "-55.1495419"
        },
        {
            "id": 29627,
            "nombre": "GUYRAY",
            "partido": "GUARANI",
            "municipio": "SAN VICENTE",
            "cp": "3356",
            "latitud": "-27.2469348",
            "longitud": "-54.5124871"
        },
        {
            "id": 9624,
            "nombre": "HIPOLITO YRIGOYEN",
            "partido": "SAN IGNACIO",
            "municipio": "HIPOLITO YRIGOYEN",
            "cp": "3328",
            "latitud": "-27.0840816",
            "longitud": "-55.2951126"
        },
        {
            "id": 29459,
            "nombre": "IBY PORA",
            "partido": "25 DE MAYO",
            "municipio": "COLONIA AURORA",
            "cp": "3363",
            "latitud": "-27.4652234",
            "longitud": "-54.4929048"
        },
        {
            "id": 9483,
            "nombre": "INTEGRACION",
            "partido": "GENERAL MANUEL BELGRANO",
            "municipio": null,
            "cp": "3366",
            "latitud": "-25.7738258",
            "longitud": "-53.8543431"
        },
        {
            "id": 9658,
            "nombre": "INVERNADA CHICA",
            "partido": "SAN JAVIER",
            "municipio": "ITACARUARE",
            "cp": "3353",
            "latitud": "-27.8119930",
            "longitud": "-55.2844005"
        },
        {
            "id": 20519,
            "nombre": "INVERNADA DE ITACARUARE",
            "partido": "SAN JAVIER",
            "municipio": "ITACARUARE",
            "cp": "3353",
            "latitud": "-27.7984184",
            "longitud": "-55.2754336"
        },
        {
            "id": 9659,
            "nombre": "INVERNADA GRANDE",
            "partido": "SAN JAVIER",
            "municipio": null,
            "cp": "3353",
            "latitud": "-27.7708536",
            "longitud": "-55.2386450"
        },
        {
            "id": 9625,
            "nombre": "INVERNADA SAN IGNACIO",
            "partido": "SAN IGNACIO",
            "municipio": null,
            "cp": "3322",
            "latitud": "-27.3505525",
            "longitud": "-55.4797533"
        },
        {
            "id": 29092,
            "nombre": "INVERNADITA",
            "partido": "SAN JAVIER",
            "municipio": "ITACARUARE",
            "cp": "3353",
            "latitud": "-27.7756931",
            "longitud": "-55.3226257"
        },
        {
            "id": 29093,
            "nombre": "ISLA CHICA ITACARUARE",
            "partido": "SAN JAVIER",
            "municipio": "ITACARUARE",
            "cp": "3353",
            "latitud": "-27.9274292",
            "longitud": "-55.2731670"
        },
        {
            "id": 29399,
            "nombre": "ITA CHICA",
            "partido": "OBERA",
            "municipio": "CAMPO RAMON",
            "cp": "3367",
            "latitud": "-27.5572487",
            "longitud": "-54.9331105"
        },
        {
            "id": 29637,
            "nombre": "ITA PIRU",
            "partido": "GUARANI",
            "municipio": "EL SOBERBIO",
            "cp": "3338",
            "latitud": "-26.9404774",
            "longitud": "-54.2126914"
        },
        {
            "id": 29694,
            "nombre": "ITA POTY",
            "partido": "LIBERTADOR GRAL SAN MARTIN",
            "municipio": "RUIZ DE MONTOYA",
            "cp": "3330",
            "latitud": "-27.0064060",
            "longitud": "-55.0728002"
        },
        {
            "id": 29602,
            "nombre": "ITA POTY",
            "partido": "IGUAZU",
            "municipio": "PUERTO IGUAZU",
            "cp": "3370",
            "latitud": "-25.6054981",
            "longitud": "-54.5489717"
        },
        {
            "id": 9660,
            "nombre": "ITACARUARE",
            "partido": "SAN JAVIER",
            "municipio": "ITACARUARE",
            "cp": "3353",
            "latitud": "-27.8705903",
            "longitud": "-55.2608404"
        },
        {
            "id": 20374,
            "nombre": "ITAEMBE MINI",
            "partido": "CAPITAL",
            "municipio": null,
            "cp": "3300",
            "latitud": null,
            "longitud": null
        },
        {
            "id": 29650,
            "nombre": "ITAO MIRI",
            "partido": "SAN PEDRO",
            "municipio": "SAN PEDRO",
            "cp": "3352",
            "latitud": "-27.1243673",
            "longitud": "-53.8489959"
        },
        {
            "id": 29631,
            "nombre": "IVIRATY",
            "partido": "GUARANI",
            "municipio": "EL SOBERBIO",
            "cp": "3338",
            "latitud": "-26.9158070",
            "longitud": "-54.3049642"
        },
        {
            "id": 29676,
            "nombre": "IVOTY OKARA",
            "partido": "CANDELARIA",
            "municipio": "BONPLAND",
            "cp": "3317",
            "latitud": "-27.4836125",
            "longitud": "-55.4433711"
        },
        {
            "id": 29588,
            "nombre": "IVY POTY",
            "partido": "SAN IGNACIO",
            "municipio": "SAN IGNACIO",
            "cp": "3322",
            "latitud": "-27.2751322",
            "longitud": "-55.5449165"
        },
        {
            "id": 9627,
            "nombre": "JARDIN AMERICA",
            "partido": "SAN IGNACIO",
            "municipio": "JARDIN AMERICA",
            "cp": "3328",
            "latitud": "-27.0396996",
            "longitud": "-55.2322350"
        },
        {
            "id": 29663,
            "nombre": "JASY PORA",
            "partido": "IGUAZU",
            "municipio": "PUERTO IGUAZU",
            "cp": "3370",
            "latitud": "-25.6049576",
            "longitud": "-54.5449934"
        },
        {
            "id": 29632,
            "nombre": "JEJI",
            "partido": "GUARANI",
            "municipio": "EL SOBERBIO",
            "cp": "3338",
            "latitud": null,
            "longitud": null
        },
        {
            "id": 29633,
            "nombre": "JEJI MIRI",
            "partido": "GUARANI",
            "municipio": "EL SOBERBIO",
            "cp": "3338",
            "latitud": null,
            "longitud": null
        },
        {
            "id": 29436,
            "nombre": "JOSE LUIS",
            "partido": "CAINGUAS",
            "municipio": "CAMPO GRANDE",
            "cp": "3362",
            "latitud": "-27.2323093",
            "longitud": "-54.8836073"
        },
        {
            "id": 30257,
            "nombre": "JUAN GABUR",
            "partido": "OBERA",
            "municipio": "PANAMBI",
            "cp": "3373",
            "latitud": null,
            "longitud": null
        },
        {
            "id": 29667,
            "nombre": "KAA AGUY MIRI RUPA",
            "partido": "CAINGUAS",
            "municipio": "ARISTOBULO DEL VALLE",
            "cp": "3364",
            "latitud": "-27.0936144",
            "longitud": "-54.9426151"
        },
        {
            "id": 29623,
            "nombre": "KAA KUPE",
            "partido": "CAINGUAS",
            "municipio": "CAMPO GRANDE",
            "cp": "3364",
            "latitud": "-27.0629102",
            "longitud": "-55.0394229"
        },
        {
            "id": 29620,
            "nombre": "KAA POTY",
            "partido": "CAINGUAS",
            "municipio": "CAMPO GRANDE",
            "cp": "3362",
            "latitud": "-27.1421621",
            "longitud": "-55.0393059"
        },
        {
            "id": 29658,
            "nombre": "KAAGUY PORA",
            "partido": "GENERAL MANUEL BELGRANO",
            "municipio": "ANDRESITO",
            "cp": "3385",
            "latitud": "-25.5985792",
            "longitud": "-54.0600209"
        },
        {
            "id": 29617,
            "nombre": "KAAGUY POTY",
            "partido": "LIBERTADOR GRAL SAN MARTIN",
            "municipio": "GARUHAPE",
            "cp": "3396",
            "latitud": "-27.1013073",
            "longitud": "-54.9667903"
        },
        {
            "id": 29679,
            "nombre": "KAATYMI",
            "partido": "SAN IGNACIO",
            "municipio": "SAN IGNACIO",
            "cp": "3322",
            "latitud": "-27.3611248",
            "longitud": "-55.4571999"
        },
        {
            "id": 29616,
            "nombre": "KAPII POTY",
            "partido": "LIBERTADOR GRAL SAN MARTIN",
            "municipio": "GARUHAPE",
            "cp": "3396",
            "latitud": "-27.0972053",
            "longitud": "-54.9579478"
        },
        {
            "id": 29651,
            "nombre": "KAPII YVATE",
            "partido": "SAN PEDRO",
            "municipio": "SAN PEDRO",
            "cp": "3352",
            "latitud": "-27.1183708",
            "longitud": "-53.8090306"
        },
        {
            "id": 29435,
            "nombre": "KILOMETRO 12",
            "partido": "LIBERTADOR GRAL SAN MARTIN",
            "municipio": "EL ALCAZAR",
            "cp": "3390",
            "latitud": "-26.7715086",
            "longitud": "-54.7768497"
        },
        {
            "id": 29510,
            "nombre": "KILOMETRO 18 RP 16",
            "partido": "MONTECARLO",
            "municipio": "PUERTO PIRAY",
            "cp": "3381",
            "latitud": "-26.5223101",
            "longitud": "-54.5968673"
        },
        {
            "id": 29434,
            "nombre": "KILOMETRO 20",
            "partido": "LIBERTADOR GRAL SAN MARTIN",
            "municipio": "EL ALCAZAR",
            "cp": "3390",
            "latitud": "-26.8173519",
            "longitud": "-54.7606515"
        },
        {
            "id": 20493,
            "nombre": "KILOMETRO 26 RP4",
            "partido": "LEANDRO N ALEM",
            "municipio": "DOS ARROYOS",
            "cp": "3315",
            "latitud": "-27.7385432",
            "longitud": "-55.2709131"
        },
        {
            "id": 9424,
            "nombre": "KILOMETRO 538",
            "partido": "CAPITAL",
            "municipio": null,
            "cp": "3306",
            "latitud": null,
            "longitud": null
        },
        {
            "id": 9425,
            "nombre": "KILOMETRO 546",
            "partido": "CAPITAL",
            "municipio": null,
            "cp": "3306",
            "latitud": null,
            "longitud": null
        },
        {
            "id": 9426,
            "nombre": "KILOMETRO 577",
            "partido": "CAPITAL",
            "municipio": null,
            "cp": "3304",
            "latitud": null,
            "longitud": null
        },
        {
            "id": 20379,
            "nombre": "KILOMETRO 595",
            "partido": "CAPITAL",
            "municipio": null,
            "cp": "3300",
            "latitud": null,
            "longitud": null
        },
        {
            "id": 9590,
            "nombre": "KILOMETRO 8",
            "partido": "OBERA",
            "municipio": "PANAMBI",
            "cp": "3361",
            "latitud": null,
            "longitud": null
        },
        {
            "id": 27589,
            "nombre": "KM 1230",
            "partido": "CAINGUAS",
            "municipio": null,
            "cp": "3337",
            "latitud": null,
            "longitud": null
        },
        {
            "id": 27590,
            "nombre": "KM 1246",
            "partido": "CAINGUAS",
            "municipio": null,
            "cp": "3337",
            "latitud": null,
            "longitud": null
        },
        {
            "id": 27591,
            "nombre": "KM 1247",
            "partido": "CAINGUAS",
            "municipio": null,
            "cp": "3337",
            "latitud": null,
            "longitud": null
        },
        {
            "id": 30223,
            "nombre": "KM 15 RP 5",
            "partido": "OBERA",
            "municipio": "PANAMBI",
            "cp": "3373",
            "latitud": "-27.7089860",
            "longitud": "-54.9680862"
        },
        {
            "id": 27562,
            "nombre": "KM 18",
            "partido": "GUARANI",
            "municipio": null,
            "cp": "3338",
            "latitud": null,
            "longitud": null
        },
        {
            "id": 27588,
            "nombre": "KM1228",
            "partido": "CAINGUAS",
            "municipio": null,
            "cp": "3337",
            "latitud": null,
            "longitud": null
        },
        {
            "id": 29669,
            "nombre": "KO E JU MIRI",
            "partido": "LIBERTADOR GRAL SAN MARTIN",
            "municipio": "RUIZ DE MONTOYA",
            "cp": "3330",
            "latitud": "-27.0608423",
            "longitud": "-55.0137673"
        },
        {
            "id": 29622,
            "nombre": "KO EJU",
            "partido": "CAINGUAS",
            "municipio": "CAMPO GRANDE",
            "cp": "3364",
            "latitud": "-27.0678690",
            "longitud": "-55.0126460"
        },
        {
            "id": 29645,
            "nombre": "KOKUE POTY",
            "partido": "MONTECARLO",
            "municipio": "MONTECARLO",
            "cp": "3384",
            "latitud": "-26.6028947",
            "longitud": "-54.3880850"
        },
        {
            "id": 29591,
            "nombre": "KOKUEREI",
            "partido": "SAN IGNACIO",
            "municipio": "SAN IGNACIO",
            "cp": "3322",
            "latitud": "-27.2471102",
            "longitud": "-55.5637932"
        },
        {
            "id": 29594,
            "nombre": "KUTUPYRY POTY",
            "partido": "SAN IGNACIO",
            "municipio": "SAN IGNACIO",
            "cp": "3322",
            "latitud": "-27.2959713",
            "longitud": "-55.4434414"
        },
        {
            "id": 29090,
            "nombre": "LA ARROCERA",
            "partido": "SAN JAVIER",
            "municipio": "ITACARUARE",
            "cp": "3353",
            "latitud": "-27.8359984",
            "longitud": "-55.3283430"
        },
        {
            "id": 27567,
            "nombre": "LA BONITA",
            "partido": "GUARANI",
            "municipio": null,
            "cp": "3338",
            "latitud": "-27.1412728",
            "longitud": "-54.3488514"
        },
        {
            "id": 9347,
            "nombre": "LA CAPILLA",
            "partido": "APOSTOLES",
            "municipio": null,
            "cp": "3350",
            "latitud": "-27.8739468",
            "longitud": "-55.6218627"
        },
        {
            "id": 29442,
            "nombre": "LA CORDILLERA",
            "partido": "CAINGUAS",
            "municipio": "2 DE MAYO",
            "cp": "3337",
            "latitud": "-27.0271109",
            "longitud": "-54.7299162"
        },
        {
            "id": 29085,
            "nombre": "LA CORITA",
            "partido": "CONCEPCION",
            "municipio": "SANTA MARIA",
            "cp": "3355",
            "latitud": "-27.8923960",
            "longitud": "-55.3553060"
        },
        {
            "id": 29405,
            "nombre": "LA DIVISA",
            "partido": "OBERA",
            "municipio": "CAMPO VIERA",
            "cp": "3375",
            "latitud": "-27.2509481",
            "longitud": "-55.0378465"
        },
        {
            "id": 27768,
            "nombre": "LA FLOR",
            "partido": "GUARANI",
            "municipio": "SAN VICENTE",
            "cp": "3364",
            "latitud": "-27.1248266",
            "longitud": "-54.2766482"
        },
        {
            "id": 29548,
            "nombre": "LA FORESTAL",
            "partido": "GENERAL MANUEL BELGRANO",
            "municipio": "SAN ANTONIO",
            "cp": "3383",
            "latitud": "-26.0480582",
            "longitud": "-53.7687850"
        },
        {
            "id": 29140,
            "nombre": "LA FORTALEZA",
            "partido": "CANDELARIA",
            "municipio": "SANTA ANA",
            "cp": "3316",
            "latitud": "-27.4334712",
            "longitud": "-55.5790882"
        },
        {
            "id": 9628,
            "nombre": "LA HORQUETA",
            "partido": "SAN IGNACIO",
            "municipio": null,
            "cp": "3322",
            "latitud": null,
            "longitud": null
        },
        {
            "id": 9395,
            "nombre": "LA INVERNADA",
            "partido": "CANDELARIA",
            "municipio": "CERRO CORA",
            "cp": "3309",
            "latitud": "-27.4685738",
            "longitud": "-55.5907077"
        },
        {
            "id": 29407,
            "nombre": "LA ISOLINA",
            "partido": "SAN IGNACIO",
            "municipio": "SAN IGNACIO",
            "cp": "3322",
            "latitud": "-27.3542702",
            "longitud": "-55.2855316"
        },
        {
            "id": 29398,
            "nombre": "LA LINEA",
            "partido": "OBERA",
            "municipio": "PANAMBI",
            "cp": "3373",
            "latitud": "-27.6244216",
            "longitud": "-55.0393552"
        },
        {
            "id": 9633,
            "nombre": "LA MARIA ANTONIA",
            "partido": "SAN IGNACIO",
            "municipio": "SAN IGNACIO",
            "cp": "3322",
            "latitud": "-27.1944248",
            "longitud": "-55.5320586"
        },
        {
            "id": 9629,
            "nombre": "LA OTILIA",
            "partido": "SAN IGNACIO",
            "municipio": null,
            "cp": "3328",
            "latitud": null,
            "longitud": null
        },
        {
            "id": 9496,
            "nombre": "LA PLANTADORA",
            "partido": "IGUAZU",
            "municipio": null,
            "cp": "3322",
            "latitud": null,
            "longitud": null
        },
        {
            "id": 20427,
            "nombre": "LA ROTONDA",
            "partido": "CAPITAL",
            "municipio": null,
            "cp": "3300",
            "latitud": null,
            "longitud": null
        },
        {
            "id": 29121,
            "nombre": "LA TORRE",
            "partido": "LEANDRO N ALEM",
            "municipio": "CERRO AZUL",
            "cp": "3315",
            "latitud": "-27.6428304",
            "longitud": "-55.5913622"
        },
        {
            "id": 29447,
            "nombre": "LA UVA",
            "partido": "25 DE MAYO",
            "municipio": "ALBA POSSE",
            "cp": "3363",
            "latitud": "-27.5234627",
            "longitud": "-54.8429227"
        },
        {
            "id": 29541,
            "nombre": "LAGUNA AZUL",
            "partido": "GENERAL MANUEL BELGRANO",
            "municipio": "BERNARDO DE IRIGOYEN",
            "cp": "3366",
            "latitud": "-26.2958868",
            "longitud": "-53.7904453"
        },
        {
            "id": 9564,
            "nombre": "LAHARRAGUE",
            "partido": "MONTECARLO",
            "municipio": "MONTECARLO",
            "cp": "3384",
            "latitud": "-26.5356745",
            "longitud": "-54.6528922"
        },
        {
            "id": 27586,
            "nombre": "LAPACHO",
            "partido": "CAINGUAS",
            "municipio": null,
            "cp": "3337",
            "latitud": null,
            "longitud": null
        },
        {
            "id": 27560,
            "nombre": "LAPACHO",
            "partido": "GUARANI",
            "municipio": "EL SOBERBIO",
            "cp": "3338",
            "latitud": "-27.2142673",
            "longitud": "-54.2769251"
        },
        {
            "id": 29448,
            "nombre": "LAS ABEJAS",
            "partido": "25 DE MAYO",
            "municipio": "ALBA POSSE",
            "cp": "3361",
            "latitud": "-27.4436628",
            "longitud": "-54.8687049"
        },
        {
            "id": 27572,
            "nombre": "LAS BANANERAS",
            "partido": "SAN JAVIER",
            "municipio": "ITACARUARE",
            "cp": "3353",
            "latitud": "-27.9172932",
            "longitud": "-55.2965916"
        },
        {
            "id": 29440,
            "nombre": "LAS CAMPIÑAS",
            "partido": "LEANDRO N ALEM",
            "municipio": "CERRO AZUL",
            "cp": "3313",
            "latitud": "-27.6118790",
            "longitud": "-55.5674392"
        },
        {
            "id": 29441,
            "nombre": "LAS CAMPIÑAS",
            "partido": "CAINGUAS",
            "municipio": "2 DE MAYO",
            "cp": "3337",
            "latitud": "-26.9853142",
            "longitud": "-54.7008254"
        },
        {
            "id": 27555,
            "nombre": "LAS FLORES",
            "partido": "GUARANI",
            "municipio": null,
            "cp": "3338",
            "latitud": null,
            "longitud": null
        },
        {
            "id": 29467,
            "nombre": "LAS LIMAS",
            "partido": "25 DE MAYO",
            "municipio": "COLONIA AURORA",
            "cp": "3363",
            "latitud": "-27.2921589",
            "longitud": "-54.3748337"
        },
        {
            "id": 27575,
            "nombre": "LAS MANDARINAS",
            "partido": "SAN JAVIER",
            "municipio": null,
            "cp": "3353",
            "latitud": "-27.8779792",
            "longitud": "-55.3018753"
        },
        {
            "id": 20458,
            "nombre": "LAS MERCEDES",
            "partido": "GUARANI",
            "municipio": null,
            "cp": "3364",
            "latitud": "-27.1695315",
            "longitud": "-54.3493819"
        },
        {
            "id": 29519,
            "nombre": "LAS MINAS",
            "partido": "SAN PEDRO",
            "municipio": "SAN PEDRO",
            "cp": "3352",
            "latitud": "-26.7066176",
            "longitud": "-53.9797370"
        },
        {
            "id": 9396,
            "nombre": "LAS QUEMADAS",
            "partido": "CANDELARIA",
            "municipio": "CERRO CORA",
            "cp": "3309",
            "latitud": "-27.5478613",
            "longitud": "-55.6109923"
        },
        {
            "id": 29423,
            "nombre": "LAS QUINIENTAS",
            "partido": "SAN IGNACIO",
            "municipio": "JARDIN AMERICA",
            "cp": "3328",
            "latitud": "-27.1078426",
            "longitud": "-55.2353512"
        },
        {
            "id": 29561,
            "nombre": "LAS QUINTETAS",
            "partido": "GENERAL MANUEL BELGRANO",
            "municipio": "ANDRESITO",
            "cp": "3385",
            "latitud": "-25.7734451",
            "longitud": "-54.0176809"
        },
        {
            "id": 9348,
            "nombre": "LAS TUNAS",
            "partido": "APOSTOLES",
            "municipio": null,
            "cp": "3350",
            "latitud": "-27.9579878",
            "longitud": "-55.6597657"
        },
        {
            "id": 20385,
            "nombre": "LAS VERTIENTES",
            "partido": "CAPITAL",
            "municipio": null,
            "cp": "3300",
            "latitud": null,
            "longitud": null
        },
        {
            "id": 9520,
            "nombre": "LEANDRO N ALEM",
            "partido": "LEANDRO N ALEM",
            "municipio": "LEANDRO N ALEM",
            "cp": "3315",
            "latitud": "-27.6006813",
            "longitud": "-55.3230972"
        },
        {
            "id": 27563,
            "nombre": "LECHUZA",
            "partido": "GUARANI",
            "municipio": "EL SOBERBIO",
            "cp": "3338",
            "latitud": "-27.2474710",
            "longitud": "-54.2334771"
        },
        {
            "id": 29598,
            "nombre": "LEONI TABAY",
            "partido": "LIBERTADOR GRAL SAN MARTIN",
            "municipio": "PUERTO LEONI",
            "cp": "3333",
            "latitud": "-27.0050288",
            "longitud": "-55.1693584"
        },
        {
            "id": 27554,
            "nombre": "LOMA PORA",
            "partido": "CAINGUAS",
            "municipio": null,
            "cp": "3337",
            "latitud": "-27.1133432",
            "longitud": "-54.5475895"
        },
        {
            "id": 29404,
            "nombre": "LOMAS DE ACARAGUA",
            "partido": "OBERA",
            "municipio": "CAMPO RAMON",
            "cp": "3367",
            "latitud": "-27.4034365",
            "longitud": "-54.9493542"
        },
        {
            "id": 29831,
            "nombre": "LORETO",
            "partido": "CANDELARIA",
            "municipio": "LORETO",
            "cp": "3308",
            "latitud": "-27.3184300",
            "longitud": "-55.5330390"
        },
        {
            "id": 29104,
            "nombre": "LOS CEDROS",
            "partido": "SAN JAVIER",
            "municipio": "FLORENTINO AMEGHINO",
            "cp": "3360",
            "latitud": "-27.6649615",
            "longitud": "-55.0571917"
        },
        {
            "id": 9663,
            "nombre": "LOS GALPONES",
            "partido": "SAN JAVIER",
            "municipio": null,
            "cp": "3353",
            "latitud": "-27.7949075",
            "longitud": "-55.1936716"
        },
        {
            "id": 9591,
            "nombre": "LOS HELECHOS",
            "partido": "OBERA",
            "municipio": "LOS HELECHOS",
            "cp": "3361",
            "latitud": "-27.5503802",
            "longitud": "-55.0754610"
        },
        {
            "id": 29106,
            "nombre": "LOS TOROS",
            "partido": "SAN JAVIER",
            "municipio": "FLORENTINO AMEGHINO",
            "cp": "3360",
            "latitud": "-27.6687426",
            "longitud": "-55.0920175"
        },
        {
            "id": 20507,
            "nombre": "MACACO",
            "partido": "MONTECARLO",
            "municipio": null,
            "cp": "3384",
            "latitud": null,
            "longitud": null
        },
        {
            "id": 9427,
            "nombre": "MANANTIALES",
            "partido": "CAPITAL",
            "municipio": null,
            "cp": "3306",
            "latitud": null,
            "longitud": null
        },
        {
            "id": 29606,
            "nombre": "MARANGATU",
            "partido": "LIBERTADOR GRAL SAN MARTIN",
            "municipio": "PUERTO LEONI",
            "cp": "3333",
            "latitud": "-26.9654694",
            "longitud": "-55.1037846"
        },
        {
            "id": 29513,
            "nombre": "MARIA AUXILIADORA",
            "partido": "SAN PEDRO",
            "municipio": "SAN PEDRO",
            "cp": "3352",
            "latitud": "-26.6688413",
            "longitud": "-53.9996562"
        },
        {
            "id": 29395,
            "nombre": "MARIANO NECOCHEA",
            "partido": "OBERA",
            "municipio": "PANAMBI",
            "cp": "3373",
            "latitud": "-27.6708831",
            "longitud": "-54.9823820"
        },
        {
            "id": 29105,
            "nombre": "MARTIN GUEMES",
            "partido": "SAN JAVIER",
            "municipio": "FLORENTINO AMEGHINO",
            "cp": "3360",
            "latitud": "-27.7113027",
            "longitud": "-55.0396503"
        },
        {
            "id": 29089,
            "nombre": "MARTIRES",
            "partido": "CANDELARIA",
            "municipio": "MARTIRES",
            "cp": "3308",
            "latitud": "-27.4224138",
            "longitud": "-55.3762316"
        },
        {
            "id": 30256,
            "nombre": "MBA EPU PORA",
            "partido": "SAN IGNACIO",
            "municipio": "SAN IGNACIO",
            "cp": "3322",
            "latitud": null,
            "longitud": null
        },
        {
            "id": 29672,
            "nombre": "MBAE PU PORA",
            "partido": "SAN IGNACIO",
            "municipio": "HIPOLITO YRIGOYEN",
            "cp": "3335",
            "latitud": null,
            "longitud": null
        },
        {
            "id": 29585,
            "nombre": "MBOKAJATY",
            "partido": "SAN IGNACIO",
            "municipio": "SAN IGNACIO",
            "cp": "3322",
            "latitud": "-27.2980604",
            "longitud": "-55.5717625"
        },
        {
            "id": 9561,
            "nombre": "MBOPICUA",
            "partido": "LIBERTADOR GRAL SAN MARTIN",
            "municipio": "PUERTO RICO",
            "cp": "3332",
            "latitud": "-26.8688622",
            "longitud": "-55.0456505"
        },
        {
            "id": 29595,
            "nombre": "MBORAYU",
            "partido": "SAN IGNACIO",
            "municipio": "GOBERNADOR ROCA",
            "cp": "3324",
            "latitud": "-27.3408800",
            "longitud": "-55.2613613"
        },
        {
            "id": 29397,
            "nombre": "MBORORE",
            "partido": "OBERA",
            "municipio": "PANAMBI",
            "cp": "3373",
            "latitud": "-27.6888006",
            "longitud": "-54.9258040"
        },
        {
            "id": 9521,
            "nombre": "MECKING",
            "partido": "LEANDRO N ALEM",
            "municipio": null,
            "cp": "3315",
            "latitud": null,
            "longitud": null
        },
        {
            "id": 20459,
            "nombre": "MESA REDONDA",
            "partido": "GUARANI",
            "municipio": null,
            "cp": "3364",
            "latitud": null,
            "longitud": null
        },
        {
            "id": 20460,
            "nombre": "MIGUEL GUEMES",
            "partido": "GUARANI",
            "municipio": "EL SOBERBIO",
            "cp": "3364",
            "latitud": "-27.3224150",
            "longitud": "-54.2396474"
        },
        {
            "id": 20461,
            "nombre": "MOCONA",
            "partido": "GUARANI",
            "municipio": null,
            "cp": "3364",
            "latitud": null,
            "longitud": null
        },
        {
            "id": 9665,
            "nombre": "MOJON GRANDE",
            "partido": "SAN JAVIER",
            "municipio": "MOJON GRANDE",
            "cp": "3315",
            "latitud": "-27.7087002",
            "longitud": "-55.1562424"
        },
        {
            "id": 29496,
            "nombre": "MONTE ALTO",
            "partido": "GUARANI",
            "municipio": "SAN VICENTE",
            "cp": "3356",
            "latitud": "-26.9504299",
            "longitud": "-54.3327387"
        },
        {
            "id": 9350,
            "nombre": "MONTE HERMOSO",
            "partido": "APOSTOLES",
            "municipio": "AZARA",
            "cp": "3351",
            "latitud": "-28.0734168",
            "longitud": "-55.5906970"
        },
        {
            "id": 29504,
            "nombre": "MONTE QUEMADO",
            "partido": "MONTECARLO",
            "municipio": "CARAGUATAY",
            "cp": "3372",
            "latitud": "-26.8224392",
            "longitud": "-54.7045052"
        },
        {
            "id": 9491,
            "nombre": "MONTEAGUDO",
            "partido": "GUARANI",
            "municipio": "EL SOBERBIO",
            "cp": "3364",
            "latitud": "-27.2842354",
            "longitud": "-54.0962245"
        },
        {
            "id": 9568,
            "nombre": "MONTECARLO",
            "partido": "MONTECARLO",
            "municipio": "MONTECARLO",
            "cp": "3384",
            "latitud": "-26.5655499",
            "longitud": "-54.7638817"
        },
        {
            "id": 29584,
            "nombre": "MONYOLITO",
            "partido": "APOSTOLES",
            "municipio": "TRES CAPONES",
            "cp": "3354",
            "latitud": "-27.9516349",
            "longitud": "-55.5845541"
        },
        {
            "id": 9399,
            "nombre": "NACIENTES DEL ISABEL",
            "partido": "CANDELARIA",
            "municipio": null,
            "cp": "3309",
            "latitud": null,
            "longitud": null
        },
        {
            "id": 9351,
            "nombre": "NACIENTES DEL TUNA",
            "partido": "APOSTOLES",
            "municipio": null,
            "cp": "3350",
            "latitud": "-27.8303801",
            "longitud": "-55.6134047"
        },
        {
            "id": 29611,
            "nombre": "ÑAMANDU",
            "partido": "LIBERTADOR GRAL SAN MARTIN",
            "municipio": "GARUHAPE",
            "cp": "3396",
            "latitud": "-27.0164913",
            "longitud": "-54.9487308"
        },
        {
            "id": 29578,
            "nombre": "NUEVA ARGENTINA",
            "partido": "IGUAZU",
            "municipio": "WANDA",
            "cp": "3376",
            "latitud": "-25.9306204",
            "longitud": "-54.3344899"
        },
        {
            "id": 29581,
            "nombre": "NUEVA DELICIA",
            "partido": "ELDORADO",
            "municipio": "COLONIA DELICIA",
            "cp": "3382",
            "latitud": "-26.1839027",
            "longitud": "-54.5932536"
        },
        {
            "id": 29527,
            "nombre": "NUEVA ESPERANZA",
            "partido": "SAN PEDRO",
            "municipio": "SAN PEDRO",
            "cp": "3352",
            "latitud": "-26.3979683",
            "longitud": "-53.8163405"
        },